     2.10           OBSERVATION DATA    M (MIXED)           RINEX VERSION / TYPE
RTKCONV 2.4.2                           20150404 011251 UTC PGM / RUN BY / DATE 
log: D:\150403_downtown_1loop\base_6t_SAL_150403.ubx        COMMENT             
format: u-blox                                              COMMENT             
                                                            MARKER NAME         
                                                            MARKER NUMBER       
                                                            OBSERVER / AGENCY   
                                                            REC # / TYPE / VERS 
                                                            ANT # / TYPE        
 -2508071.9755 -4660007.8264  3548286.3124                  APPROX POSITION XYZ 
        0.0000        0.0000        0.0000                  ANTENNA: DELTA H/E/N
     1     1                                                WAVELENGTH FACT L1/2
     4    C1    L1    D1    S1                              # / TYPES OF OBSERV 
  2015     4     3    19    52   38.0000000     GPS         TIME OF FIRST OBS   
  2015     4     3    20    47   25.0010000     GPS         TIME OF LAST OBS    
                                                            END OF HEADER       
 15  4  3 19 52 38.0000000  0  4G 3G23G16G 7
  21159709.606     3248276.3531      -2666.683          32.000  
  20651161.889     -877013.434         475.333          50.000  
  20945051.005      487275.5123       -824.737          29.000  
  22627922.991    -2590501.036        1723.672          40.000  
 15  4  3 20  8 53.0000000  0  5G 3G23G16G 9G 7
  21697038.019     6071837.8393      -3116.130          22.000  
  20590842.279    -1193996.8601        163.794          51.000  
  21161419.954     1624189.4153      -1505.655          27.000  
  21416970.767    -1692526.7963       1575.332          32.000  
  22329811.463    -4157250.1823       1489.635          26.000  
 15  4  3 20 20  8.0000000  0  3G 3G23G 9
  22113515.473     8260580.5593      -3366.216          26.000  
  20585082.120    -1224268.4051        -79.004          47.000  
  21224156.471    -2705741.6233       1420.743          31.000  
 15  4  3 20 20  9.0000000  0  3G 3G23G 9
  22114156.629     8263947.0853      -3366.538          27.000  
  20585097.354    -1224188.747         -79.908          47.000  
  21223885.382    -2707162.8693       1420.720          31.000  
 15  4  3 20 20 10.0010000  0  3G 3G23G 9
  22114799.809     8267317.5123      -3366.953          27.000  
  20585112.675    -1224108.388         -80.571          48.000  
  21223613.908    -2708585.1043       1420.107          30.000  
 15  4  3 20 20 11.0010000  0  4G 3G23G 9G 7
  22115443.303     8270684.9573      -3368.390          27.000  
  20585128.171    -1224027.733         -80.711          48.000  
  21223342.750    -2710005.6193       1417.860          30.000  
  22147527.727       -5877.0663       1333.338          30.000  
 15  4  3 20 20 12.0010000  0  4G 3G23G 9G 7
  22116080.655     8274052.6893      -3368.579          27.000  
  20585143.789    -1223946.783         -81.001          48.000  
  21223071.992    -2711425.9633       1420.883          29.000  
  22147295.622       -7211.2653       1334.413          29.000  
 15  4  3 20 20 13.0010000  0  6G 3G23G16G 9G 7G10
  22116722.910     8277420.6843      -3366.940          28.000  
  20585159.145    -1223865.504         -81.151          48.000  
  21385052.975        7034.7193      -1948.215          27.000  
  21222801.130    -2712846.1012       1421.409          29.000  
  22147037.341       -8545.3993       1334.407          29.000  
  22960940.468      -12747.7293       1841.703          25.000  
 15  4  3 20 20 14.0010000  0  6G 3G23G16G 9G 7G10
  22117364.886     8280788.9173      -3367.795          28.000  
  20585174.344    -1223783.961         -81.933          48.000  
  21385423.635        8982.4613      -1947.674          26.000  
  21222530.913    -2714266.0873       1422.426          29.000  
  22146783.214       -9879.4633       1334.079          29.000  
  22960589.300      -14584.5863       1831.288          25.000  
 15  4  3 20 20 15.0010000  0  8G 3G23G16G 9G 7G32G10G27
  22118005.414     8284157.4683      -3368.910          29.000  
  20585190.014    -1223702.034         -82.224          48.000  
  21385793.475       10931.2083      -1958.719          25.000  
  21222259.946    -2715685.9293       1419.793          29.000  
  22146531.948      -11213.3313       1334.832          28.000  
  25672889.801       28407.8103      -3821.246          16.000  
  22960239.248      -16419.6193       1834.832          25.000  
  24158755.923    -2257830.5533       1811.425          23.000  
 15  4  3 20 20 16.0010000  0  8G 3G23G16G 9G 7G32G10G27
  22118646.395     8287526.3543      -3368.592          29.000  
  20585205.371    -1223619.758         -82.247          48.000  
  21386163.175       12881.8613      -1948.522          25.000  
  21221989.014    -2717105.5533       1416.116          29.000  
  22146275.674      -12547.0043       1333.364          27.000  
  25673618.434       32233.8803      -3814.963          17.000  
  22959899.981      -18253.8863       1846.673          24.000  
  24158410.706    -2259634.6943       1801.589          24.000  
 15  4  3 20 20 17.0010000  0  8G 3G23G16G 9G 7G32G10G27
  22119287.272     8290895.2483      -3369.974          29.000  
  20585221.355    -1223537.383         -82.622          48.000  
  21386533.992       14829.7783      -1946.095          24.000  
  21221718.466    -2718525.0902       1421.041          29.000  
  22146019.645      -13880.6973       1333.759          28.000  
  25674356.928       36059.0223      -3824.204          18.000  
  22959549.843      -20086.4383       1830.224          24.000  
  24158075.941    -2261436.7643       1800.403          23.000  
 15  4  3 20 20 18.0010000  0  9G 3G23G16G 9G 7G32G10G27G 6
  22119930.644     8294264.3663      -3369.245          30.000  
  20585236.938    -1223454.811         -83.108          48.000  
  21386905.438       16779.3143      -1949.597          24.000  
  21221448.546    -2719944.6473       1417.906          28.000  
  22145768.484      -15214.4153       1334.123          28.000  
  25675091.058       39883.7443      -3822.769          19.000  
  22959203.403      -21920.9893       1830.089          23.000  
  24157732.974    -2263243.5273       1802.293          22.000  
  25346979.256       13012.2063      -1887.669          17.000  
 15  4  3 20 20 19.0010000  0  9G 3G23G16G 9G 7G32G10G27G 6
  22120575.203     8297633.4323      -3369.189          30.000  
  20585252.748    -1223372.058         -82.920          48.000  
  21387274.126       18729.6193      -1950.128          25.000  
  21221178.050    -2721364.1083       1420.352          29.000  
  22145514.059      -16548.0283       1333.517          28.000  
  25675819.343       43710.3593      -3826.905          19.000  
  22958840.334      -23753.7433       1828.076          23.000  
  24157390.775    -2265043.7003       1798.078          22.000  
  25347339.010       14896.6493      -1883.029          18.000  
 15  4  3 20 20 20.0010000  0  9G 3G23G16G 9G 7G32G10G27G 6
  22121219.413     8301002.9912      -3368.517          31.000  
  20585268.331    -1223289.005         -83.594          48.000  
  21387646.566       20680.3443      -1951.206          26.000  
  21220907.031    -2722783.3603       1417.651          28.000  
  22145258.012      -17881.5583       1333.766          28.000  
  25676550.019       47535.1393      -3819.800          20.000  
  22958500.561      -25586.9033       1831.040          23.000  
  24157046.866    -2266846.9533       1803.299          22.000  
  25347701.136       16786.6203      -1895.085          20.000  
 15  4  3 20 20 21.0010000  0  9G 3G23G16G 9G 7G32G10G27G 6
  22121854.443     8304372.5023      -3369.562          30.000  
  20585284.141    -1223205.851         -83.445          48.000  
  21388021.275       22631.4153      -1950.700          27.000  
  21220636.186    -2724202.7023       1417.337          27.000  
  22145004.775      -19215.1023       1334.347          27.000  
  25677279.106       51357.8973      -3811.706          19.000  
  22958149.026      -27417.8253       1822.175          23.000  
  24156705.785    -2268649.8823       1798.149          22.000  
  25348060.524       18674.9253      -1871.741          20.000  
 15  4  3 20 20 22.0010000  0  9G 3G23G16G 9G 7G32G10G27G 6
  22122493.156     8307742.2013      -3368.680          30.000  
  20585300.021    -1223122.528         -83.677          48.000  
  21388394.273       24582.8723      -1952.007          29.000  
  21220366.597    -2725621.9393       1424.733          28.000  
  22144749.251      -20548.7113       1331.880          27.000  
  25678006.292       55181.5393      -3831.523          19.000  
  22957794.944      -29250.6763       1837.689          22.000  
  24156360.637    -2270454.2983       1806.889          22.000  
  25348419.841       20564.1983      -1889.649          20.000  
 15  4  3 20 20 23.0010000  0  9G 3G23G16G 9G 7G32G10G27G 6
  22123140.315     8311112.3773      -3368.413          30.000  
  20585316.546    -1223038.759         -83.571          48.000  
  21388766.765       26535.1213      -1952.122          29.000  
  21220096.433    -2727040.9333       1423.392          28.000  
  22144496.293      -21881.9083       1332.941          27.000  
  25678730.354       59006.9263      -3822.720          18.000  
  22957451.053      -31080.5843       1830.229          22.000  
  24156015.838    -2272257.7613       1805.541          21.000  
  25348780.938       22453.1543      -1898.741          21.000  
 15  4  3 20 20 24.0010000  0  9G 3G23G16G 9G 7G32G10G27G 6
  22123775.555     8314482.4873      -3373.485          29.000  
  20585332.426    -1222954.881         -83.772          48.000  
  21389145.156       28487.6093      -1954.556          30.000  
  21219825.920    -2728459.9793       1417.367          28.000  
  22144242.532      -23215.2413       1332.819          27.000  
  25679461.849       62833.1173      -3822.656          17.000  
  22957099.588      -32915.5243       1836.576          22.000  
  24155671.301    -2274058.3633       1798.549          22.000  
  25349141.530       24339.6693      -1876.976          21.000  
 15  4  3 20 20 25.0010000  0  9G 3G23G16G 9G 7G32G10G27G 6
  22124417.479     8317852.7973      -3371.531          29.000  
  20585348.445    -1222870.917         -84.139          48.000  
  21389512.308       30440.5492      -1955.821          31.000  
  21219555.616    -2729878.9253       1422.056          27.000  
  22143987.951      -24548.5553       1334.278          27.000  
  25680189.366       66654.0133      -3833.402          17.000  
  22956751.508      -34747.4583       1832.960          22.000  
  24155325.856    -2275858.4893       1794.687          21.000  
  25349501.388       26228.4213      -1877.646          21.000  
 15  4  3 20 20 26.0010000  0  9G 3G23G16G 9G 7G32G10G27G 6
  22125058.740     8321223.0953      -3368.450          29.000  
  20585364.447    -1222786.863         -84.389          48.000  
  21389883.893       32393.7702      -1954.570          31.000  
  21219285.469    -2731298.2633       1418.795          27.000  
  22143731.398      -25881.9843       1333.544          27.000  
  25680921.350       70479.7683      -3822.332          16.000  
  22956403.778      -36576.9113       1823.617          22.000  
  24154984.984    -2277654.2083       1798.448          21.000  
  25349860.095       28118.2833      -1886.776          21.000  
 15  4  3 20 20 27.0010000  0  9G 3G23G16G 9G 7G32G10G27G 6
  22125700.140     8324593.5313      -3370.547          29.000  
  20585380.414    -1222702.556         -84.267          48.000  
  21390254.571       34347.4892      -1955.988          32.000  
  21219014.938    -2732717.1183       1419.446          26.000  
  22143477.148      -27215.3273       1334.721          27.000  
  25681648.885       74306.0113      -3827.431          16.000  
  22956055.367      -38405.3373       1818.291          21.000  
  24154639.260    -2279455.5343       1796.268          21.000  
  25350220.302       30007.8593      -1883.681          21.000  
 15  4  3 20 20 28.0010000  0  9G 3G23G16G 9G 7G32G10G27G 6
  22126341.156     8327964.2333      -3373.899          28.000  
  20585396.555    -1222618.005         -84.791          48.000  
  21390632.577       36301.7172      -1955.575          32.000  
  21218745.821    -2734135.9883       1418.125          27.000  
  22143224.783      -28548.5683       1333.314          27.000  
  25682376.891       78134.2453      -3825.528          17.000  
  22955707.322      -40237.3253       1834.814          21.000  
  24154296.939    -2281257.3383       1808.969          20.000  
  25350580.894       31897.9193      -1883.782          21.000  
 15  4  3 20 20 29.0010000  0  9G 3G23G16G 9G 7G32G10G27G 6
  22126982.050     8331335.0163      -3367.760          29.000  
  20585412.435    -1222533.331         -84.801          48.000  
  21391003.726       38256.3352      -1954.471          32.000  
  21218475.674    -2735554.8443       1419.722          26.000  
  22142968.841      -29881.8193       1333.371          26.000  
  25683105.263       81961.8403      -3830.010          18.000  
  22955357.655      -42062.8483       1811.263          20.000  
  24153953.955    -2283059.2853       1804.237          21.000  
  25350940.595       33782.9043      -1881.841          20.000  
 15  4  3 20 20 30.0010000  0  9G 3G23G16G 9G 7G32G10G27G 6
  22127623.695     8334705.8013      -3372.277          29.000  
  20585428.192    -1222448.599         -84.960          48.000  
  21391375.119       40211.2312      -1953.989          33.000  
  21218206.138    -2736973.7863       1417.238          26.000  
  22142714.538      -31215.1463       1333.439          26.000  
  25683832.047       85786.8303      -3813.017          17.000  
  22955007.185      -43895.5813       1825.979          19.000  
  24153608.423    -2284860.4593       1801.636          22.000  
  25351300.628       35673.3273      -1886.510          20.000  
 15  4  3 20 20 31.0010000  0  9G 3G23G16G 9G 7G32G10G27G 6
  22128265.060     8338076.6643      -3373.228          28.000  
  20585444.543    -1222363.716         -84.911          48.000  
  21391747.768       42166.023       -1956.382          33.000  
  21217933.514    -2738392.5893       1420.076          25.000  
  22142460.603      -32548.6103       1330.583          25.000  
  25684560.105       89609.0103      -3825.227          17.000  
  22954657.151      -45724.9313       1831.713          18.000  
  24153266.521    -2286663.5503       1800.503          23.000  
  25351661.708       37562.0563      -1890.672          20.000  
 15  4  3 20 20 32.0010000  0  9G 3G23G16G 9G 7G32G10G27G 6
  22128905.954     8341447.7043      -3371.674          28.000  
  20585460.580    -1222278.646         -85.225          48.000  
  21392120.435       44121.744       -1956.599          33.000  
  21217662.163    -2739811.4683       1418.274          25.000  
  22142206.091      -33881.9023       1332.468          25.000  
  25685287.151       93438.1793      -3825.082          17.000  
  22954310.746      -47556.1803       1832.781          19.000  
  24152922.804    -2288462.7883       1806.173          23.000  
  25352021.915       39451.9243      -1895.984          20.000  
 15  4  3 20 20 33.0010000  0  9G 3G23G16G 9G 7G32G10G27G 6
  22129547.389     8344819.1753      -3374.438          28.000  
  20585477.332    -1222193.209         -85.061          48.000  
  21392492.910       46078.098       -1956.650          33.000  
  21217393.866    -2741230.1333       1416.604          25.000  
  22141951.371      -35215.0853       1332.146          26.000  
  25686014.860       97262.4893      -3838.647          16.000  
  22953961.602      -49386.9053       1837.320          18.000  
  24152579.733    -2290265.5553       1795.339          23.000  
  25352382.559       41338.4543      -1893.697          19.000  
 15  4  3 20 20 34.0010000  0  9G 3G23G16G 9G 7G32G10G27G 6
  22130188.563     8348190.6573      -3369.936          28.000  
  20585493.578    -1222107.624         -85.775          48.000  
  21392865.246       48034.831       -1955.575          33.000  
  21217123.562    -2742648.6983       1417.601          25.000  
  22141699.145      -36548.1873       1333.470          27.000  
  25686742.953      101091.7223      -3819.761          15.000  
  22953606.508      -51237.4033       1893.856          18.000  
  24152236.941    -2292067.0723       1805.346          24.000  
  25352740.881       43225.1313      -1891.235          18.000  
 15  4  3 20 20 35.0010000  0  8G 3G23G16G 9G 7G32G27G 6
  22130830.452     8351562.3093      -3370.595          28.000  
  20585509.947    -1222021.889         -85.944          48.000  
  21393237.337       49991.960       -1957.170          33.000  
  21216852.298    -2744070.3003       1426.415          23.000  
  22141446.571      -37881.3673       1333.127          27.000  
  25687469.876      104911.5783      -3820.151          14.000  
  24151896.295    -2293869.0093       1801.503          25.000  
  25353103.043       45116.2483      -1884.229          18.000  
 15  4  3 20 20 36.0010000  0  8G 3G23G16G 9G 7G32G27G 6
  22131471.573     8354933.9173      -3373.094          28.000  
  20585526.315    -1221936.030         -85.474          48.000  
  21393610.492       51949.466       -1956.991          33.000  
  21216582.832    -2745489.4713       1418.664          23.000  
  22141193.892      -39214.5063       1333.206          27.000  
  25688196.922      108736.0913      -3831.752          13.000  
  24151553.904    -2295670.9083       1801.335          26.000  
  25353462.675       46999.3443      -1882.451          17.000  
 15  4  3 20 20 37.0010000  0  8G 3G23G16G 9G 7G32G27G 6
  22132112.903     8358305.8193      -3372.544          28.000  
  20585542.945    -1221849.928         -86.546          48.000  
  21393983.421       53907.435       -1959.073          33.000  
  21216312.249    -2746907.8643       1418.418          24.000  
  22140941.474      -40547.6183       1333.153          28.000  
  25688925.120      112555.2913      -3821.714          16.000  
  24151212.020    -2297472.7503       1801.989          27.000  
  25353821.033       48893.9483      -1883.837          17.000  
 15  4  3 20 20 38.0010000  0  9G 3G23G16G 9G 7G32G27G 6G19
  22132754.827     8361677.9243      -3375.136          28.000  
  20585559.401    -1221763.543         -86.568          48.000  
  21394355.965       55865.961       -1959.211          33.000  
  21216045.697    -2748325.6373       1418.398          25.000  
  22140687.783      -41880.5663       1333.365          28.000  
  25689649.129      116365.8473      -3818.968          16.000  
  24150869.053    -2299274.4583       1801.859          27.000  
  25354183.090       50784.3563      -1894.629          18.000  
  25194360.541       -7272.6783       2509.619          25.000  
 15  4  3 20 20 39.0010000  0 11G 3G23G16G 9G 7G32G20G10G27G 6G19
  22133397.030     8365050.1192      -3368.861          28.000  
  20585576.048    -1221677.139         -86.230          48.000  
  21394729.505       57824.748       -1959.368          33.000  
  21215779.022    -2749744.0733       1418.504          26.000  
  22140433.603      -43213.6173       1333.676          29.000  
  25690375.634      120192.0813      -3820.373          16.000  
  24815639.530       -7556.9693       2627.687          22.000  
  22951888.551      -60390.3753       1815.906          19.000  
  24150526.697    -2301076.2243       1802.875          27.000  
  25354545.042       52674.3133      -1887.310          19.000  
  25193887.483       -9785.1353       2513.050          24.000  
 15  4  3 20 20 40.0010000  0 11G 3G23G16G 9G 7G32G20G10G27G 6G19
  22134039.651     8368422.2273      -3372.601          28.000  
  20585592.573    -1221590.691         -86.512          48.000  
  21395102.346       59783.866       -1958.313          33.000  
  21215512.331    -2751162.5473       1418.313          27.000  
  22140180.645      -44546.8173       1332.755          29.000  
  25691104.233      124013.3363      -3825.350          15.000  
  24815141.501      -10172.7583       2615.346          21.000  
  22951539.530      -62217.2013       1829.735          19.000  
  24150184.813    -2302878.1133       1800.831          27.000  
  25354904.656       54565.2283      -1887.994          20.000  
  25193402.141      -12300.9543       2515.825          24.000  
 15  4  3 20 20 41.0010000  0 11G 3G23G16G 9G 7G32G20G10G27G 6G19
  22134681.610     8371794.7203      -3376.290          27.000  
  20585608.802    -1221503.822         -86.910          48.000  
  21395474.943       61743.603       -1959.405          33.000  
  21215246.180    -2752580.7783       1418.860          28.000  
  22139928.123      -45879.7113       1332.717          29.000  
  25691829.761      127828.5793      -3821.106          16.000  
  24814647.171      -12792.4663       2613.550          21.000  
  22951190.892      -64043.5273       1818.651          20.000  
  24149842.055    -2304679.5933       1801.760          27.000  
  25355264.131       56450.3373      -1883.090          21.000  
  25192926.901      -14816.1183       2505.727          23.000  
 15  4  3 20 20 42.0010000  0 11G 3G23G16G 9G 7G32G20G10G27G 6G19
  22135326.378     8375167.4153      -3372.406          27.000  
  20585625.397    -1221416.677         -87.517          48.000  
  21395847.924       63703.862       -1961.182          32.000  
  21214975.353    -2753998.8233       1418.036          28.000  
  22139681.045      -47212.4503       1333.788          30.000  
  25692558.325      131646.5833      -3814.445          16.000  
  24814145.268      -15410.1123       2611.842          20.000  
  22950843.597      -65869.1313       1822.736          21.000  
  24149500.974    -2306480.9673       1801.305          27.000  
  25355622.418       58338.4123      -1888.624          21.000  
  25192449.167      -17331.8213       2513.481          22.000  
 15  4  3 20 20 43.0010000  0 11G 3G23G16G 9G 7G32G20G10G27G 6G19
  22135967.708     8378540.3313      -3373.738          28.000  
  20585642.167    -1221329.315         -86.822          48.000  
  21396220.504       65664.552       -1959.472          32.000  
  21214704.909    -2755416.7683       1418.294          28.000  
  22139427.232      -48545.2073       1333.169          30.000  
  25693285.249      135470.7453      -3819.557          17.000  
  24813647.448      -18027.9013       2610.356          20.000  
  22950496.111      -67691.5263       1827.010          21.000  
  24149156.628    -2308282.2463       1800.760          27.000  
  25355983.045       60227.6693      -1887.139          21.000  
  25191969.495      -19847.9973       2514.643          22.000  
 15  4  3 20 20 44.0010000  0 11G 3G23G16G 9G 7G32G20G10G27G 6G19
  22136611.534     8381913.2723      -3371.972          28.000  
  20585658.797    -1221241.923         -87.601          48.000  
  21396592.961       67626.0763      -1962.200          31.000  
  21214435.513    -2756834.8473       1418.087          28.000  
  22139181.882      -49878.1362       1332.118          30.000  
  25694012.033      139294.0803      -3814.948          17.000  
  24813150.553      -20646.5653       2620.146          21.000  
  22950147.979      -69516.5733       1830.624          21.000  
  24148814.273    -2310083.5823       1801.465          27.000  
  25356342.833       62119.0973      -1895.780          21.000  
  25191488.567      -22362.8403       2513.240          22.000  
 15  4  3 20 20 45.0010000  0 11G 3G23G16G 9G 7G32G20G10G27G 6G19
  22137253.161     8385286.5903      -3373.947          28.000  
  20585675.724    -1221154.038         -87.949          48.000  
  21396965.733       69587.7743      -1959.970          31.000  
  21214164.005    -2758252.5533       1416.486          28.000  
  22138921.437      -51210.6692       1332.074          30.000  
  25694737.805      143114.3583      -3820.622          16.000  
  24812652.385      -23266.1463       2614.577          21.000  
  22949802.413      -71337.1143       1823.224          21.000  
  24148470.887    -2311884.6523       1801.423          28.000  
  25356701.418       64013.0243      -1896.850          20.000  
  25191010.152      -24878.4193       2511.261          22.000  
 15  4  3 20 20 46.0010000  0 11G 3G23G16G 9G 7G32G20G10G27G 6G19
  22137896.673     8388660.3793      -3372.875          27.000  
  20585692.371    -1221065.734         -88.705          48.000  
  21397337.806       71550.1622      -1960.390          30.000  
  21213894.242    -2759669.9503       1417.328          28.000  
  22138666.611      -52542.9352       1329.644          31.000  
  25695466.805      146933.8473      -3808.766          16.000  
  24812154.931      -25882.1643       2620.445          21.000  
  22949455.886      -73159.4293       1832.666          21.000  
  24148126.542    -2313685.3303       1799.522          27.000  
  25357059.775       65902.9973      -1890.282          20.000  
  25190530.428      -27394.4393       2513.802          22.000  
 15  4  3 20 20 47.0010000  0 11G 3G23G16G 9G 7G32G20G10G27G 6G19
  22138537.288     8392034.2333      -3373.465          27.000  
  20585709.158    -1220977.242         -88.224          48.000  
  21397710.839       73512.9343      -1963.943          29.000  
  21213625.072    -2761087.2893       1417.425          29.000  
  22138412.763      -53875.1592       1332.275          31.000  
  25696192.141      150751.8883      -3809.922          17.000  
  24811656.169      -28502.9173       2616.285          20.000  
  22949110.006      -74987.8843       1821.622          20.000  
  24147787.746    -2315485.8563       1800.942          28.000  
  25357417.819       67795.1553      -1886.908          20.000  
  25190051.995      -29913.6273       2518.144          22.000  
 15  4  3 20 20 48.0010000  0 12G 3G23G16G 9G 7G32G20G30G10G27G 6G19
  22139179.404     8395408.3413      -3373.417          27.000  
  20585725.858    -1220888.513         -88.857          48.000  
  21398083.332       75476.2572      -1961.381          28.000  
  21213355.606    -2762504.5423       1417.720          29.000  
  22138163.452      -55207.2922       1331.251          31.000  
  25696918.384      154571.5443      -3812.297          17.000  
  24811157.983      -31124.7733       2627.085          21.000  
  24444031.141       16610.7903       2286.253          27.000  
  22948763.252      -76809.9193       1825.019          20.000  
  24147444.849    -2317286.3053       1800.250          28.000  
  25357776.561       69688.4733      -1886.374          21.000  
  25189571.870      -32427.6083       2515.187          21.000  
 15  4  3 20 20 49.0010000  0 12G 3G23G16G 9G 7G32G20G30G10G27G 6G19
  22139821.013     8398782.6813      -3373.691          26.000  
  20585743.291    -1220799.446         -89.467          48.000  
  21398455.911       77440.0853      -1966.116          28.000  
  21213086.942    -2763921.5773       1416.138          28.000  
  22137909.918      -56539.2862       1333.575          31.000  
  25697641.067      158386.0723      -3835.304          16.000  
  24810661.053      -33744.5993       2612.446          20.000  
  24443601.394       14324.2513       2285.944          28.000  
  22948415.033      -78635.9633       1819.911          20.000  
  24147102.162    -2319086.6113       1800.599          28.000  
  25358133.313       71578.9953      -1892.883          20.000  
  25189090.209      -34946.2943       2530.472          21.000  
 15  4  3 20 20 50.0010000  0 12G 3G23G16G 9G 7G32G20G30G10G27G 6G19
  22140461.593     8402157.4643      -3374.161          26.000  
  20585760.008    -1220710.004         -89.811          48.000  
  21398828.857       79404.6433      -1966.219          28.000  
  21212816.447    -2765338.3443       1416.776          28.000  
  22137656.802      -57871.0382       1331.969          32.000  
  25698369.335      162218.5743      -3838.863          15.000  
  24810166.619      -36354.4213       2608.949          19.000  
  24443171.159       12037.9143       2286.007          29.000  
  22948070.723      -80456.3063       1824.645          20.000  
  24146758.061    -2320886.5843       1800.103          28.000  
  25358489.280       73467.3243      -1896.564          21.000  
  25188611.794      -37463.0813       2515.271          21.000  
 15  4  3 20 20 51.0010000  0 12G 3G23G16G 9G 7G32G20G30G10G27G 6G19
  22141105.576     8405532.4173      -3375.042          25.000  
  20585776.830    -1220620.250         -90.330          48.000  
  21399202.135       81369.7453      -1964.414          28.000  
  21212549.615    -2766754.9773       1415.865          28.000  
  22137403.547      -59202.6202       1330.462          32.000  
  25699096.904      166037.5173      -3818.268          16.000  
  24809666.042      -38973.1633       2617.407          19.000  
  24442733.298        9751.6453       2286.289          30.000  
  22947725.174      -82273.4093       1825.004          19.000  
  24146417.136    -2322686.3853       1798.312          28.000  
  25358848.876       75361.6553      -1892.018          21.000  
  25188135.613      -39980.0493       2514.034          21.000  
 15  4  3 20 20 52.0010000  0 12G 3G23G16G 9G 7G32G20G30G10G27G 6G19
  22141747.011     8408907.7593      -3375.066          25.000  
  20585793.757    -1220530.140         -90.900          48.000  
  21399575.465       83335.2903      -1965.728          27.000  
  21212280.725    -2768171.3583       1416.201          29.000  
  22137149.542      -60533.9962       1331.789          32.000  
  25699823.444      169857.8763      -3817.265          17.000  
  24809167.646      -41591.7263       2610.733          18.000  
  24442301.946        7465.5112       2287.062          31.000  
  22947380.061      -84091.2323       1810.664          18.000  
  24146075.531    -2324485.8903       1799.458          28.000  
  25359210.654       77262.2553      -1891.554          22.000  
  25187658.593      -42495.2373       2512.386          21.000  
 15  4  3 20 20 53.0010000  0 12G 3G23G16G 9G 7G32G20G30G10G27G 6G19
  22142391.360     8412283.3923      -3373.933          25.000  
  20585811.207    -1220439.639         -90.823          48.000  
  21399947.399       85301.4963      -1967.802          27.000  
  21212011.224    -2769587.4293       1416.325          29.000  
  22136895.519      -61865.1462       1332.814          32.000  
  25700550.856      173678.0183      -3833.097          18.000  
  24808670.262      -44203.7323       2611.410          18.000  
  24441869.600        5179.5752       2285.685          32.000  
  22947032.627      -85913.1813       1818.162          18.000  
  24145733.803    -2326285.1663       1797.908          28.000  
  25359569.832       79155.0133      -1887.295          22.000  
  25187177.491      -45014.0873       2525.340          22.000  
 15  4  3 20 20 54.0010000  0 12G 3G23G16G 9G 7G32G20G30G10G27G 6G19
  22143035.989     8415659.3643      -3376.263          25.000  
  20585828.326    -1220348.810         -90.581          48.000  
  21400321.601       87268.3553      -1968.329          27.000  
  21211741.635    -2771003.3333       1415.573          29.000  
  22136641.775      -63196.1672       1331.146          32.000  
  25701276.890      177497.6103      -3800.710          18.000  
  24808170.034      -46823.3993       2620.043          17.000  
  24441433.274        2893.6682       2282.761          32.000  
  22946685.420      -87734.0113       1832.621          18.000  
  24145390.086    -2328084.1853       1799.229          28.000  
  25359930.633       81047.9993      -1892.930          22.000  
  25186698.011      -47533.3613       2515.018          22.000  
 15  4  3 20 20 55.0010000  0 11G 3G23G16G 9G 7G32G20G30G27G 6G19
  22143678.419     8419036.0143      -3375.754          24.000  
  20585845.689    -1220257.682         -91.454          48.000  
  21400695.507       89235.7733      -1967.358          28.000  
  21211471.227    -2772419.1093       1414.460          29.000  
  22136388.433      -64527.472        1329.874          32.000  
  25702005.140      181314.7623      -3824.961          18.000  
  24807669.894      -49445.3173       2609.240          16.000  
  24440999.619         607.9322       2285.481          33.000  
  24145045.532    -2329883.0803       1799.176          28.000  
  25360293.231       82940.5053      -1899.023          23.000  
  25186218.601      -50052.1583       2516.949          21.000  
 15  4  3 20 20 56.0010000  0 11G 3G23G16G 9G 7G32G20G30G27G 6G19
  22144323.972     8422412.7013      -3375.955          23.000  
  20585863.122    -1220166.030         -92.250          48.000  
  21401069.814       91203.9163      -1968.835          27.000  
  21211202.441    -2773834.4453       1414.615          29.000  
  22136134.341      -65857.973        1329.294          32.000  
  25702732.709      185138.6693      -3814.604          18.000  
  24807173.330      -52059.3313       2621.265          15.000  
  24440567.168       -1677.5412       2286.788          33.000  
  24144705.270    -2331681.5273       1797.355          28.000  
  25360654.398       84836.8523      -1897.781          24.000  
  25185738.825      -52569.2533       2514.476          21.000  
 15  4  3 20 20 57.0010000  0 12G 3G23G16G 9G 7G32G20G30G10G27G 6G19
  22144966.227     8425788.8173      -3373.280          22.000  
  20585880.502    -1220074.161         -92.335          48.000  
  21401444.505       93172.5383      -1969.673          27.000  
  21210933.568    -2775249.7253       1414.756          29.000  
  22135881.435      -67188.333        1330.667          31.000  
  25703461.169      188960.2713      -3813.452          17.000  
  24806677.988      -54664.1583       2582.947          14.000  
  24440134.490       -3963.0172       2283.491          33.000  
  22945645.317      -93184.2253       1822.977          18.000  
  24144362.949    -2333479.8783       1797.882          29.000  
  25361016.979       86729.7333      -1889.554          25.000  
  25185259.380      -55087.1393       2520.432          21.000  
 15  4  3 20 20 58.0010000  0 12G 3G23G16G 9G 7G32G20G30G10G27G 6G19
  22145607.296     8429165.4323      -3370.137          22.000  
  20585898.319    -1219981.843         -92.051          48.000  
  21401819.633       95141.8483      -1967.990          27.000  
  21210663.561    -2776664.6273       1414.646          28.000  
  22135628.057      -68518.441        1328.621          31.000  
  25704191.355      192782.6023      -3820.271          17.000  
  24806177.813      -57274.8543       2619.044          14.000  
  24439698.915       -6248.2322       2285.161          34.000  
  22945299.471      -95005.5183       1822.177          19.000  
  24144019.075    -2335277.8573       1798.269          28.000  
  25361379.629       88626.3193      -1886.767          25.000  
  25184779.203      -57607.3513       2516.200          21.000  
 15  4  3 20 20 59.0010000  0 12G 3G23G16G 9G 7G32G20G30G10G27G 6G19
  22146251.907     8432545.5073      -3379.956          22.000  
  20585916.205    -1219889.359         -92.263          48.000  
  21402193.574       97111.5773      -1970.724          27.000  
  21210395.508    -2778079.5163       1414.915          28.000  
  22135373.895      -69848.548        1332.764          31.000  
  25704910.531      196601.5143      -3788.334          17.000  
  24805679.347      -59893.5213       2616.870          14.000  
  24439263.881       -8533.5122       2284.240          34.000  
  22944957.255      -96816.2103       1819.914          18.000  
  24143674.608    -2337075.8083       1797.866          28.000  
  25361742.210       90520.5413      -1907.079          25.000  
  25184299.182      -60127.5383       2523.901          20.000  
 15  4  3 20 21  0.0010000  0 12G 3G23G16G 9G 7G32G20G30G10G27G 6G19
  22146895.471     8435921.3693      -3360.708          21.000  
  20585933.586    -1219796.529         -92.963          48.000  
  21402566.397       99081.9133      -1971.111          27.000  
  21210125.885    -2779494.2183       1415.271          29.000  
  22135120.465      -71178.441        1330.855          31.000  
  25705647.646      200410.4953      -3823.624          17.000  
  24805180.899      -62498.6183       2615.183          13.000  
  24438829.196      -10818.6992       2285.005          34.000  
  22944611.339      -98627.4513       1814.448          17.000  
  24143331.868    -2338873.5493       1797.627          28.000  
  25362103.953       92418.4423      -1892.580          24.000  
  25183818.376      -62647.4583       2523.339          20.000  
 15  4  3 20 21  1.0010000  0 12G 3G23G16G 9G 7G32G20G30G10G27G 6G19
  22147536.976     8439294.9183      -3368.795          19.000  
  20585951.350    -1219703.448         -93.702          48.000  
  21402940.356      101052.6933      -1971.210          27.000  
  21209854.586    -2780908.7303       1414.387          28.000  
  22134866.844      -72508.270        1328.332          31.000  
  25706370.329      204232.4313      -3820.268          17.000  
  24804684.022      -65113.7913       2615.183          11.000  
  24438394.720      -13103.8012       2284.657          34.000  
  22944267.413     -100442.3833       1815.597          18.000  
  24142987.907    -2340671.1563       1797.067          28.000  
  25362462.694       94311.4803      -1894.225          24.000  
  25183342.020      -65168.5823       2518.401          21.000  
 15  4  3 20 21  2.0010000  0 12G 3G23G16G 9G 7G32G20G30G10G27G 6G19
  22148180.348     8442673.2123      -3379.118          18.000  
  20585968.695    -1219609.953         -93.346          48.000  
  21403314.942      103024.1393      -1969.729          27.000  
  21209589.291    -2782323.0653       1414.250          29.000  
  22134613.153      -73837.832        1330.468          30.000  
  25707077.779      208039.7843      -3816.888          16.000  
  24804187.249      -67728.9643       2615.183          10.000  
  24437960.088      -15388.7312       2285.420          34.000  
  22943923.958     -102252.0713       1815.252          18.000  
  24142644.434    -2342468.4303       1796.800          28.000  
  25362823.251       96208.0713      -1892.409          23.000  
  25182869.817      -67685.8653       2505.304          21.000  
 15  4  3 20 21  3.0010000  0 12G 3G23G16G 9G 7G32G20G30G10G27G 6G19
  22148825.151     8446051.6303      -3366.073          16.000  
  20585986.896    -1219516.262         -93.471          48.000  
  21403690.052      104996.0583      -1971.528          27.000  
  21209320.487    -2783737.2523       1414.505          29.000  
  22134359.147      -75166.8413       1330.373          30.000  
  25707817.999      211854.0373      -3807.063          17.000  
  24803688.452      -70344.1383       2615.183          10.000  
  24437525.350      -17673.7182       2285.215          34.000  
  22943574.831     -104075.7333       1807.569          17.000  
  24142304.748    -2344265.6083       1796.725          27.000  
  25363183.266       98101.3423      -1900.536          22.000  
  25182402.588      -70206.1413       2516.812          21.000  
 15  4  3 20 21  4.0010000  0 11G 3G23G16G 9G 7G32G30G10G27G 6G19
  22149465.277     8449420.3393      -3381.789          14.000  
  20586004.748    -1219422.407         -94.223          48.000  
  21404063.434      106968.3043      -1972.272          27.000  
  21209049.678    -2785151.4643       1413.791          28.000  
  22134105.386      -76496.3413       1328.858          30.000  
  25708542.253      215674.2923      -3825.220          16.000  
  24437090.823      -19958.7482       2284.584          33.000  
  22943221.901     -105890.8843       1847.767          18.000  
  24141960.316    -2346062.7393       1797.285          27.000  
  25363542.252       99992.7493      -1893.114          21.000  
  25181923.091      -72722.2403       2525.614          21.000  
 15  4  3 20 21  5.0010000  0 11G 3G23G16G 9G 7G32G30G10G27G 6G19
  22150110.761     8452802.1433      -3381.789          11.000  
  20586023.070    -1219328.171         -95.155          48.000  
  21404439.958      108941.2393      -1973.328          27.000  
  21208782.183    -2786565.3793       1413.983          29.000  
  22133851.782      -77825.6042       1329.129          31.000  
  25709275.127      219493.1083      -3821.607          16.000  
  24436655.998      -22243.5802       2284.488          33.000  
  22942861.467     -107726.6393       1816.517          16.000  
  24141620.647    -2347859.6793       1796.370          27.000  
  25363904.676      101892.9283      -1895.069          20.000  
  25181451.691      -75241.7033       2518.921          20.000  
 15  4  3 20 21  6.0010000  0 11G 3G23G16G 9G 7G32G30G10G27G 6G19
  22150756.087     8456183.9443      -3381.789           9.000  
  20586040.887    -1219233.494         -94.369          47.000  
  21404816.463      110914.7983      -1973.562          28.000  
  21208513.101    -2787978.9713       1413.484          28.000  
  22133598.632      -79154.6442       1329.900          31.000  
  25709994.739      223310.0683      -3806.304          15.000  
  24436221.505      -24528.2272       2284.031          32.000  
  22942532.408     -109538.0593       1810.094          16.000  
  24141276.354    -2349656.1803       1797.197          27.000  
  25364263.801      103785.6203      -1902.309          18.000  
  25180973.694      -77759.9183       2521.670          21.000  
 15  4  3 20 21  7.0010000  0 11G 3G23G16G 9G 7G32G30G10G27G 6G19
  22151405.009     8459565.7423      -3381.789          11.000  
  20586059.000    -1219138.725         -95.059          47.000  
  21405194.924      112888.7413      -1973.891          28.000  
  21208244.141    -2789392.6193       1413.792          29.000  
  22133345.726      -80483.7372       1329.506          31.000  
  25710723.984      227124.1543      -3808.682          16.000  
  24435786.907      -26813.433        2286.655          32.000  
  22942182.304     -111356.0483       1817.982          16.000  
  24140933.807    -2351452.7673       1795.654          27.000  
  25364626.452      105682.0553      -1898.760          19.000  
  25180511.787      -80278.4753       2514.810          21.000  
 15  4  3 20 21  8.0010000  0 11G 3G23G16G 9G 7G32G30G10G27G 6G19
  22152054.820     8462943.8713      -3373.183          12.000  
  20586077.306    -1219043.661         -95.074          47.000  
  21405572.878      114863.1983      -1974.112          29.000  
  21207973.976    -2790806.0873       1414.091          29.000  
  22133092.419      -81812.6482       1328.649          32.000  
  25711447.854      230931.1103      -3815.990          16.000  
  24435352.537      -29097.6143       2283.375          31.000  
  22941839.896     -113172.5083       1805.600          14.000  
  24140588.990    -2353249.1153       1796.295          26.000  
  25364988.491      107581.3153      -1893.803          19.000  
  25180037.979      -82795.6273       2519.281          21.000  
 15  4  3 20 21  9.0010000  0 11G 3G23G16G 9G 7G32G30G10G27G 6G19
  22152744.627     8466322.7823      -3376.802          15.000  
  20586094.930    -1218948.390         -95.226          47.000  
  21405950.047      116838.1163      -1975.421          29.000  
  21207706.866    -2792219.5163       1413.935          29.000  
  22132839.303      -83141.5682       1328.931          32.000  
  25712176.697      234748.1193      -3806.294          17.000  
  24434917.904      -31382.3372       2283.926          30.000  
  22941487.401     -114983.8753       1821.627          14.000  
  24140246.443    -2355045.4743       1795.077          26.000  
  25365350.269      109477.4503      -1902.508          18.000  
  25179564.170      -85314.4073       2527.440          22.000  
 15  4  3 20 21 10.0010000  0 12G 3G23G16G 9G 7G32G20G30G10G27G 6G19
  22153387.982     8469699.4333      -3380.659          19.000  
  20586113.462    -1218852.945         -95.975          47.000  
  21406325.227      118813.4533      -1975.530          29.000  
  21207437.714    -2793632.8983       1413.271          29.000  
  22132586.432      -84470.3922       1328.998          32.000  
  25712902.225      238562.6063      -3824.103          17.000  
  24800220.047      -88583.1123       2612.724           9.000  
  24434482.539      -33667.0713       2285.590          30.000  
  22941142.341     -116803.3353       1808.452          13.000  
  24139904.942    -2356841.6893       1797.494          27.000  
  25365713.687      111372.1453      -1883.269          18.000  
  25179084.726      -87836.4713       2527.838          22.000  
 15  4  3 20 21 11.0010000  0 12G 3G23G16G 9G 7G32G20G30G10G27G 6G19
  22154030.760     8473079.6903      -3382.604          20.000  
  20586131.209    -1218757.017         -96.447          47.000  
  21406701.227      120789.4923      -1975.483          29.000  
  21207169.678    -2795045.8883       1412.567          29.000  
  22132333.561      -85798.9532       1326.902          33.000  
  25713628.747      242380.6653      -3823.477          16.000  
  24799722.873      -91195.9303       2612.944           9.000  
  24434046.719      -35951.5743       2284.373          29.000  
  22940794.942     -118620.6973       1828.546          11.000  
  24139563.650    -2358637.5413       1795.711          26.000  
  25366072.604      113269.2653      -1899.214          18.000  
  25178607.654      -90356.4203       2519.764          22.000  
 15  4  3 20 21 12.0010000  0 11G 3G23G16G 9G 7G32G20G30G27G 6G19
  22154679.263     8476456.5593      -3386.863          21.000  
  20586150.021    -1218660.712         -96.299          47.000  
  21407076.860      122766.1733      -1976.253          29.000  
  21206898.816    -2796458.6123       1412.563          29.000  
  22132081.248      -87127.2752       1328.351          33.000  
  25714352.966      246199.2573      -3819.171          17.000  
  24799222.906      -93808.9673       2613.164           9.000  
  24433612.279      -38235.8543       2280.230          27.000  
  24139222.132    -2360433.1653       1795.910          26.000  
  25366434.521      115170.0483      -1903.174          17.000  
  25178124.475      -92878.2653       2521.947          23.000  
 15  4  3 20 21 13.0010000  0 11G 3G23G16G 9G 7G32G20G30G27G 6G19
  22155315.812     8479835.9663      -3376.417          21.000  
  20586168.570    -1218564.098         -96.819          47.000  
  21407455.739      124743.3863      -1977.232          28.000  
  21206630.885    -2797871.2063       1412.422          29.000  
  22131828.604      -88455.977        1327.910          33.000  
  25715079.524      250023.0973      -3818.124          16.000  
  24798723.708      -96414.6883       2604.577           9.000  
  24433173.807      -40520.2543       2284.594          26.000  
  24138882.673    -2362228.4843       1795.629          27.000  
  25366798.131      117070.4203      -1905.305          17.000  
  25177645.676      -95398.0653       2517.633          23.000  
 15  4  3 20 21 14.0010000  0 11G 3G23G16G 9G 7G32G20G30G27G 6G19
  22155955.066     8483216.7793      -3389.895          20.000  
  20586186.439    -1218467.173         -97.095          47.000  
  21407832.751      126721.1213      -1977.749          28.000  
  21206363.129    -2799283.6253       1411.846          29.000  
  22131575.803      -89783.970        1327.280          32.000  
  25715807.424      253843.4853      -3824.911          16.000  
  24798227.110      -99018.9233       2603.906          10.000  
  24432732.037      -42804.3313       2282.595          25.000  
  24138541.609    -2364023.7353       1795.502          26.000  
  25367161.358      118974.6963      -1903.075          16.000  
  25177161.799      -97918.8723       2511.983          23.000  
 15  4  3 20 21 15.0010000  0 11G 3G23G16G 9G 7G32G20G30G27G 6G19
  22156611.124     8486602.5193      -3380.463          19.000  
  20586204.902    -1218369.977         -97.462          47.000  
  21408208.978      128699.4193      -1977.923          27.000  
  21206094.588    -2800695.8863       1412.346          29.000  
  22131323.717      -91111.864        1329.441          33.000  
  25716532.464      257657.0403      -3819.407          16.000  
  24797732.728     -101622.4913       2603.234          10.000  
  24432289.413      -45088.5063       2282.433          23.000  
  24138200.509    -2365818.7973       1794.998          27.000  
  25367524.374      120869.9353      -1889.498          15.000  
  25176682.563     -100436.9743       2517.117          23.000  
 15  4  3 20 21 16.0010000  0 11G 3G23G16G 9G 7G32G20G30G27G 6G19
  22157233.381     8489983.3543      -3380.751          19.000  
  20586224.202    -1218272.456         -98.367          47.000  
  21408584.245      130678.2343      -1979.657          28.000  
  21205825.488    -2802107.9273       1411.377          29.000  
  22131071.282      -92439.606        1328.490          33.000  
  25717257.834      261470.8593      -3821.606          15.000  
  24797235.065     -104229.1693       2606.972          10.000  
  24431848.515      -47373.2143       2279.942          22.000  
  24137859.078    -2367613.6293       1794.914          26.000  
  25367884.128      122775.3723      -1914.766          14.000  
  25176202.770     -102958.6373       2533.571          22.000  
 15  4  3 20 21 17.0010000  0 11G 3G23G16G 9G 7G32G20G30G27G 6G19
  22157887.974     8493369.5673      -3391.450          18.000  
  20586242.507    -1218174.975         -97.615          47.000  
  21408960.332      132657.2913      -1978.817          27.000  
  21205556.982    -2803520.1653       1412.189          29.000  
  22130818.969      -93767.597        1327.427          33.000  
  25717981.983      265287.3133      -3819.704          15.000  
  24796741.817     -106836.0093       2606.740          10.000  
  24431408.404      -49657.9413       2288.376          22.000  
  24137519.497    -2369408.5853       1793.711          26.000  
  25368245.505      124671.8353      -1895.057          15.000  
  25175721.214     -105479.8243       2518.370          22.000  
 15  4  3 20 21 18.0010000  0 11G 3G23G16G 9G 7G32G20G30G27G 6G19
  22158550.995     8496750.4063      -3385.023          17.000  
  20586261.021    -1218077.167         -98.322          47.000  
  21409336.593      134636.8823      -1979.402          27.000  
  21205287.568    -2804932.2213       1412.114          29.000  
  22130566.377      -95094.8313       1328.437          33.000  
  25718708.802      269099.7043      -3802.488          14.000  
  24796243.317     -109442.6273       2606.508          10.000  
  24430972.619      -51941.4733       2279.963          23.000  
  24137177.804    -2371203.3703       1793.717          26.000  
  25368607.684      126574.5303      -1897.420          16.000  
  25175241.786     -108002.1463       2522.379          22.000  
 15  4  3 20 21 19.0010000  0 11G 3G23G16G 9G 7G32G20G30G27G 6G19
  22159182.309     8500137.7833      -3396.346          16.000  
  20586279.519    -1217978.884         -98.435          47.000  
  21409712.890      136617.1963      -1981.233          27.000  
  21205018.712    -2806343.8903       1411.258          29.000  
  22130314.257      -96422.2592       1326.392          32.000  
  25719431.381      272902.2063      -3771.239          12.000  
  24795744.467     -112056.5453       2615.083          10.000  
  24430542.157      -54224.6883       2283.017          25.000  
  24136835.518    -2372997.7063       1794.922          27.000  
  25368970.352      128476.0863      -1896.612          16.000  
  25174760.736     -110519.2503       2519.895          22.000  
 15  4  3 20 21 20.0010000  0 11G 3G23G16G 9G 7G32G20G30G27G 6G19
  22159825.349     8503522.4723      -3380.086          16.000  
  20586297.615    -1217880.421         -98.281          47.000  
  21410088.471      138597.9713      -1980.421          27.000  
  21204750.310    -2807755.5033       1412.242          29.000  
  22130061.543      -97749.7152       1326.626          32.000  
  25720150.923      276684.9863      -3812.089          11.000  
  24795245.199     -114671.9453       2615.742          14.000  
  24430111.974      -56508.6983       2283.722          27.000  
  24136494.960    -2374792.0233       1794.443          27.000  
  25369330.088      130366.5473      -1898.912          17.000  
  25174279.808     -113039.1753       2527.894          22.000  
 15  4  3 20 21 21.0010000  0 11G 3G23G16G 9G 7G32G20G30G27G 6G19
  22160428.569     8506908.1893      -3379.942          17.000  
  20586316.321    -1217781.569         -98.462          47.000  
  21410464.506      140579.2773      -1981.710          26.000  
  21204482.048    -2809166.8823       1411.022          29.000  
  22129809.073      -99076.9352       1326.893          33.000  
  25720874.148      280497.0913      -3812.089          11.000  
  24794747.763     -117287.9943       2616.401          14.000  
  24429678.057      -58792.4883       2284.180          28.000  
  24136154.768    -2376586.0733       1794.585          27.000  
  25369690.784      132265.6083      -1892.560          18.000  
  25173798.182     -115561.7783       2526.697          23.000  
 15  4  3 20 21 22.0010000  0 11G 3G23G16G 9G 7G32G20G30G27G 6G19
  22161055.869     8510287.3483      -3377.421          19.000  
  20586335.202    -1217682.431         -99.396          47.000  
  21410840.558      142561.1353      -1981.103          25.000  
  21204210.732    -2810578.1183       1411.742          29.000  
  22129556.882     -100403.9972       1325.598          33.000  
  25721602.066      284309.1873      -3812.089          11.000  
  24794251.636     -119900.9253       2612.652          14.000  
  24429247.072      -61076.1843       2283.268          29.000  
  24135814.105    -2378379.9333       1794.370          27.000  
  25370052.562      134165.9703      -1896.648          19.000  
  25173319.802     -118084.5943       2521.914          23.000  
 15  4  3 20 21 23.0010000  0 11G 3G23G16G 9G 7G32G20G30G27G 6G19
  22161680.761     8513670.6863      -3393.117          21.000  
  20586354.258    -1217582.794         -99.333          47.000  
  21411217.552      144543.8313      -1982.184          24.000  
  21203942.854    -2811988.9343       1410.796          28.000  
  22129304.500     -101730.7052       1328.723          33.000  
  25722327.628      288121.2923      -3812.089           8.000  
  24793753.991     -122513.6753       2612.871          14.000  
  24428815.249      -63359.5923       2283.642          30.000  
  24135473.721    -2380173.4303       1793.897          28.000  
  25370415.823      136065.4553      -1899.791          19.000  
  25172838.525     -120605.7833       2517.682          23.000  
 15  4  3 20 21 24.0010000  0 11G 3G23G16G 9G 7G32G20G30G27G 6G19
  22162320.661     8517053.9773      -3380.660          23.000  
  20586373.174    -1217482.778        -100.459          47.000  
  21411596.292      146525.8423      -1982.534          22.000  
  21203672.271    -2813399.5403       1410.988          28.000  
  22129052.554     -103057.2142       1325.325          33.000  
  25723051.010      291933.3873      -3812.089           8.000  
  24793255.508     -125126.6363       2613.091          14.000  
  24428388.294      -65642.7333       2283.203          31.000  
  24135132.377    -2381966.6413       1793.034          29.000  
  25370777.025      137966.3003      -1901.359          20.000  
  25172358.330     -123125.7723       2527.254          23.000  
 15  4  3 20 21 25.0010000  0 11G 3G23G16G 9G 7G32G20G30G27G 6G19
  22162982.408     8520438.3763      -3382.724          23.000  
  20586392.317    -1217382.373        -100.883          47.000  
  21411973.723      148503.8953      -1976.898          21.000  
  21203402.438    -2814809.8653       1411.579          28.000  
  22128800.363     -104384.032        1325.833          33.000  
  25723777.619      295737.9923      -3803.298           8.000  
  24792760.323     -127732.2893       2604.504          14.000  
  24427954.377      -67925.8472       2281.707          32.000  
  24134790.510    -2383759.5563       1792.438          29.000  
  25371138.803      139871.6253      -1902.574          19.000  
  25171877.489     -125644.8593       2522.308          22.000  
 15  4  3 20 21 26.0010000  0 11G 3G23G16G 9G 7G32G20G30G27G 6G19
  22163615.292     8523823.1503      -3385.767          23.000  
  20586412.123    -1217281.487        -100.935          47.000  
  21412351.590      150486.6593      -1988.955          21.000  
  21203132.815    -2816219.8373       1409.788          28.000  
  22128547.998     -105709.934        1326.628          33.000  
  25724502.624      299540.8703      -3802.419           5.000  
  24792263.341     -130336.4493       2603.833          18.000  
  24427521.158      -70208.6772       2282.948          33.000  
  24134450.998    -2385552.1663       1791.600          29.000  
  25371500.441      141772.5803      -1892.151          19.000  
  25171398.236     -128168.1273       2522.486          23.000  
 15  4  3 20 21 27.0010000  0 11G 3G23G16G 9G 7G32G20G30G27G 6G19
  22164266.570     8527206.4383      -3384.970          24.000  
  20586431.196    -1217180.333        -101.014          47.000  
  21412731.219      152471.9483      -1984.703          21.000  
  21202865.163    -2817629.6903       1409.500          28.000  
  22128295.982     -107035.803        1325.649          33.000  
  25725224.365      303342.8743      -3801.540           5.000  
  24791768.941     -132941.0913       2614.581          13.000  
  24427088.131      -72491.4662       2283.190          33.000  
  24134109.498    -2387344.5103       1792.319          29.000  
  25371860.893      143673.4113      -1900.487          18.000  
  25170917.029     -130688.0323       2523.774          22.000  
 15  4  3 20 21 28.0010000  0 10G 3G23G16G 9G 7G20G30G27G 6G19
  22164901.147     8530590.8873      -3385.055          24.000  
  20586450.461    -1217078.936        -101.485          47.000  
  21413110.220      154459.7223      -1980.272          22.000  
  21202596.849    -2819039.4153       1408.891          27.000  
  22128044.263     -108361.560        1326.216          33.000  
  24791272.134     -135553.7583       2618.588          16.000  
  24426653.114      -74774.1592       2283.761          34.000  
  24133769.306    -2389136.7953       1792.370          29.000  
  25372218.117      145566.3173      -1904.182          17.000  
  25170435.665     -133209.1813       2515.198          22.000  
 15  4  3 20 21 29.0010000  0 10G 3G23G16G 9G 7G20G30G27G 6G19
  22165547.346     8533975.9733      -3384.663          25.000  
  20586469.709    -1216977.275        -101.901          47.000  
  21413487.546      156443.0323      -1985.595          22.000  
  21202329.616    -2820449.0243       1409.084          27.000  
  22127791.426     -109687.191        1325.309          33.000  
  24790775.029     -138162.5253       2612.849          17.000  
  24426218.901      -77056.8842       2282.029          34.000  
  24133428.224    -2390928.9383       1791.387          29.000  
  25372580.872      147468.3843      -1899.724          16.000  
  25169952.154     -135736.6463       2517.565          21.000  
 15  4  3 20 21 30.0010000  0 10G 3G23G16G 9G 7G20G30G27G 6G19
  22166193.649     8537361.4003      -3386.018          25.000  
  20586488.817    -1216875.303        -102.018          47.000  
  21413866.548      158430.9593      -1984.170          22.000  
  21202060.796    -2821858.4203       1409.041          27.000  
  22127538.834     -111012.2203       1324.327          33.000  
  24790278.187     -140768.5843       2606.743          16.000  
  24425783.971      -79339.5212       2282.734          34.000  
  24133088.608    -2392720.8623       1791.622          29.000  
  25372941.131      149368.3953      -1900.994          14.000  
  25169470.755     -138264.5133       2526.422          20.000  
 15  4  3 20 21 31.0010000  0 10G 3G23G16G 9G 7G20G30G27G 6G19
  22166840.163     8540747.2733      -3386.453          25.000  
  20586507.994    -1216772.846        -102.869          47.000  
  21414244.485      160417.2663      -1992.620          22.000  
  21201790.736    -2823267.4673       1409.596          27.000  
  22127286.592     -112337.3752       1322.933          33.000  
  24789782.339     -143375.5403       2599.686          17.000  
  24425349.095      -81621.905        2280.163          34.000  
  24132742.971    -2394512.3293       1793.726          30.000  
  25373303.084      151266.9633      -1891.469          13.000  
  25168990.385     -140784.1113       2516.436          18.000  
 15  4  3 20 21 32.0010000  0 11G 3G23G16G 9G 7G20G30G10G27G 6G19
  22167486.204     8544133.4813      -3386.519          25.000  
  20586528.045    -1216670.033        -103.000          46.000  
  21414625.737      162406.1263      -1991.101          24.000  
  21201520.676    -2824676.3373       1408.338          27.000  
  22127034.506     -113662.3282       1326.029          32.000  
  24789287.747     -145977.7403       2597.354          16.000  
  24424915.125      -83904.112        2281.805          34.000  
  22933584.477     -156725.8553       1804.300          21.000  
  24132401.889    -2396303.6613       1787.593          30.000  
  25373666.729      153169.3773      -1892.770          12.000  
  25168507.765     -143315.6243       2524.018          17.000  
 15  4  3 20 21 33.0010000  0 10G 3G23G16G 9G 7G20G30G10G27G 6
  22168131.671     8547519.8563      -3386.613          25.000  
  20586547.135    -1216566.939        -102.962          46.000  
  21415004.878      164394.3413      -1986.880          25.000  
  21201253.671    -2826084.9703       1409.380          27.000  
  22126781.861     -114987.1612       1324.488          32.000  
  24788790.573     -148590.0493       2626.878          16.000  
  24424480.562      -86186.257        2281.159          34.000  
  22933235.281     -158525.6143       1798.909          20.000  
  24132069.096    -2398094.8273       1792.645          30.000  
  25374025.366      155062.1553      -1892.770          10.000  
 15  4  3 20 21 34.0010000  0 11G 3G23G16G 9G 7G20G30G10G27G 6G19
  22168774.641     8550906.6553      -3387.930          26.000  
  20586566.732    -1216463.441        -104.207          46.000  
  21415390.405      166383.6233      -1989.918          26.000  
  21200984.571    -2827493.4063       1408.805          27.000  
  22126529.531     -116311.7972       1322.433          32.000  
  24788288.652     -151219.3513       2658.128          14.000  
  24424046.610      -88468.221        2282.638          34.000  
  22932891.948     -160330.1203       1797.556          20.000  
  24131724.943    -2399885.6532       1788.926          30.000  
  25374380.495      156931.9413      -1861.520           8.000  
  25167542.157     -148361.1943       2531.269          16.000  
 15  4  3 20 21 35.0010000  0 11G 3G23G16G 9G 7G20G30G10G27G 6G19
  22169418.240     8554293.7963      -3387.763          26.000  
  20586586.590    -1216359.564        -104.549          46.000  
  21415772.495      168373.3093      -1989.657          25.000  
  21200717.391    -2828901.5713       1407.757          27.000  
  22126277.062     -117636.1672       1324.086          32.000  
  24787782.962     -153877.4693       2658.128          10.000  
  24423612.641      -90750.019        2281.075          33.000  
  22932551.494     -162132.7633       1795.029          19.000  
  24131387.107    -2401676.1613       1789.929          30.000  
  25374733.077      158806.3153      -1875.856           8.000  
  25167062.066     -150884.3383       2518.425          15.000  
 15  4  3 20 21 36.0010000  0 11G 3G23G16G 9G 7G20G30G10G27G 6G19
  22170059.326     8557681.1453      -3386.191          26.000  
  20586606.396    -1216255.359        -104.441          46.000  
  21416153.835      170363.6233      -1990.537          25.000  
  21200450.315    -2830309.5503       1407.333          27.000  
  22126025.133     -118960.3912       1322.519          32.000  
  24787278.512     -156535.5863       2658.128           8.000  
  24423178.846      -93031.728        2281.231          33.000  
  22932207.096     -163937.3613       1804.945          19.000  
  24131047.264    -2403466.5733       1785.081          30.000  
  25375089.236      160682.1833      -1875.856           7.000  
  25166578.067     -153424.5273       2549.675          13.000  
 15  4  3 20 21 37.0010000  0 11G 3G23G16G 9G 7G20G30G10G27G 6G19
  22170705.298     8561068.9543      -3388.074          26.000  
  20586626.708    -1216150.682        -104.727          46.000  
  21416533.953      172354.6263      -1990.918          26.000  
  21200183.553    -2831717.1483       1406.940          27.000  
  22125773.012     -120284.765        1323.273          32.000  
  24786778.668     -159176.7483       2638.326           8.000  
  24422744.545      -95313.196        2282.631          32.000  
  22931864.968     -165736.1913       1809.836          19.000  
  24130702.238    -2405256.5743       1788.695          29.000  
  25375445.639      162550.5363      -1867.065           7.000  
  25166097.000     -155945.5413       2518.425          13.000  
 15  4  3 20 21 38.0010000  0 10G 3G23G16G 9G 7G30G10G27G 6G19
  22171347.501     8564456.9103      -3387.315          26.000  
  20586646.706    -1216045.860        -105.451          46.000  
  21416917.840      174346.0133      -1991.965          27.000  
  21199917.228    -2833124.7463       1407.256          27.000  
  22125520.612     -121608.699        1324.587          32.000  
  24422310.034      -97594.729        2281.800          32.000  
  22931523.414     -167538.4003       1799.277          19.000  
  24130361.104    -2407046.4813       1790.474          29.000  
  25375803.246      164417.1873      -1866.186           7.000  
  25165617.747     -158466.7143       2517.610          12.000  
 15  4  3 20 21 39.0010000  0 10G 3G23G16G 9G 7G30G10G27G 6G19
  22171993.194     8567845.3643      -3388.496          26.000  
  20586666.599    -1215940.405        -105.636          46.000  
  21417299.564      176338.1773      -1993.674          27.000  
  21199646.209    -2834531.8663       1406.435          27.000  
  22125268.718     -122932.188        1321.371          32.000  
  24421875.175      -99875.774        2280.886          31.000  
  22931179.034     -169338.3623       1801.342          19.000  
  24130020.336    -2408835.9303       1790.404          29.000  
  25376158.899      166282.9603      -1865.307           7.000  
  25165136.679     -160987.1533       2516.162          13.000  
 15  4  3 20 21 40.0010000  0  9G 3G23G16G 9G 7G30G10G27G19
  22172638.364     8571234.0893      -3389.315          27.000  
  20586686.545    -1215834.669        -106.087          46.000  
  21417681.863      178330.9543      -1994.217          28.000  
  21199379.901    -2835938.7773       1406.860          27.000  
  22125016.563     -124255.462        1322.105          32.000  
  24421439.687     -102156.952        2279.792          30.000  
  22930839.663     -171134.6193       1811.709          18.000  
  24129679.341    -2410625.2783       1788.506          28.000  
  25164659.381     -163494.8013       2509.484          13.000  
 15  4  3 20 21 41.0010000  0  9G 3G23G16G 9G 7G30G10G27G19
  22173282.050     8574623.1223      -3390.403          28.000  
  20586706.648    -1215728.550        -106.526          46.000  
  21418061.789      180324.3443      -1992.496          28.000  
  21199111.203    -2837345.4593       1407.208          27.000  
  22124764.738     -125578.558        1323.374          32.000  
  24421004.688     -104437.8253       2279.610          29.000  
  22930496.905     -172936.3903       1803.433          18.000  
  24129338.695    -2412414.1693       1791.354          28.000  
  25164177.493     -166013.0753       2514.679          15.000  
 15  4  3 20 21 42.0010000  0  9G 3G23G16G 9G 7G30G10G27G19
  22173927.935     8578012.4923      -3388.663          28.000  
  20586727.413    -1215622.085        -106.607          46.000  
  21418444.054      182318.2383      -1994.059          28.000  
  21198843.953    -2838751.9653       1405.456          26.000  
  22124512.897     -126901.504        1322.989          32.000  
  24420569.236     -106718.5032       2279.846          28.000  
  22930154.235     -174735.3043       1803.655          18.000  
  24128998.311    -2414202.9503       1787.962          27.000  
  25163694.489     -168533.3783       2527.377          16.000  
 15  4  3 20 21 43.0010000  0  9G 3G23G16G 9G 7G30G10G27G19
  22174576.786     8581402.2213      -3389.348          28.000  
  20586747.411    -1215515.194        -107.074          46.000  
  21418823.718      184312.9273      -1996.287          28.000  
  21198575.080    -2840158.1033       1406.730          27.000  
  22124260.671     -128224.121        1321.823          32.000  
  24420133.713     -108999.1203       2282.907          28.000  
  22929811.845     -176526.3143       1780.360          17.000  
  24128658.817    -2415991.3933       1787.916          27.000  
  25163211.781     -171053.2973       2511.420          16.000  
 15  4  3 20 21 44.0010000  0  9G 3G23G16G 9G 7G30G10G27G19
  22175223.806     8584792.1673      -3391.031          28.000  
  20586767.497    -1215408.008        -107.459          46.000  
  21419201.324      186308.0643      -1995.285          28.000  
  21198309.051    -2841564.0793       1405.648          27.000  
  22124008.900     -129546.640        1321.600          32.000  
  24419693.165     -111279.9803       2280.548          27.000  
  22929467.238     -178321.4683       1799.269          17.000  
  24128316.270    -2417779.6733       1789.407          27.000  
  25162729.282     -173578.9223       2514.288          16.000  
 15  4  3 20 21 45.0010000  0  9G 3G23G16G 9G 7G30G10G27G19
  22175867.666     8588182.5413      -3390.657          29.000  
  20586787.791    -1215300.311        -107.990          46.000  
  21419581.930      188303.9423      -1996.124          28.000  
  21198041.836    -2842969.7743       1404.717          27.000  
  22123757.599     -130868.803        1321.430          32.000  
  24419254.571     -113559.9573       2279.761          25.000  
  22929123.765     -180123.1023       1796.710          16.000  
  24127975.868    -2419567.5823       1788.098          27.000  
  25162250.780     -176088.3563       2522.190          15.000  
 15  4  3 20 21 46.0010000  0  9G 3G23G16G 9G 7G30G10G27G19
  22176514.284     8591573.2213      -3391.074          29.000  
  20586808.487    -1215192.325        -108.433          46.000  
  21419960.774      190300.3803      -1996.521          27.000  
  21197773.766    -2844375.1783       1406.368          27.000  
  22123506.560     -132190.2763       1321.741          32.000  
  24418814.006     -115841.2183       2280.055          24.000  
  22928782.928     -181918.8733       1809.975          16.000  
  24127635.135    -2421355.2043       1787.905          27.000  
  25161766.938     -178618.6603       2523.081          15.000  
 15  4  3 20 21 47.0010000  0  9G 3G23G16G 9G 7G30G10G27G19
  22177159.227     8594964.2793      -3390.931          29.000  
  20586829.078    -1215083.923        -108.386          46.000  
  21420340.212      192297.4923      -1997.739          27.000  
  21197506.899    -2845780.3783       1404.658          26.000  
  22123255.207     -133512.0862       1321.872          32.000  
  24418375.988     -118120.4983       2279.319          23.000  
  22928443.119     -183711.5693       1790.731          17.000  
  24127293.565    -2423142.6273       1786.724          27.000  
  25161287.929     -181141.7363       2523.081          13.000  
 15  4  3 20 21 48.0010000  0  9G 3G23G16G 9G 7G30G10G27G19
  22177805.652     8598355.5693      -3391.979          30.000  
  20586849.809    -1214975.153        -108.779          46.000  
  21420720.365      194295.1133      -1999.012          27.000  
  21197239.789    -2847185.3003       1404.757          26.000  
  22123003.750     -134833.6682       1321.554          33.000  
  24417939.331     -120400.3223       2280.669          23.000  
  22928100.537     -185506.5133       1788.176          18.000  
  24126954.804    -2424929.7443       1787.126          27.000  
  25160805.570     -183661.8213       2515.837          14.000  
 15  4  3 20 21 49.0010000  0  9G 3G23G16G 9G 7G30G10G27G19
  22178448.449     8601747.4613      -3393.133          30.000  
  20586870.837    -1214866.003        -109.840          46.000  
  21421098.389      196293.4013      -1998.634          28.000  
  21196972.609    -2848590.0033       1404.506          26.000  
  22122752.502     -136155.0252       1318.751          33.000  
  24417508.241     -122679.9263       2279.208          23.000  
  22927758.373     -187302.1523       1794.028          18.000  
  24126615.955    -2426716.5943       1786.825          27.000  
  25160329.284     -186175.0493       2508.960          13.000  
 15  4  3 20 21 50.0010000  0  9G 3G23G16G 9G 7G30G10G27G19
  22179103.338     8605139.6013      -3392.319          30.000  
  20586891.062    -1214756.266        -109.641          46.000  
  21421479.554      198292.5183      -1997.720          28.000  
  21196704.050    -2849994.2443       1403.498          26.000  
  22122500.992     -137475.9942       1319.403          32.000  
  24417078.128     -124959.1673       2279.527          25.000  
  22927418.094     -189096.7733       1809.621          18.000  
  24126279.463    -2428502.9673       1786.303          28.000  
  25159851.846     -188691.3503       2539.497          13.000  
 15  4  3 20 21 51.0010000  0  9G 3G23G16G 9G 7G30G10G27G19
  22179737.933     8608531.8893      -3393.906          30.000  
  20586911.705    -1214646.437        -110.018          46.000  
  21421862.377      200291.9173      -2000.342          29.000  
  21196437.009    -2851398.2983       1397.089          26.000  
  22122250.249     -138796.9512       1320.646          33.000  
  24416646.060     -127238.5433       2280.548          26.000  
  22927077.221     -190893.2873       1796.947          18.000  
  24125941.818    -2430289.3403       1785.745          27.000  
  25159371.215     -191230.8093       2539.497          10.000  
 15  4  3 20 21 52.0010000  0  9G 3G23G16G 9G 7G30G10G27G19
  22180383.992     8611924.5382      -3394.202          30.000  
  20586932.296    -1214536.148        -110.201          46.000  
  21422244.589      202292.0653      -1999.828          30.000  
  21196170.195    -2852802.4103       1404.099          26.000  
  22121999.298     -140117.6292       1320.564          33.000  
  24416215.179     -129517.7463       2280.081          27.000  
  22926734.551     -192690.6283       1801.766          17.000  
  24125600.388    -2432075.3603       1785.454          28.000  
  25158885.976     -193770.2903       2539.497           9.000  
 15  4  3 20 21 53.0010000  0  9G 3G23G16G 9G 7G30G10G27G19
  22181032.774     8615317.4493      -3392.828          30.000  
  20586953.795    -1214425.542        -110.714          46.000  
  21422625.911      204292.7413      -2000.935          30.000  
  21195903.434    -2854206.1743       1403.601          26.000  
  22121748.521     -141438.1432       1320.885          32.000  
  24415785.695     -131796.7503       2279.833          28.000  
  22926391.707     -194487.7953       1789.440          16.000  
  24125262.063    -2433861.1423       1785.729          28.000  
  25158402.972     -196309.7793       2539.497           9.000  
 15  4  3 20 21 54.0010000  0  9G 3G23G16G 9G 7G30G10G27G19
  22181684.400     8618710.6582      -3392.508          30.000  
  20586974.509    -1214314.637        -111.235          46.000  
  21423006.344      206293.9333      -2001.704          31.000  
  21195636.393    -2855609.9143       1403.702          26.000  
  22121496.976     -142758.5192       1320.740          32.000  
  24415357.379     -134075.7353       2279.574          30.000  
  22926049.473     -196271.6023       1789.440          15.000  
  24124925.151    -2435646.8003       1785.610          28.000  
  25157918.903     -198849.2603       2539.497           9.000  
 15  4  3 20 21 55.0010000  0  9G 3G23G16G 9G 7G30G10G27G19
  22182329.098     8622104.1172      -3394.087          30.000  
  20586995.833    -1214203.390        -111.232          46.000  
  21423388.242      208295.7063      -2001.136          30.000  
  21195368.846    -2857013.1533       1403.500          26.000  
  22121246.757     -144079.252        1318.632          32.000  
  24414927.022     -136354.6133       2279.389          30.000  
  22925703.243     -198089.2773       1820.690          11.000  
  24124586.268    -2437432.2193       1785.696          28.000  
  25157436.998     -201381.2233       2530.695           9.000  
 15  4  3 20 21 56.0010000  0  9G 3G23G16G 9G 7G30G10G27G19
  22182974.739     8625498.0223      -3392.145          29.000  
  20587017.419    -1214091.725        -111.965          46.000  
  21423767.121      210298.1873      -2002.446          31.000  
  21195103.027    -2858416.1833       1403.278          27.000  
  22120995.212     -145399.134        1320.830          32.000  
  24414493.768     -138633.4023       2280.390          32.000  
  22925355.862     -199909.9543       1820.690           8.000  
  24124246.216    -2439217.2963       1785.223          28.000  
  25156954.185     -203911.4663       2529.804          11.000  
 15  4  3 20 21 57.0010000  0  9G 3G23G16G 9G 7G30G10G27G19
  22183620.362     8628892.0763      -3393.413          29.000  
  20587038.289    -1213979.733        -111.892          46.000  
  21424148.844      212301.1563      -2002.848          31.000  
  21194835.393    -2859819.0503       1403.688          27.000  
  22120744.662     -146718.993        1316.887          32.000  
  24414065.679     -140911.9812       2278.710          33.000  
  22925007.416     -201730.6313       1820.690           8.000  
  24123904.523    -2441002.1433       1785.941          28.000  
  25156472.751     -206440.8293       2528.913          11.000  
 15  4  3 20 21 58.0010000  0  9G 3G23G16G 9G 7G30G27G 6G19
  22184265.741     8632286.1153      -3392.821          29.000  
  20587059.404    -1213867.606        -112.175          45.000  
  21424529.207      214304.5463      -2003.356          31.000  
  21194568.963    -2861221.8983       1402.430          27.000  
  22120493.833     -148038.728        1321.053          32.000  
  24413634.571     -143190.6132       2278.292          33.000  
  24123564.558    -2442787.0283       1784.792          28.000  
  25383108.483      202321.8053      -1903.908          16.000  
  25155993.498     -208965.5433       2523.633          11.000  
 15  4  3 20 21 59.0010000  0  9G 3G23G16G 9G 7G30G27G 6G19
  22184911.102     8635680.7723      -3395.224          28.000  
  20587080.798    -1213754.961        -112.414          45.000  
  21424910.162      216308.6493      -2004.647          31.000  
  21194303.092    -2862624.4133       1402.467          28.000  
  22120242.043     -149358.218        1320.029          31.000  
  24413194.913     -145468.9922       2277.910          34.000  
  24123223.563    -2444571.4463       1784.381          28.000  
  25383469.424      204230.1363      -1911.171          16.000  
  25155515.641     -211488.5103       2522.291          11.000  
 15  4  3 20 22  0.0010000  0  9G 3G23G16G 9G 7G30G27G 6G19
  22185556.900     8639075.7083      -3394.065          28.000  
  20587102.192    -1213642.009        -113.234          45.000  
  21425291.711      218313.3183      -2004.899          31.000  
  21194037.569    -2864026.7033       1402.754          28.000  
  22119991.319     -150677.487        1320.852          31.000  
  24412764.678     -147747.2832       2279.028          34.000  
  24122885.378    -2446355.6743       1785.185          27.000  
  25383832.423      206131.3103      -1907.881          16.000  
  25155036.685     -214010.1323       2520.948          11.000  
 15  4  3 20 22  1.0010000  0 10G 3G23G16G 9G 7G20G30G27G 6G19
  22186203.238     8642470.8353      -3394.878          28.000  
  20587123.586    -1213528.766        -113.699          45.000  
  21425672.894      220318.5193      -2005.912          30.000  
  21193772.535    -2865428.8933       1401.157          28.000  
  22119740.454     -151996.621        1318.821          31.000  
  24774893.080     -221657.1763       2592.204          17.000  
  24412333.344     -150025.4582       2277.478          34.000  
  24122544.191    -2448139.7583       1783.203          27.000  
  25384195.196      208045.5373      -1925.129          17.000  
  25154561.271     -216522.9213       2510.841          11.000  
 15  4  3 20 22  2.0010000  0 10G 3G23G16G 9G 7G20G30G27G 6G19
  22186851.304     8645866.4013      -3395.091          28.000  
  20587145.364    -1213415.073        -113.749          45.000  
  21426054.670      222324.3973      -2005.680          30.000  
  21193506.908    -2866830.6923       1401.384          29.000  
  22119489.049     -153315.0223       1319.237          31.000  
  24774405.294     -224246.1293       2594.388          18.000  
  24411898.327     -152303.4212       2277.860          34.000  
  24122206.774    -2449923.4513       1783.547          27.000  
  25384559.277      209966.3053      -1910.350          15.000  
  25154084.776     -219032.6633       2508.619          10.000  
 15  4  3 20 22  3.0010000  0 10G 3G23G16G 9G 7G20G30G27G 6G19
  22187499.196     8649262.3833      -3395.461          28.000  
  20587166.950    -1213300.915        -114.104          45.000  
  21426436.620      224330.9583      -2008.297          30.000  
  21193240.757    -2868232.1673       1400.630          29.000  
  22119237.836     -154633.5942       1318.137          30.000  
  24773910.458     -226844.5573       2598.448          18.000  
  24411465.509     -154581.1302       2277.218          35.000  
  24121867.786    -2451706.7733       1783.831          27.000  
  25384923.097      211884.2363      -1890.393          13.000  
  25153612.433     -221540.1913       2506.397          10.000  
 15  4  3 20 22  4.0010000  0 10G 3G23G16G 9G 7G20G30G27G 6G19
  22188146.966     8652658.6883      -3395.925          28.000  
  20587188.553    -1213186.340        -114.394          45.000  
  21426819.007      226338.2093      -2008.069          29.000  
  21192971.291    -2869633.2893       1401.133          28.000  
  22118986.535     -155951.9222       1317.998          30.000  
  24773419.357     -229439.8733       2597.608          19.000  
  24411031.837     -156858.6492       2277.729          35.000  
  24121528.397    -2453489.7983       1784.998          27.000  
  25385284.107      213782.7253      -1917.284          14.000  
  25153137.683     -224056.8273       2517.418          10.000  
 15  4  3 20 22  5.0010000  0 10G 3G23G16G 9G 7G20G30G27G 6G19
  22188794.875     8656055.1263      -3397.264          28.000  
  20587210.907    -1213071.609        -114.661          46.000  
  21427198.968      228345.8153      -2008.312          30.000  
  21192706.571    -2871034.4263       1401.486          28.000  
  22118735.514     -157270.1633       1318.473          30.000  
  24772925.009     -232034.9943       2588.529          19.000  
  24410597.972     -159136.2592       2276.112          35.000  
  24121187.105    -2455272.8243       1783.229          27.000  
  25385649.026      215718.7723      -1917.284          12.000  
  25152660.506     -226573.7933       2516.527          10.000  
 15  4  3 20 22  6.0010000  0 10G 3G23G16G 9G 7G20G30G27G 6G19
  22189436.694     8659451.8613      -3395.519          27.000  
  20587233.103    -1212956.532        -115.179          46.000  
  21427580.779      230353.9683      -2008.085          30.000  
  21192438.606    -2872435.3863       1400.782          28.000  
  22118484.108     -158588.3263       1318.657          29.000  
  24772431.535     -234630.8163       2588.815          19.000  
  24410164.683     -161413.6982       2277.158          35.000  
  24120847.856    -2457055.5643       1782.982          27.000  
  25386013.508      217629.9863      -1909.275          14.000  
  25152184.901     -229089.8733       2515.635          10.000  
 15  4  3 20 22  7.0010000  0 10G 3G23G16G 9G 7G20G30G27G 6G19
  22190084.463     8662848.8913      -3397.358          26.000  
  20587255.335    -1212841.128        -115.744          46.000  
  21427961.821      232362.7133      -2009.303          30.000  
  21192172.193    -2873836.1313       1400.813          28.000  
  22118232.616     -159906.2742       1317.495          29.000  
  24771938.200     -237227.9013       2607.013          19.000  
  24409731.202     -163691.042        2277.265          35.000  
  24120507.925    -2458838.1033       1782.284          26.000  
  25386375.408      219543.2553      -1919.863          14.000  
  25151708.684     -231612.6033       2523.564          10.000  
 15  4  3 20 22  8.0010000  0 10G 3G23G16G 9G 7G20G30G27G 6G19
  22190732.180     8666246.3003      -3398.112          26.000  
  20587277.427    -1212725.255        -116.266          46.000  
  21428344.854      234372.1833      -2009.484          30.000  
  21191908.067    -2875236.5523       1399.239          28.000  
  22117981.088     -161223.8943       1317.596          29.000  
  24771446.069     -239823.2463       2593.405          18.000  
  24409297.948     -165968.173        2275.736          35.000  
  24120169.112    -2460620.3093       1781.962          26.000  
  25386740.589      221457.1943      -1920.122          16.000  
  25151231.264     -234136.1563       2523.564          18.000  
 15  4  3 20 22  9.0010000  0 11G 3G23G16G 9G 7G32G20G30G27G 6G19
  22191377.769     8669644.0153      -3398.879          26.000  
  20587299.187    -1212609.023        -115.912          46.000  
  21428727.764      236382.2163      -2009.924          30.000  
  21191640.904    -2876636.6923       1400.208          28.000  
  22117730.224     -162541.3873       1315.818          29.000  
  25755734.011      463572.4603      -3810.654          13.000  
  24770954.775     -242416.2963       2597.265          19.000  
  24408864.712     -168245.124        2277.075          35.000  
  24119829.286    -2462402.1613       1782.362          26.000  
  25387102.576      223360.2953      -1919.415          16.000  
  25150753.843     -236659.7093       2517.275          13.000  
 15  4  3 20 22 10.0010000  0 11G 3G23G16G 9G 7G32G20G30G27G 6G19
  22192024.613     8673041.9253      -3398.179          25.000  
  20587321.576    -1212492.568        -116.248          46.000  
  21429111.232      238392.7183      -2009.831          30.000  
  21191375.242    -2878036.7653       1401.446          28.000  
  22117479.430     -163858.7343       1317.034          29.000  
  25756457.515      467380.5463      -3830.851          13.000  
  24770460.533     -245019.2423       2593.023          18.000  
  24408430.986     -170522.131        2275.041          35.000  
  24119490.176    -2464184.0053       1781.362          26.000  
  25387464.878      225269.3493      -1901.396          17.000  
  25150274.224     -239188.0363       2532.092          18.000  
 15  4  3 20 22 11.0010000  0 11G 3G23G16G 9G 7G32G20G30G27G 6G19
  22192671.493     8676440.1903      -3396.010          25.000  
  20587343.912    -1212375.706        -117.247          46.000  
  21429495.172      240403.8253      -2011.192          29.000  
  21191108.550    -2879436.5813       1399.884          28.000  
  22117228.705     -165175.8913       1314.388          28.000  
  25757183.269      471195.3333      -3811.366          13.000  
  24769968.279     -247616.8693       2596.637          18.000  
  24407997.139     -172798.897        2276.534          34.000  
  24119151.834    -2465965.4853       1781.601          26.000  
  25387829.099      227179.7493      -1912.445          18.000  
  25149794.936     -241713.6233       2522.052          20.000  
 15  4  3 20 22 12.0010000  0 11G 3G23G16G 9G 7G32G20G30G27G 6G19
  22193315.668     8679838.8013      -3396.049          24.000  
  20587366.266    -1212258.340        -117.690          46.000  
  21429877.803      242415.7233      -2010.722          28.000  
  21190842.836    -2880836.0583       1399.793          27.000  
  22116978.277     -166492.6913       1316.246          28.000  
  25757907.488      475005.9363      -3802.475          15.000  
  24769472.083     -250215.9223       2588.813          18.000  
  24407563.571     -175075.419        2275.947          34.000  
  24118811.398    -2467746.6613       1779.867          26.000  
  25388192.726      229094.1243      -1917.470          18.000  
  25149315.474     -244239.3643       2526.845          20.000  
 15  4  3 20 22 13.0010000  0 11G 3G23G16G 9G 7G32G20G30G27G 6G19
  22193992.632     8683237.7193      -3399.833          22.000  
  20587388.899    -1212140.706        -118.172          46.000  
  21430260.783      244428.1843      -2011.996          26.000  
  21190574.137    -2882235.7643       1398.547          25.000  
  22116727.378     -167809.2783       1316.609          28.000  
  25758632.580      478812.5563      -3812.537          16.000  
  24768983.093     -252804.0123       2593.200          19.000  
  24407130.212     -177351.844        2277.159          34.000  
  24118475.900    -2469527.5983       1779.115          26.000  
  25388556.686      231010.2493      -1914.655          18.000  
  25148831.632     -246762.6463       2521.984          21.000  
 15  4  3 20 22 14.0010000  0 11G 3G23G16G 9G 7G32G20G30G27G 6G19
  22194613.353     8686636.1463      -3395.511          21.000  
  20587411.305    -1212022.768        -117.816          46.000  
  21430642.280      246441.9663      -2012.083          24.000  
  21190305.195    -2883636.9243       1398.189          22.000  
  22116476.915     -169125.9233       1315.053          28.000  
  25759359.294      482631.3793      -3832.498          17.000  
  24768490.037     -255392.9373       2590.083          19.000  
  24406696.382     -179628.2383       2275.728          33.000  
  24118137.592    -2471308.3543       1780.559          25.000  
  25388923.803      232926.6233      -1906.741          17.000  
  25148352.990     -249288.8533       2524.467          20.000  
 15  4  3 20 22 15.0010000  0 11G 3G23G16G 9G 7G32G20G30G27G 6G19
  22195269.586     8690036.1363      -3401.375          23.000  
  20587434.287    -1211904.548        -118.435          46.000  
  21431020.077      248456.2233      -2017.165          22.000  
  21190033.791    -2885036.2203       1405.902          22.000  
  22116226.958     -170442.3553       1319.771          29.000  
  25760084.281      486434.6893      -3783.888          15.000  
  24767997.051     -257985.1353       2581.611          20.000  
  24406262.675     -181904.5773       2274.696          33.000  
  24117800.629    -2473088.7763       1779.562          24.000  
  25389285.913      234842.4693      -1907.410          17.000  
  25147873.004     -251814.0163       2531.550          20.000  
 15  4  3 20 22 16.0010000  0 11G 3G23G16G 9G 7G32G20G30G27G 6G19
  22195913.726     8693434.9723      -3403.970          23.000  
  20587457.025    -1211785.903        -118.637          46.000  
  21431397.961      250471.7073      -2015.757          20.000  
  21189768.478    -2886436.7893       1397.120          23.000  
  22115976.722     -171758.5363       1312.082          29.000  
  25760807.819      490234.0753      -3815.246          13.000  
  24767504.239     -260576.8883       2597.063          20.000  
  24405829.211     -184180.6702       2276.857          33.000  
  24117460.908    -2474868.2933       1786.322          24.000  
  25389649.279      236741.3623      -1890.220          15.000  
  25147391.012     -254338.5153       2528.497          21.000  
 15  4  3 20 22 17.0010000  0 11G 3G23G16G 9G 7G32G20G30G27G 6G19
  22196558.215     8696829.4403      -3395.520          22.000  
  20587479.535    -1211666.949        -119.154          46.000  
  21431776.369      252488.4573      -2012.060          19.000  
  21189505.748    -2887832.7663       1398.261          25.000  
  22115726.503     -173074.5603       1312.919          29.000  
  25761534.725      494048.5023      -3827.883          16.000  
  24767011.602     -263167.9813       2585.276          20.000  
  24405395.608     -186456.6903       2277.622          32.000  
  24117120.437    -2476648.8013       1778.020          22.000  
  25390013.936      238648.1983      -1909.745          14.000  
  25146907.519     -256866.3423       2524.970          21.000  
 15  4  3 20 22 18.0010000  0 11G 3G23G16G 9G 7G32G20G30G27G 6G19
  22197207.136     8700228.1543      -3402.708          20.000  
  20587502.133    -1211547.564        -120.167          46.000  
  21432155.423      254506.4953      -2013.219          20.000  
  21189240.400    -2889230.8843       1395.264          24.000  
  22115476.755     -174390.2403       1314.969          29.000  
  25762260.166      497864.2343      -3819.781          17.000  
  24766518.249     -265760.2353       2581.140          19.000  
  24404961.848     -188732.4842       2275.812          31.000  
  24116782.601    -2478432.7133       1783.737          20.000  
  25390380.687      240567.4223      -1921.344          12.000  
  25146426.085     -259392.4003       2519.668          20.000  
 15  4  3 20 22 19.0010000  0 12G 3G23G16G 9G 7G32G20G30G10G27G 6G19
  22197834.245     8703628.4283      -3397.207          20.000  
  20587524.906    -1211427.760        -120.477          46.000  
  21432537.024      256521.7973      -2016.144          24.000  
  21188973.987    -2890629.9513       1405.116          25.000  
  22115227.113     -175705.7332       1317.763          30.000  
  25762986.200      501679.1403      -3820.476          17.000  
  24766022.646     -268358.9953       2577.365          18.000  
  24404527.111     -191008.0882       2276.419          32.000  
  22917558.110      -21203.6753       1788.656          18.000  
  24116444.695    -2480216.1403       1771.520          19.000  
  25390747.229      242488.7743      -1921.344           9.000  
  25145945.261     -261916.3723       2523.917          19.000  
 15  4  3 20 22 20.0010000  0 12G 3G23G16G 9G 7G32G20G30G10G27G 6G19
  22198483.759     8707029.8713      -3412.910          21.000  
  20587548.219    -1211307.443        -120.505          46.000  
  21432922.430      258538.3393      -2017.348          25.000  
  21188709.512    -2892027.8873       1396.099          25.000  
  22114977.121     -177020.9423       1314.610          30.000  
  25763715.217      505491.7373      -3809.937          16.000  
  24765527.967     -270945.1283       2582.094          18.000  
  24404093.229     -193283.4632       2275.285          31.000  
  22917221.722      -22982.9373       1789.207          19.000  
  24116104.991    -2481995.0843       1768.850          19.000  
  25391112.602      244410.1323      -1921.344           8.000  
  25145458.662     -264439.4883       2526.483          19.000  
 15  4  3 20 22 21.0010000  0 12G 3G23G16G 9G 7G32G20G30G10G27G 6G19
  22199120.518     8710433.3693      -3405.954          21.000  
  20587570.870    -1211186.753        -120.920          46.000  
  21433306.963      260555.6003      -2017.005          25.000  
  21188445.874    -2893425.0763       1397.848          25.000  
  22114726.815     -178335.8382       1313.547          30.000  
  25764438.843      509294.5583      -3814.224          17.000  
  24765032.904     -273534.3673       2589.075          18.000  
  24403658.806     -195558.6462       2273.589          31.000  
  22916876.906      -24759.1543       1772.638          18.000  
  24115767.085    -2483771.7393       1778.868          17.000  
  25391478.061      246331.4843      -1921.344           8.000  
  25144939.204     -266968.3993       2540.019          19.000  
 15  4  3 20 22 22.0010000  0 11G 3G23G16G 9G 7G32G20G30G10G27G19
  22199780.223     8713833.2783      -3404.284          21.000  
  20587593.764    -1211065.759        -120.809          46.000  
  21433691.513      262572.5163      -2009.838          24.000  
  21188179.933    -2894822.0873       1397.632          25.000  
  22114476.404     -179650.6462       1313.767          30.000  
  25765163.603      513105.3643      -3814.991          17.000  
  24764539.238     -276126.2513       2594.181          18.000  
  24403223.545     -197833.6642       2274.921          30.000  
  22916537.028      -26535.7213       1776.661          18.000  
  24115428.254    -2485550.5883       1778.868          16.000  
  25144457.281     -269494.2453       2519.590          18.000  
 15  4  3 20 22 23.0010000  0 10G 3G23G16G 9G 7G32G20G30G27G19
  22200421.274     8717234.9713      -3393.189          21.000  
  20587616.973    -1210944.423        -121.966          46.000  
  21434073.359      264593.4363      -2023.527          20.000  
  21187914.689    -2896219.0283       1397.458          26.000  
  22114226.290     -180965.2192       1314.987          30.000  
  25765891.661      516918.6613      -3816.755          17.000  
  24764045.152     -278707.5533       2582.940          17.000  
  24402789.069     -200108.6453       2275.605          30.000  
  24115088.376    -2487330.3903       1788.810          17.000  
  25143977.261     -272018.2283       2529.729          17.000  
 15  4  3 20 22 24.0010000  0 11G 3G23G16G 9G 7G32G20G30G10G27G19
  22201080.125     8720634.7803      -3404.020          21.000  
  20587640.915    -1210822.612        -122.336          46.000  
  21434483.596      266616.0413      -2015.400          17.000  
  21187652.517    -2897615.5013       1397.501          26.000  
  22113976.996     -182279.5442       1313.841          30.000  
  25766618.131      520734.7123      -3806.080          17.000  
  24763552.428     -281294.8163       2595.084          17.000  
  24402354.541     -202383.3933       2272.484          29.000  
  22915862.874      -30085.8443       1771.895          18.000  
  24114748.394    -2489108.6383       1764.336          19.000  
  25143491.167     -274547.1123       2523.607          16.000  
 15  4  3 20 22 25.0010000  0 11G 3G23G16G 9G 7G32G20G30G10G27G19
  22201756.582     8724039.0033      -3410.880          20.000  
  20587663.304    -1210700.540        -122.270          46.000  
  21434876.278      268636.2433      -2017.589          18.000  
  21187385.651    -2899011.8503       1396.857          26.000  
  22113727.825     -183593.7912       1311.487          31.000  
  25767345.107      524542.2583      -3806.173          17.000  
  24763059.878     -283883.7813       2577.260          16.000  
  24401920.223     -204658.0403       2274.462          29.000  
  22915525.072      -31856.2023       1782.689          18.000  
  24114408.760    -2490882.7473       1779.661          19.000  
  25143007.953     -277066.9023       2516.240          15.000  
 15  4  3 20 22 26.0010000  0 11G 3G23G16G 9G 7G32G20G30G10G27G19
  22202398.157     8727443.6503      -3389.040          18.000  
  20587686.774    -1210577.943        -122.647          46.000  
  21435256.466      270660.2983      -2023.443          19.000  
  21187120.495    -2900407.8033       1396.033          26.000  
  22113478.444     -184907.5923       1311.905          31.000  
  25768069.797      528348.6253      -3805.742          18.000  
  24762567.311     -286475.6123       2589.499          16.000  
  24401486.096     -206932.4213       2276.179          29.000  
  22915185.753      -33634.2283       1782.406          18.000  
  24114066.928    -2492661.8433       1785.678          20.000  
  25142527.043     -279594.5543       2523.337          16.000  
 15  4  3 20 22 27.0010000  0 11G 3G23G16G 9G 7G32G20G30G10G27G19
  22203036.940     8730841.7953      -3382.668          15.000  
  20587709.634    -1210455.060        -122.687          46.000  
  21435635.380      272679.2713      -2028.845          19.000  
  21186856.578    -2901803.6133       1395.830          26.000  
  22113228.923     -186221.2312       1314.395          32.000  
  25768797.157      532159.6693      -3820.830          19.000  
  24762076.017     -289063.4093       2582.578          16.000  
  24401052.284     -209206.8253       2273.586          29.000  
  22914848.335      -35401.5413       1768.681          18.000  
  24113729.406    -2494444.8313       1784.621          19.000  
  25142041.107     -282119.0893       2529.761          17.000  
 15  4  3 20 22 28.0010000  0 11G 3G23G16G 9G 7G32G20G30G10G27G19
  22203670.069     8734224.4733      -3382.668          11.000  
  20587733.139    -1210331.961        -123.924          45.000  
  21436019.250      274699.4713      -2017.662          19.000  
  21186590.986    -2903199.4093       1394.642          26.000  
  22112979.926     -187534.9102       1317.598          32.000  
  25769522.179      535973.9873      -3809.234          19.000  
  24761583.694     -291656.0453       2583.369          15.000  
  24400619.239     -211481.0412       2274.819          30.000  
  22914509.155      -37175.3373       1780.948          18.000  
  24113390.243    -2496221.2283       1782.058          20.000  
  25141570.439     -284646.9363       2525.890          17.000  
 15  4  3 20 22 29.0010000  0 11G 3G23G16G 9G 7G32G20G30G10G27G19
  22204318.937     8737607.1553      -3382.668          10.000  
  20587756.627    -1210208.462        -123.668          45.000  
  21436388.758      276719.4383      -2020.710          21.000  
  21186325.323    -2904594.8803       1395.435          28.000  
  22112730.510     -188848.3912       1311.915          31.000  
  25770244.635      539782.0703      -3810.673          20.000  
  24761089.312     -294239.3113       2592.531          15.000  
  24400186.107     -213755.1983       2274.740          30.000  
  22914170.848      -38949.1663       1772.999          19.000  
  24113052.076    -2498003.0243       1773.136          19.000  
  25141089.302     -287166.5613       2516.653          16.000  
 15  4  3 20 22 30.0010000  0 11G 3G23G16G 9G 7G32G20G30G10G27G19
  22204958.558     8740989.8333      -3382.668          10.000  
  20587780.115    -1210084.707        -123.824          45.000  
  21436773.798      278742.5143      -2023.390          22.000  
  21186058.492    -2905990.1663       1394.578          28.000  
  22112480.553     -190161.6552       1313.508          32.000  
  25770970.006      543591.4243      -3814.130          21.000  
  24760592.208     -296835.6303       2596.957          14.000  
  24399753.831     -216029.2963       2275.162          30.000  
  22913834.076      -40720.5703       1776.653          20.000  
  24112715.199    -2499776.3413       1760.705          19.000  
  25140609.386     -289696.5993       2532.715          16.000  
 15  4  3 20 22 31.0010000  0 11G 3G23G16G 9G 7G32G20G30G10G27G19
  22205602.279     8744385.8243      -3398.106          10.000  
  20587804.005    -1209960.582        -125.191          45.000  
  21437169.324      280759.4853      -2031.293          21.000  
  21185794.976    -2907385.2803       1394.269          28.000  
  22112231.277     -191474.8602       1310.494          31.000  
  25771696.598      547402.2893      -3825.251          21.000  
  24760100.077     -299424.0653       2586.021          12.000  
  24399321.676     -218303.2752       2270.046          29.000  
  22913498.037      -42495.3333       1780.108          20.000  
  24112375.723    -2501558.7383       1762.735          19.000  
  25140131.337     -292227.7493       2534.021          16.000  
 15  4  3 20 22 32.0010000  0 11G 3G23G16G 9G 7G32G20G30G10G27G19
  22206255.877     8747784.6853      -3399.668          14.000  
  20587827.213    -1209836.189        -124.371          45.000  
  21437556.771      282782.7113      -2028.870          22.000  
  21185528.512    -2908780.2083       1394.483          27.000  
  22111980.866     -192787.8062       1312.285          31.000  
  25772424.778      551215.0553      -3813.721          20.000  
  24759605.415     -302010.0753       2586.021          10.000  
  24398889.870     -220577.1852       2275.810          30.000  
  22913159.730      -44270.4993       1770.334          21.000  
  24112038.881    -2503332.9703       1777.264          19.000  
  25139650.025     -294758.7933       2529.635          14.000  
 15  4  3 20 22 33.0010000  0 11G 3G23G16G 9G 7G32G20G30G10G27G19
  22206909.335     8751185.1073      -3401.231          14.000  
  20587851.207    -1209711.240        -125.035          45.000  
  21437944.951      284805.5593      -2026.376          21.000  
  21185263.931    -2910174.7593       1393.851          28.000  
  22111731.188     -194100.4662       1313.899          31.000  
  25773147.688      555027.6923      -3804.312          21.000  
  24759112.045     -304596.0853       2586.021          10.000  
  24398457.820     -222850.7532       2272.300          31.000  
  22912822.540      -46043.3373       1769.848          22.000  
  24111702.982    -2505106.9743       1774.032          19.000  
  25139169.743     -297281.0783       2514.261          13.000  
 15  4  3 20 22 34.0010000  0 10G 3G23G16G 9G 7G32G30G10G27G19
  22207563.858     8754592.7693      -3409.369          14.000  
  20587875.254    -1209586.057        -125.647          45.000  
  21438326.588      286829.6693      -2031.092          21.000  
  21184999.404    -2911569.1863       1394.279          29.000  
  22111481.319     -195413.0202       1309.320          32.000  
  25773875.467      558838.7883      -3813.369          21.000  
  24398026.783     -225124.3743       2274.845          31.000  
  22912486.291      -47816.7773       1781.068          22.000  
  24111366.803    -2506879.4143       1771.662          21.000  
  25138689.234     -299805.6673       2525.297          12.000  
 15  4  3 20 22 35.0010000  0 10G 3G23G16G 9G 7G32G30G10G27G19
  22208206.340     8758003.2013      -3411.590          14.000  
  20587899.126    -1209460.660        -126.117          45.000  
  21438713.546      288854.3973      -2021.040          22.000  
  21184734.527    -2912963.4803       1393.956          30.000  
  22111231.781     -196725.5272       1312.155          32.000  
  25774599.860      562651.5473      -3806.976          21.000  
  24397595.239     -227397.9682       2273.732          32.000  
  22912151.003      -49589.9953       1768.471          23.000  
  24111029.386    -2508654.3633       1772.752          21.000  
  25138206.334     -302342.6683       2541.196           9.000  
 15  4  3 20 22 36.0010000  0 10G 3G23G16G 9G 7G32G30G10G27G19
  22208857.826     8761415.8653      -3413.812          14.000  
  20587922.352    -1209335.022        -125.552          45.000  
  21439095.654      290878.6093      -2027.265          22.000  
  21184468.411    -2914357.7023       1394.816          30.000  
  22110982.731     -198037.9432       1309.949          32.000  
  25775326.488      566460.4713      -3804.005          21.000  
  24397163.538     -229671.5552       2272.422          32.000  
  22911815.836      -51360.3203       1769.082          24.000  
  24110692.405    -2510429.1013       1776.993          22.000  
  25137726.383     -304861.4503       2509.946          10.000  
 15  4  3 20 22 37.0010000  0 10G 3G23G16G 9G 7G32G30G10G27G19
  22209506.364     8764823.1053      -3407.181          14.000  
  20587946.451    -1209209.025        -126.323          45.000  
  21439479.681      292904.7083      -2021.079          24.000  
  21184202.609    -2915751.7153       1392.818          30.000  
  22110733.263     -199350.593        1314.877          32.000  
  25776052.783      570271.8373      -3806.751          21.000  
  24396732.308     -231944.9282       2272.294          32.000  
  22911478.977      -53131.3543       1770.167          25.000  
  24110353.103    -2512208.9793       1777.233          22.000  
  25137248.020     -307383.6983       2529.289           9.000  
 15  4  3 20 22 38.0010000  0 10G 3G23G16G 9G 7G32G30G10G27G19
  22210154.203     8768230.9373      -3408.523          18.000  
  20587970.654    -1209082.775        -126.643          45.000  
  21439864.720      294932.3963      -2022.998          25.000  
  21183936.773    -2917145.5173       1393.797          29.000  
  22110483.672     -200662.761        1310.446          31.000  
  25776777.805      574081.3323      -3803.790          21.000  
  24396300.415     -234218.3962       2273.874          33.000  
  22911140.670      -54901.6563       1770.988          25.000  
  24110014.272    -2513987.1993       1771.290          19.000  
  25136765.557     -309904.8293       2513.020          12.000  
 15  4  3 20 22 39.0010000  0 10G 3G23G16G 9G 7G32G30G10G27G19
  22210801.990     8771638.4993      -3404.901          17.000  
  20587994.997    -1208956.282        -126.298          45.000  
  21440248.782      296959.7563      -2026.662          25.000  
  21183670.395    -2918539.2723       1393.626          29.000  
  22110233.750     -201974.3683       1310.506          30.000  
  25777501.360      577891.5733      -3813.090          21.000  
  24395868.697     -236491.8312       2272.356          33.000  
  22910803.235      -56671.5873       1770.073          27.000  
  24109675.511    -2515770.8353       1786.352          17.000  
  25136287.194     -312417.5063       2524.860          14.000  
 15  4  3 20 22 40.0010000  0 12G 3G23G16G 9G 7G32G20G30G10G27G 6G19
  22211448.765     8775042.5573      -3408.474          20.000  
  20588019.428    -1208829.426        -127.227          45.000  
  21440634.519      298987.3803      -2028.725          25.000  
  21183405.797    -2919932.7703       1393.599          29.000  
  22109984.421     -203286.1273       1312.112          30.000  
  25778227.359      581700.1113      -3803.650          22.000  
  24755665.924     -322691.9713       2588.182          12.000  
  24395436.507     -238765.0512       2273.935          33.000  
  22910467.004      -58441.0863       1769.039          28.000  
  24109335.947    -2517551.9823       1777.082          15.000  
  25398400.528      282699.3453      -1914.619          13.000  
  25135800.263     -314966.5743       2539.653          14.000  
 15  4  3 20 22 41.0010000  0 12G 3G23G16G 9G 7G32G20G30G10G27G 6G19
  22212095.400     8778452.7943      -3408.271          21.000  
  20588043.422    -1208702.179        -127.148          45.000  
  21441019.785      301015.1023      -2030.020          25.000  
  21183142.962    -2921326.1103       1393.001          29.000  
  22109735.023     -204597.7553       1316.556          29.000  
  25778953.742      585511.0843      -3800.686          21.000  
  24755172.222     -325280.2503       2588.402          12.000  
  24395004.073     -241038.1072       2273.081          33.000  
  22910133.740      -60210.0093       1769.319          28.000  
  24108998.669    -2519330.1633       1778.506          12.000  
  25398764.714      284614.1973      -1915.071          13.000  
  25135317.677     -317502.4113       2529.546          13.000  
 15  4  3 20 22 42.0010000  0 12G 3G23G16G 9G 7G32G20G30G10G27G 6G19
  22212742.384     8781859.4433      -3408.267          21.000  
  20588067.049    -1208574.752        -127.771          45.000  
  21441404.701      303043.9323      -2028.133          25.000  
  21182877.579    -2922719.2743       1392.076          29.000  
  22109485.153     -205909.4353       1303.901          28.000  
  25779677.280      589319.6533      -3814.075          22.000  
  24754678.503     -327868.7403       2588.621          12.000  
  24394572.041     -243311.2892       2272.861          34.000  
  22909796.916      -61978.4893       1770.106          28.000  
  24108660.798    -2521100.3433       1777.018          12.000  
  25399130.802      286529.5003      -1915.522          13.000  
  25134834.271     -320032.7143       2536.878          14.000  
 15  4  3 20 22 43.0010000  0 12G 3G23G16G 9G 7G32G20G30G10G27G 6G19
  22213390.311     8785267.7083      -3414.910          22.000  
  20588091.305    -1208447.106        -127.580          45.000  
  21441793.963      305073.1953      -2020.877          24.000  
  21182613.296    -2924112.3853       1392.024          29.000  
  22109236.121     -207220.7843       1310.000          28.000  
  25780401.674      593125.5403      -3802.834          22.000  
  24754187.821     -330449.9223       2580.035          12.000  
  24394140.549     -245584.432        2273.492          34.000  
  22909459.586      -63746.7123       1767.739          28.000  
  24108317.640    -2522885.1043       1784.216          14.000  
  25399496.524      288456.5193      -1929.162          13.000  
  25134349.016     -322563.9313       2519.756          15.000  
 15  4  3 20 22 44.0010000  0 12G 3G23G16G 9G 7G32G20G30G10G27G 6G19
  22214037.225     8788679.3353      -3403.552          23.000  
  20588115.456    -1208319.035        -127.844          45.000  
  21442183.330      307103.0053      -2030.897          24.000  
  21182349.152    -2925505.2053       1392.547          30.000  
  22108985.397     -208532.0343       1311.552          28.000  
  25781127.306      596934.2433      -3808.231          22.000  
  24753696.266     -333029.6203       2579.363          14.000  
  24393708.482     -247857.374        2271.746          34.000  
  22909121.226      -65514.3323       1767.471          29.000  
  24107979.856    -2524660.1573       1768.378          17.000  
  25399865.718      290386.5593      -1930.945           8.000  
  25133868.210     -325091.6453       2537.986          14.000  
 15  4  3 20 22 45.0010000  0 12G 3G23G16G 9G 7G32G20G30G10G27G 6G19
  22214685.728     8792087.0373      -3403.814          24.000  
  20588140.148    -1208190.614        -128.862          45.000  
  21442575.210      309133.5783      -2031.991          24.000  
  21182088.445    -2926897.6523       1390.563          30.000  
  22108737.708     -209843.1113       1311.040          27.000  
  25781851.403      600741.0683      -3809.256          22.000  
  24753209.422     -335608.6403       2578.692          14.000  
  24393276.467     -250130.158        2273.305          34.000  
  22908783.163      -67281.3783       1765.364          31.000  
  24107647.534    -2526422.9843       1757.721          16.000  
  25400231.963      292318.3833      -1932.727           8.000  
  25133385.415     -327633.8743       2555.943          13.000  
 15  4  3 20 22 46.0010000  0 12G 3G23G16G 9G 7G32G20G30G10G27G 6G19
  22215334.702     8795496.1163      -3408.293          24.000  
  20588164.840    -1208061.776        -128.611          45.000  
  21442963.198      311164.7113      -2030.270          24.000  
  21181825.331    -2928290.0242       1390.264          31.000  
  22108484.802     -211153.6973       1312.604          26.000  
  25782576.076      604550.3433      -3799.852          22.000  
  24752721.008     -338190.7713       2582.429          14.000  
  24392843.963     -252402.786        2272.467          35.000  
  22908447.072      -69048.0072       1765.784          31.000  
  24107314.723    -2528180.6903       1757.721          13.000  
  25400599.220      294246.3163      -1927.869           8.000  
  25132901.904     -330176.9913       2542.264          10.000  
 15  4  3 20 22 47.0010000  0 12G 3G23G16G 9G 7G32G20G30G10G27G 6G19
  22215982.733     8798903.0533      -3408.014          26.000  
  20588189.148    -1207932.703        -129.346          45.000  
  21443350.191      313196.2973      -2029.277          24.000  
  21181553.736    -2929682.1003       1390.935          30.000  
  22108233.467     -212464.5933       1312.433          24.000  
  25783300.714      608357.3723      -3810.143          21.000  
  24752232.175     -340773.0723       2582.198          14.000  
  24392411.774     -254675.330        2271.968          35.000  
  22908108.590      -70814.2283       1767.024          30.000  
  24106977.323    -2529938.4053       1757.721          12.000  
  25400965.082      296174.7373      -1928.980           8.000  
  25132419.912     -332719.2373       2542.264          10.000  
 15  4  3 20 22 48.0010000  0 12G 3G23G16G 9G 7G32G20G30G10G27G 6G19
  22216633.556     8802311.6673      -3409.484          26.000  
  20588213.666    -1207803.377        -129.266          45.000  
  21443737.569      315226.8663      -2031.788          23.000  
  21181291.250    -2931074.1773       1392.552          30.000  
  22107981.869     -213775.2613       1311.872          23.000  
  25784028.614      612167.0813      -3807.506          21.000  
  24751742.173     -343355.1443       2581.966          14.000  
  24391980.090     -256947.929        2271.267          34.000  
  22907773.633      -72580.0283       1768.109          28.000  
  24106642.035    -2531696.1113       1757.721          12.000  
  25401332.548      298104.2663      -1930.091           8.000  
  25131935.197     -335261.4933       2542.264          10.000  
 15  4  3 20 22 49.0010000  0 12G 3G23G16G 9G 7G32G20G30G10G27G 6G19
  22217283.350     8805720.4253      -3409.208          26.000  
  20588238.410    -1207673.751        -129.674          45.000  
  21444121.596      317256.8213      -2018.849          22.000  
  21181023.982    -2932466.0873       1389.313          29.000  
  22107729.452     -215086.7173       1311.385          21.000  
  25784752.921      615975.1743      -3802.421          22.000  
  24751248.558     -345940.7543       2586.145          14.000  
  24391547.883     -259220.377        2271.708          34.000  
  22907434.994      -74345.4363       1764.806          29.000  
  24106303.274    -2533465.1463       1770.945          12.000  
  25401697.537      300027.3823      -1922.389           8.000  
  25131451.285     -337792.4493       2529.056          10.000  
 15  4  3 20 22 50.0010000  0 11G 3G23G16G 9G 7G32G20G30G10G 6G19
  22217932.132     8809129.7723      -3409.750          27.000  
  20588263.277    -1207543.604        -130.439          45.000  
  21444511.311      319285.8533      -2027.153          22.000  
  21180766.033    -2933857.5723       1391.143          27.000  
  22107477.558     -216400.3263       1303.734          19.000  
  25785474.365      619783.0593      -3808.994          22.000  
  24750758.347     -348527.0023       2586.365          17.000  
  24391115.711     -261492.571        2272.755          34.000  
  22907100.456      -76110.0623       1765.450          30.000  
  25402059.193      301949.8943      -1922.621          15.000  
  25130970.217     -340320.8413       2527.713          13.000  
 15  4  3 20 22 51.0010000  0 11G 3G23G16G 9G 7G32G20G30G10G 6G19
  22218579.465     8812539.1663      -3409.931          27.000  
  20588288.615    -1207413.308        -130.226          45.000  
  21444896.298      321318.0993      -2028.837          20.000  
  21180502.360    -2935248.9573       1398.517          26.000  
  22107227.322     -217705.9883       1314.926          17.000  
  25786197.554      623590.9653      -3803.228          22.000  
  24750268.589     -351109.9323       2591.042          16.000  
  24390682.876     -263764.836        2271.657          33.000  
  22906766.459      -77874.4882       1763.133          30.000  
  25402422.716      303872.6373      -1922.853          15.000  
  25130489.726     -342847.8893       2526.370          13.000  
 15  4  3 20 22 52.0010000  0 11G 3G23G16G 9G 7G32G20G30G10G 6G19
  22219228.979     8815948.8243      -3409.197          27.000  
  20588313.342    -1207282.651        -130.382          45.000  
  21445280.255      323350.2693      -2036.001          20.000  
  21180236.436    -2936640.7523       1390.425          26.000  
  22106975.568     -219016.2463       1308.518          17.000  
  25786920.342      627399.5383      -3804.102          22.000  
  24749779.128     -353691.0313       2581.520          20.000  
  24390251.123     -266037.020        2273.760          33.000  
  22906430.891      -79638.4363       1763.735          29.000  
  25402784.546      305793.7283      -1920.871          15.000  
  25130007.018     -345373.6123       2525.054          13.000  
 15  4  3 20 22 53.0010000  0 11G 3G23G16G 9G 7G32G20G30G10G 6G19
  22219880.379     8819358.7993      -3409.449          28.000  
  20588338.435    -1207151.603        -131.362          45.000  
  21445666.271      325384.7663      -2043.502          19.000  
  21179971.577    -2938031.6083       1391.193          25.000  
  22106725.244     -220327.7873       1315.610          17.000  
  25787644.806      631209.5693      -3810.890          22.000  
  24749288.934     -356271.6253       2585.652          22.000  
  24389818.479     -268308.989        2270.704          33.000  
  22906094.434      -81401.6043       1754.827          27.000  
  25403148.593      307714.6123      -1920.871          15.000  
  25129527.468     -347898.0003       2523.711          13.000  
 15  4  3 20 22 54.0010000  0 12G 3G23G16G 9G 7G32G20G30G10G27G 6G19
  22220529.055     8822769.1113      -3411.609          29.000  
  20588363.616    -1207020.175        -131.596          45.000  
  21446055.010      327421.0573      -2039.541          20.000  
  21179707.206    -2939422.3113       1390.191          25.000  
  22106475.218     -221643.3883       1315.610          15.000  
  25788370.002      635021.1433      -3815.116          22.000  
  24748800.223     -358852.4633       2582.439          23.000  
  24389385.697     -270580.773        2271.625          32.000  
  22905761.047      -83164.1363       1763.067          25.000  
  24104614.756    -2542342.8913       1780.213          11.000  
  25403510.580      309635.4953      -1920.871          15.000  
  25129048.024     -350423.1283       2530.052           8.000  
 15  4  3 20 22 55.0010000  0 11G 3G23G16G 9G32G20G30G10G27G 6G19
  22221176.668     8826179.7893      -3410.386          29.000  
  20588388.604    -1206888.332        -131.903          45.000  
  21446441.707      329459.2393      -2033.034          22.000  
  21179440.916    -2940812.7043       1389.151          25.000  
  25789092.720      638828.6143      -3802.192          21.000  
  24748310.186     -361431.8643       2582.280          23.000  
  24388953.088     -272852.399        2271.773          31.000  
  22905425.497      -84926.5923       1762.280          25.000  
  24104275.279    -2544131.3433       1790.552          11.000  
  25403870.875      311556.3783      -1920.871          15.000  
  25128567.427     -352959.1743       2536.294          14.000  
 15  4  3 20 22 56.0010000  0 12G 3G23G16G 9G 7G32G20G30G10G27G 6G19
  22221826.636     8829590.4553      -3410.400          29.000  
  20588413.837    -1206756.432        -132.104          45.000  
  21446828.456      331495.3033      -2029.353          22.000  
  21179175.167    -2942203.2313       1389.413          26.000  
  22105978.689     -224251.2143       1317.424          16.000  
  25789816.415      642637.5823      -3802.841          21.000  
  24747819.713     -364015.3553       2588.287          23.000  
  24388519.171     -275124.205        2273.580          31.000  
  22905088.638      -86688.7883       1761.668          27.000  
  24103934.145    -2545923.0283       1792.994          14.000  
  25404234.921      313477.2613      -1920.871          16.000  
  25128088.715     -355492.3903       2535.226          19.000  
 15  4  3 20 22 57.0010000  0 12G 3G23G16G 9G 7G32G20G30G10G27G 6G19
  22222476.535     8833001.4383      -3411.241          29.000  
  20588439.245    -1206624.126        -132.192          45.000  
  21447215.903      333530.5373      -2036.429          22.000  
  21178912.715    -2943593.3433       1391.120          26.000  
  22105729.465     -225562.6173       1312.239          18.000  
  25790541.489      646444.0963      -3793.411          20.000  
  24747327.145     -366595.3903       2575.920          23.000  
  24388085.673     -277395.7893       2272.643          31.000  
  22904754.501      -88450.3183       1761.006          29.000  
  24103591.318    -2547717.1543       1795.435          14.000  
  25404597.659      315398.1443      -1920.871           8.000  
  25127606.321     -358024.8073       2528.659          20.000  
 15  4  3 20 22 58.0010000  0 12G 3G23G16G 9G 7G32G20G30G10G27G 6G19
  22223126.800     8836412.8093      -3410.796          29.000  
  20588463.989    -1206491.457        -133.239          45.000  
  21447602.582      335565.5553      -2037.645          20.000  
  21178648.362    -2944983.4073       1390.177          26.000  
  22105482.422     -226871.7943       1301.174          20.000  
  25791265.167      650246.5223      -3809.025          19.000  
  24746837.545     -369175.4753       2582.283          23.000  
  24387652.366     -279667.2292       2269.081          30.000  
  22904419.091      -90211.3253       1761.073          29.000  
  24103254.494    -2549498.5783       1780.188          14.000  
  25404962.944      317322.2183      -1919.429          15.000  
  25127123.334     -360554.9803       2534.772          20.000  
 15  4  3 20 22 59.0010000  0 12G 3G23G16G 9G 7G32G20G30G10G27G 6G19
  22223773.173     8839824.4313      -3411.327          29.000  
  20588490.042    -1206358.402        -133.984          45.000  
  21447988.267      337593.3533      -2039.179          18.000  
  21178381.461    -2946373.1953       1388.943          26.000  
  22105234.402     -228178.8853       1302.392          21.000  
  25791990.224      654057.5313      -3808.983          19.000  
  24746347.159     -371754.0463       2582.340          23.000  
  24387218.257     -281938.4603       2269.933          30.000  
  22904084.500      -91971.8693       1761.236          28.000  
  24102916.937    -2551279.0673       1780.847          14.000  
  25405329.276      319246.4453      -1922.854          20.000  
  25126642.337     -363083.9343       2531.675          20.000  
 15  4  3 20 23  0.0010000  0 12G 3G23G16G 9G 7G32G20G30G10G27G 6G19
  22224420.227     8843236.4983      -3412.037          29.000  
  20588515.258    -1206224.875        -133.985          45.000  
  21448373.830      339637.2743      -2039.439          18.000  
  21178116.270    -2947762.5303       1388.850          27.000  
  22104985.213     -229486.5733       1306.933          20.000  
  25792715.682      657862.5593      -3807.998          20.000  
  24745858.745     -374332.4053       2574.244          23.000  
  24386784.253     -284209.5753       2269.036          30.000  
  22903749.665      -93731.7453       1760.902          27.000  
  24102580.566    -2553060.2143       1781.506          14.000  
  25405692.887      321167.4103      -1923.619          21.000  
  25126160.763     -365611.4693       2525.709          20.000  
 15  4  3 20 23  1.0010000  0 12G 3G23G16G 9G 7G32G20G30G10G27G 6G19
  22225070.475     8846648.8483      -3412.481          29.000  
  20588540.927    -1206090.968        -134.099          45.000  
  21448761.399      341677.2333      -2034.161          18.000  
  21177852.266    -2949151.7023       1388.496          28.000  
  22104738.310     -230792.3563       1312.719          20.000  
  25793441.768      661668.3813      -3805.945          20.000  
  24745370.470     -376909.7423       2571.621          23.000  
  24386351.016     -286480.4282       2270.414          29.000  
  22903413.435      -95491.1623       1758.058          26.000  
  24102243.358    -2554830.6803       1768.928          14.000  
  25406056.200      323090.7673      -1922.737          21.000  
  25125680.114     -368140.0033       2522.378          19.000  
 15  4  3 20 23  2.0010000  0 12G 3G23G16G 9G 7G32G20G30G10G27G 6G19
  22225718.855     8850061.7423      -3412.842          30.000  
  20588566.335    -1205956.543        -135.083          45.000  
  21449148.829      343728.0943      -2056.831          16.000  
  21177588.436    -2950540.3883       1388.516          28.000  
  22104493.204     -232099.1273       1314.785          22.000  
  25794163.945      665474.9693      -3803.683          20.000  
  24744878.932     -379488.9713       2566.709          23.000  
  24385917.570     -288750.9643       2271.328          29.000  
  22903080.519      -97249.7873       1758.060          26.000  
  24101908.977    -2556599.2763       1768.257          13.000  
  25406421.329      325012.1813      -1935.491          20.000  
  25125200.425     -370666.8783       2515.438          19.000  
 15  4  3 20 23  3.0010000  0 12G 3G23G16G 9G 7G32G20G30G10G27G 6G19
  22226368.003     8853474.8463      -3414.181          30.000  
  20588592.231    -1205821.812        -134.956          45.000  
  21449534.880      345776.0443      -2052.451          16.000  
  21177323.664    -2951928.9363       1388.345          28.000  
  22104245.132     -233407.6873       1307.111          22.000  
  25794891.480      669282.0333      -3809.033          20.000  
  24744386.173     -382064.4393       2582.458          23.000  
  24385484.125     -291021.4483       2271.233          29.000  
  22902746.278      -99007.9943       1758.135          26.000  
  24101576.411    -2558367.2053       1767.585          13.000  
  25406787.120      326938.1343      -1927.184          21.000  
  25124717.752     -373195.1893       2534.942          18.000  
 15  4  3 20 23  4.0010000  0 12G 3G23G16G 9G 7G32G20G30G10G27G 6G19
  22227020.065     8856888.2163      -3413.090          30.000  
  20588618.406    -1205686.719        -135.646          45.000  
  21449922.100      347815.6553      -2047.843          17.000  
  21177061.457    -2953317.2983       1387.709          27.000  
  22103996.467     -234714.7843       1310.033          23.000  
  25795616.955      673089.0973      -3800.525          20.000  
  24743893.135     -384644.6293       2574.714          23.000  
  24385050.626     -293291.8343       2270.812          30.000  
  22902411.460     -100765.8093       1757.605          27.000  
  24101240.250    -2560134.4773       1766.927          13.000  
  25407153.522      328863.0133      -1920.238          22.000  
  25124236.388     -375723.1733       2529.797          19.000  
 15  4  3 20 23  5.0010000  0 12G 3G23G16G 9G 7G32G20G30G10G27G 6G19
  22227671.116     8860301.9713      -3414.472          29.000  
  20588643.901    -1205551.188        -135.472          45.000  
  21450312.915      349858.8453      -2044.586          18.000  
  21176798.290    -2954705.2603       1389.331          27.000  
  22103750.069     -236022.5743       1308.678          24.000  
  25796344.402      676897.4443      -3803.746          20.000  
  24743401.091     -387221.2303       2582.217          22.000  
  24384617.966     -295561.9283       2269.995          30.000  
  22902074.985     -102522.9503       1755.470          27.000  
  24100904.735    -2561901.0703       1766.256          13.000  
  25407519.122      330787.1923      -1939.992          22.000  
  25123755.390     -378256.3133       2530.112          19.000  
 15  4  3 20 23  6.0010000  0 12G 3G23G16G 9G 7G32G20G30G10G27G 6G19
  22228321.921     8863715.9153      -3413.541          29.000  
  20588670.146    -1205415.385        -136.403          45.000  
  21450704.237      351895.7823      -2033.899          18.000  
  21176534.687    -2956093.1453       1388.246          27.000  
  22103503.480     -237328.5153       1302.150          25.000  
  25797068.970      680702.7403      -3808.979          20.000  
  24742910.338     -389798.1303       2578.723          22.000  
  24384185.846     -297832.0742       2270.558          30.000  
  22901742.803     -104279.7023       1756.426          28.000  
  24100568.713    -2563667.0063       1765.585          13.000  
  25407887.618      332713.0283      -1919.744          22.000  
  25123272.734     -380782.1853       2532.342          18.000  
 15  4  3 20 23  7.0010000  0 12G 3G23G16G 9G 7G32G20G30G10G27G 6G19
  22228970.720     8867130.1713      -3415.146          28.000  
  20588695.484    -1205279.218        -136.019          45.000  
  21451112.641      353938.7563      -2042.631          19.000  
  21176270.578    -2957480.8013       1387.773          27.000  
  22103253.820     -238634.9953       1307.584          26.000  
  25797795.493      684509.8473      -3807.673          20.000  
  24742418.190     -392377.5523       2582.744          22.000  
  24383754.407     -300102.0253       2270.989          31.000  
  22901409.521     -106035.9473       1755.896          28.000  
  24100233.372    -2565434.9553       1757.600          15.000  
  25408253.357      334638.5473      -1934.408          22.000  
  25122790.079     -383310.3353       2548.322          16.000  
 15  4  3 20 23  8.0010000  0 12G 3G23G16G 9G 7G32G20G30G10G27G 6G19
  22229622.922     8870544.7183      -3415.146          28.000  
  20588721.363    -1205142.730        -136.409          45.000  
  21451530.278      355984.1813      -2050.116          19.000  
  21176003.083    -2958868.1853       1387.737          27.000  
  22103004.875     -239941.7883       1307.203          26.000  
  25798519.572      688319.9253      -3808.233          20.000  
  24741926.949     -394954.6833       2570.410          22.000  
  24383322.898     -302371.9072       2271.264          31.000  
  22901075.018     -107791.6863       1755.385          27.000  
  24099898.468    -2567201.3103       1775.428          21.000  
  25408620.108      336565.2203      -1924.296          22.000  
  25122307.859     -385838.6503       2518.755          15.000  
 15  4  3 20 23  9.0010000  0 12G 3G23G16G 9G 7G32G20G30G10G27G 6G19
  22230272.280     8873959.3543      -3415.043          28.000  
  20588747.276    -1205006.085        -136.593          45.000  
  21451917.393      358033.3713      -2054.954          18.000  
  21175737.055    -2960255.6223       1387.833          27.000  
  22102758.269     -241248.5773       1307.190          25.000  
  25799242.116      692127.3643      -3805.511          20.000  
  24741437.802     -397525.4643       2567.664          22.000  
  24382892.087     -304641.8362       2270.225          32.000  
  22900740.829     -109547.1563       1755.393          26.000  
  24099564.506    -2568968.2383       1769.919          22.000  
  25408985.778      338493.0013      -1938.348          21.000  
  25121825.623     -388368.7063       2532.606          14.000  
 15  4  3 20 23 10.0010000  0 12G 3G23G16G 9G 7G32G20G30G10G27G 6G19
  22230922.300     8877374.3073      -3415.028          27.000  
  20588773.539    -1204868.998        -137.213          45.000  
  21452318.399      360088.3373      -2054.954          15.000  
  21175475.738    -2961642.7783       1386.390          26.000  
  22102508.295     -242554.0723       1305.934          26.000  
  25799965.514      695931.5213      -3808.029          20.000  
  24740948.166     -400101.5013       2566.492          21.000  
  24382461.503     -306911.5842       2267.301          32.000  
  22900405.628     -111302.1193       1752.820          25.000  
  24099227.681    -2570737.6643       1761.043          21.000  
  25409353.576      340420.6283      -1927.977          21.000  
  25121347.138     -390885.3543       2491.422          13.000  
 15  4  3 20 23 11.0010000  0 12G 3G23G16G 9G 7G32G20G30G10G27G 6G19
  22231571.396     8880789.5693      -3415.163          27.000  
  20588799.417    -1204731.627        -137.603          45.000  
  21452688.187      362127.6023      -2046.696          15.000  
  21175211.070    -2963029.6803       1387.758          27.000  
  22102259.891     -243860.5093       1307.107          27.000  
  25800688.268      699733.8743      -3799.007          20.000  
  24740459.996     -402675.5443       2565.560          20.000  
  24382030.971     -309181.2562       2268.124          33.000  
  22900073.410     -113056.5673       1752.684          24.000  
  24098892.393    -2572507.8063       1759.773          21.000  
  25409719.716      342351.8533      -1934.465          21.000  
  25120867.850     -393395.4243       2522.672           9.000  
 15  4  3 20 23 12.0010000  0 12G 3G23G16G 9G 7G32G20G30G10G27G 6G19
  22232221.626     8884205.0323      -3416.003          27.000  
  20588825.907    -1204593.947        -137.944          45.000  
  21453067.554      364177.8963      -2050.338          18.000  
  21174950.731    -2964416.4833       1386.569          27.000  
  22102013.825     -245166.7833       1305.297          27.000  
  25801413.516      703539.9073      -3822.568          20.000  
  24739969.017     -405249.9153       2577.702          20.000  
  24381600.788     -311450.8512       2268.947          33.000  
  22899740.286     -114810.5403       1754.772          25.000  
  24098558.064    -2574273.6563       1764.318          21.000  
  25410088.474      344281.6533      -1924.673          20.000  
  25120391.546     -395918.0823       2522.672           7.000  
 15  4  3 20 23 13.0010000  0 12G 3G23G16G 9G 7G32G20G30G10G27G 6G19
  22232867.965     8887620.7213      -3414.833          27.000  
  20588852.030    -1204455.945        -137.608          45.000  
  21453457.829      366227.4373      -2038.538          20.000  
  21174688.052    -2965803.0283       1386.576          27.000  
  22101766.730     -246472.8643       1307.680          27.000  
  25802137.840      707351.5273      -3806.239          21.000  
  24739481.144     -407825.1823       2574.639          20.000  
  24381170.309     -313720.3352       2270.789          34.000  
  22899403.636     -116564.0673       1752.780          26.000  
  24098224.015    -2576039.8783       1773.716          22.000  
  25410454.999      346209.8413      -1924.695          19.000  
  25119908.978     -398455.7843       2540.265           7.000  
 15  4  3 20 23 14.0010000  0 11G 3G23G16G 9G 7G32G20G30G10G27G 6
  22233516.031     8891036.6053      -3416.467          26.000  
  20588877.559    -1204317.720        -138.369          45.000  
  21453860.021      368267.4633      -2037.852          18.000  
  21174426.788    -2967189.5023       1385.898          27.000  
  22101519.652     -247778.8593       1306.962          28.000  
  25802862.565      711155.8503      -3804.896          21.000  
  24738990.304     -410398.9863       2571.994          20.000  
  24380739.724     -315989.7722       2268.937          34.000  
  22899069.168     -118317.1853       1753.266          25.000  
  24097887.836    -2577808.0643       1761.052          21.000  
  25410820.476      348138.3793      -1923.272          19.000  
 15  4  3 20 23 15.0010000  0 12G 3G23G16G 9G 7G32G20G30G10G27G 6G19
  22234167.989     8894452.7323      -3418.035          24.000  
  20588904.450    -1204179.291        -138.709          45.000  
  21454253.785      370305.3243      -2037.852          15.000  
  21174163.447    -2968575.8613       1386.260          27.000  
  22101272.453     -249084.8913       1305.831          28.000  
  25803587.028      714959.9143      -3803.813          21.000  
  24738499.831     -412970.2723       2565.097          20.000  
  24380309.053     -318259.3362       2269.501          35.000  
  22898736.863     -120070.0213       1752.958          25.000  
  24097551.623    -2579578.2633       1771.946          20.000  
  25411184.749      350064.0933      -1923.930          18.000  
  25118937.071     -403539.7883       2543.805          10.000  
 15  4  3 20 23 16.0010000  0 12G 3G23G16G 9G 7G32G20G30G10G27G 6G19
  22234855.806     8897865.6243      -3409.883          23.000  
  20588930.277    -1204040.291        -139.335          45.000  
  21454652.819      372354.5693      -2050.114          14.000  
  21173897.994    -2969961.8913       1386.330          27.000  
  22101023.560     -250390.4853       1305.359          27.000  
  25804311.945      718766.5323      -3812.236          21.000  
  24738007.298     -415543.5743       2571.874          21.000  
  24379878.678     -320528.4922       2269.980          35.000  
  22898404.437     -121822.1523       1752.102          25.000  
  24097215.933    -2581345.7543       1771.647          20.000  
  25411553.699      351990.1053      -1936.913          18.000  
  25118454.171     -406078.7673       2538.947          10.000  
 15  4  3 20 23 17.0010000  0 12G 3G23G16G 9G 7G32G20G30G10G27G 6G19
  22235516.472     8901278.9853      -3410.421          22.000  
  20588956.975    -1203901.020        -139.098          45.000  
  21455035.555      374405.4223      -2056.796          13.000  
  21173636.101    -2971347.6883       1386.555          27.000  
  22100775.313     -251695.9553       1304.608          27.000  
  25805033.127      722571.0243      -3813.802          20.000  
  24737515.865     -418115.2823       2585.485          21.000  
  24379447.100     -322797.6382       2268.782          35.000  
  22898070.928     -123573.8343       1753.975          26.000  
  24096880.191    -2583108.0653       1757.831          19.000  
  25411919.526      353920.6073      -1913.428          17.000  
  25117972.039     -408618.2453       2540.057          10.000  
 15  4  3 20 23 18.0010000  0 12G 3G23G16G 9G 7G32G20G30G10G27G 6G19
  22236177.608     8904695.8153      -3409.863          20.000  
  20588983.378    -1203761.365        -139.839          45.000  
  21455419.931      376449.8143      -2049.230          16.000  
  21173370.910    -2972733.1843       1385.488          27.000  
  22100524.065     -253001.2283       1305.470          27.000  
  25805757.451      726376.0213      -3811.643          19.000  
  24737024.450     -420692.2143       2569.708          21.000  
  24379015.887     -325066.5762       2268.921          35.000  
  22897737.699     -125325.0323       1751.369          26.000  
  24096544.658    -2584872.5423       1755.861          21.000  
  25412286.277      355851.0063      -1928.316          16.000  
  25117488.964     -411158.8283       2541.168          10.000  
 15  4  3 20 23 19.0010000  0 12G 3G23G16G 9G 7G32G20G30G10G27G 6G19
  22236811.138     8908114.6483      -3423.155          20.000  
  20589010.111    -1203621.458        -140.052          45.000  
  21455798.618      378505.7133      -2053.869          18.000  
  21173107.551    -2974118.6613       1385.211          27.000  
  22100277.145     -254306.4283       1305.036          27.000  
  25806481.949      730180.8263      -3801.233          18.000  
  24736535.774     -423266.8223       2567.824          20.000  
  24378585.094     -327335.541        2269.067          35.000  
  22897405.674     -127075.8353       1750.319          26.000  
  24096210.644    -2586637.2863       1757.623          23.000  
  25412650.620      357779.3993      -1939.116          16.000  
  25117006.012     -413692.9813       2533.455          10.000  
 15  4  3 20 23 20.0010000  0 12G 3G23G16G 9G 7G32G20G30G10G27G 6G19
  22237464.788     8911529.9873      -3421.633          20.000  
  20589036.444    -1203481.290        -140.337          45.000  
  21456145.912      380555.9403      -2056.782          20.000  
  21172847.072    -2975503.8953       1385.477          27.000  
  22100030.119     -255611.4733       1303.551          26.000  
  25807205.348      733987.3423      -3794.970          17.000  
  24736046.836     -425834.5413       2571.574          19.000  
  24378153.585     -329604.388        2268.627          35.000  
  22897073.020     -128826.1673       1750.299          27.000  
  24095875.652    -2588401.5533       1762.243          24.000  
  25413018.034      359712.6173      -1924.140          15.000  
  25116524.107     -416226.5283       2533.675          13.000  
 15  4  3 20 23 21.0010000  0 12G 3G23G16G 9G 7G32G20G30G10G27G 6G19
  22238100.099     8914948.9563      -3420.811          19.000  
  20589063.125    -1203340.787        -140.532          45.000  
  21456527.078      382605.9473      -2051.360          20.000  
  21172584.167    -2976889.0533       1385.691          27.000  
  22099780.843     -256916.4183       1306.988          26.000  
  25807927.490      737790.7263      -3806.696          17.000  
  24735557.200     -428398.8913       2558.885          17.000  
  24377722.303     -331873.202        2268.659          35.000  
  22896738.901     -130576.1253       1749.501          28.000  
  24095541.131    -2590169.0343       1768.359          25.000  
  25413385.257      361639.3093      -1928.815          17.000  
  25116040.876     -418760.3043       2533.894          13.000  
 15  4  3 20 23 22.0010000  0 12G 3G23G16G 9G 7G32G20G30G10G27G 6G19
  22238755.407     8918366.2083      -3421.643          20.000  
  20589090.086    -1203199.970        -140.851          44.000  
  21456928.799      384661.3613      -2054.856          20.000  
  21172321.384    -2978273.8863       1384.593          27.000  
  22099531.898     -258220.9573       1305.256          25.000  
  25808652.337      741594.1483      -3809.242          18.000  
  24735067.844     -430966.6793       2566.695          17.000  
  24377290.584     -334141.904        2269.293          36.000  
  22896404.973     -132325.5623       1749.246          28.000  
  24095206.610    -2591934.0923       1765.052          25.000  
  25413751.903      363571.0043      -1936.271          18.000  
  25115558.325     -421294.2833       2534.110          13.000  
 15  4  3 20 23 23.0010000  0 12G 3G23G16G 9G 7G32G20G30G10G27G 6G19
  22239416.002     8921782.3923      -3435.871          18.000  
  20589116.558    -1203058.742        -140.829          44.000  
  21457301.222      386713.6953      -2044.652          20.000  
  21172057.554    -2979658.5333       1384.052          27.000  
  22099282.674     -259525.6893       1303.616          25.000  
  25809377.586      745396.7573      -3794.663          19.000  
  24734578.086     -433535.9053       2566.578          16.000  
  24376859.721     -336410.436        2268.757          36.000  
  22896073.664     -134074.4433       1748.931          28.000  
  24094872.927    -2593698.9983       1763.335          24.000  
  25414119.283      365500.4753      -1934.811          20.000  
  25115075.233     -423828.4883       2534.329          13.000  
 15  4  3 20 23 24.0010000  0 12G 3G23G16G 9G 7G32G20G30G10G27G 6G19
  22240055.779     8925200.0863      -3416.802          17.000  
  20589143.710    -1202917.190        -142.509          44.000  
  21457692.438      388767.3643      -2043.522          21.000  
  21171795.243    -2981042.8853       1384.351          27.000  
  22099034.602     -260830.0903       1303.423          24.000  
  25810098.873      749199.8963      -3800.885          20.000  
  24734087.124     -436109.3413       2564.012          15.000  
  24376428.386     -338678.849        2269.094          35.000  
  22895740.905     -135822.8563       1748.511          27.000  
  24094537.255    -2595458.6783       1759.103          22.000  
  25414484.725      367425.0883      -1931.445          20.000  
  25114592.682     -426362.9123       2534.549          13.000  
 15  4  3 20 23 25.0010000  0 12G 3G23G16G 9G 7G32G20G30G10G27G 6G19
  22240694.771     8928619.0653      -3416.231          17.000  
  20589170.479    -1202775.342        -142.235          44.000  
  21458077.460      390815.6153      -2038.689          20.000  
  21171528.917    -2982427.1513       1384.995          26.000  
  22098782.324     -262133.4133       1307.155          23.000  
  25810824.279      753005.1263      -3802.707          21.000  
  24733595.011     -438681.8173       2574.837          15.000  
  24375997.663     -340947.191        2268.993          35.000  
  22895407.484     -137570.8153       1747.769          26.000  
  24094199.855    -2597221.8773       1765.691          22.000  
  25414851.197      369355.1283      -1925.146          20.000  
  25114108.194     -428905.0833       2543.566          13.000  
 15  4  3 20 23 26.0010000  0 12G 3G23G16G 9G 7G32G20G30G10G27G 6G19
  22241347.235     8932036.7293      -3409.493          17.000  
  20589197.631    -1202633.223        -142.477          44.000  
  21458478.274      392867.1453      -2045.667          20.000  
  21171266.030    -2983811.2403       1384.019          27.000  
  22098535.438     -263438.5323       1301.221          22.000  
  25811548.445      756810.7133      -3809.023          21.000  
  24733104.241     -441251.1993       2562.462          15.000  
  24375566.066     -343215.507        2268.588          35.000  
  22895073.871     -139318.4803       1747.058          25.000  
  24093863.921    -2598981.5573       1760.335          22.000  
  25415217.687      371280.7853      -1938.300          20.000  
  25113621.455     -431449.1763       2544.677          11.000  
 15  4  3 20 23 27.0010000  0 12G 3G23G16G 9G 7G32G20G30G10G27G 6G19
  22241992.788     8935451.1113      -3423.346          17.000  
  20589224.417    -1202490.796        -142.666          44.000  
  21458859.194      394916.9263      -2055.791          19.000  
  21171001.293    -2985195.1393       1384.120          28.000  
  22098290.123     -264740.3823       1297.169          22.000  
  25812272.385      760617.1083      -3793.771          20.000  
  24732615.076     -443824.6003       2578.079          15.000  
  24375134.226     -345483.715        2269.164          35.000  
  22894740.292     -141065.5583       1746.855          27.000  
  24093525.840    -2600744.4033       1762.716          22.000  
  25415585.258      373209.6523      -1936.034          21.000  
  25113136.723     -433994.3843       2545.788          11.000  
 15  4  3 20 23 28.0010000  0 12G 3G23G16G 9G 7G32G20G30G10G27G 6G19
  22242641.849     8938874.0073      -3420.716          16.000  
  20589250.907    -1202347.998        -142.932          44.000  
  21459252.400      396967.7403      -2058.274          20.000  
  21170737.375    -2986578.8143       1383.676          28.000  
  22098041.911     -266046.0353       1298.455          20.000  
  25812997.197      764419.3403      -3795.351          20.000  
  24732122.875     -446397.3013       2575.912          15.000  
  24374701.897     -347751.762        2268.767          35.000  
  22894408.180     -142812.1483       1745.366          28.000  
  24093186.835    -2602511.0163       1757.817          22.000  
  25415954.103      375141.4613      -1936.151          22.000  
  25112656.162     -436531.2713       2535.877          11.000  
 15  4  3 20 23 29.0010000  0 12G 3G23G16G 9G 7G32G20G30G10G27G 6G19
  22243292.393     8942294.6833      -3420.546          14.000  
  20589278.112    -1202204.916        -143.256          44.000  
  21459649.044      399021.3173      -2051.252          21.000  
  21170473.301    -2987962.3743       1383.535          27.000  
  22097793.420     -267351.4243       1294.900          19.000  
  25813720.230      768216.9673      -3792.442          19.000  
  24731632.716     -448963.8683       2560.072          15.000  
  24374268.747     -350019.783        2268.973          34.000  
  22894076.573     -144558.2593       1745.984          29.000  
  24092849.609    -2604273.5183       1764.991          23.000  
  25416322.233      377070.9333      -1924.916          22.000  
  25112174.344     -439067.1373       2535.877          11.000  
 15  4  3 20 23 30.0010000  0 12G 3G23G16G 9G 7G32G20G30G10G27G 6G19
  22243943.444     8945715.2383      -3420.546          11.000  
  20589305.229    -1202061.456        -144.383          44.000  
  21460044.099      401076.1013      -2055.324          24.000  
  21170208.948    -2989345.6293       1383.623          27.000  
  22097551.159     -268653.2273       1307.388          20.000  
  25814444.571      772023.4363      -3806.776          20.000  
  24731141.562     -451536.1243       2570.577          16.000  
  24373836.122     -352287.638        2266.677          34.000  
  22893745.124     -146303.9483       1745.166          29.000  
  24092513.675    -2606036.6413       1762.944          26.000  
  25416690.171      378999.6133      -1921.873          23.000  
  25111694.096     -441603.0033       2535.877          11.000  
 15  4  3 20 23 31.0010000  0 12G 3G23G16G 9G 7G32G20G30G10G27G 6G19
  22244592.522     8949135.8003      -3420.546           9.000  
  20589332.853    -1201917.743        -142.798          44.000  
  21460438.108      403132.3023      -2052.839          24.000  
  21169946.828    -2990728.7223       1383.833          27.000  
  22097303.087     -269958.0673       1306.783          20.000  
  25815169.261      775825.8073      -3801.538          20.000  
  24730651.543     -454109.0973       2584.797          16.000  
  24373404.019     -354555.488        2268.346          33.000  
  22893413.919     -148049.1663       1744.821          29.000  
  24092179.032    -2607799.8783       1763.604          27.000  
  25417059.679      380928.4673      -1926.671          24.000  
  25111214.023     -444131.3433       2527.075          11.000  
 15  4  3 20 23 32.0010000  0 12G 3G23G16G 9G 7G32G20G30G10G27G 6G19
  22245241.705     8952556.3583      -3420.546          10.000  
  20589359.971    -1201773.744        -144.180          44.000  
  21460829.935      405188.7893      -2055.915          25.000  
  21169685.372    -2992111.5333       1379.494          25.000  
  22097054.561     -271263.8333       1306.444          19.000  
  25815893.881      779623.7843      -3795.738          20.000  
  24730164.193     -456681.1523       2561.131          17.000  
  24372970.434     -356823.285        2268.483          32.000  
  22893080.306     -149794.0433       1744.832          28.000  
  24091846.222    -2609562.7813       1762.249          28.000  
  25417425.261      382858.7823      -1930.130          25.000  
  25110733.514     -446657.9703       2526.184          14.000  
 15  4  3 20 23 33.0010000  0 12G 3G23G16G 9G 7G32G20G30G10G27G 6G19
  22245890.783     8955975.6873      -3424.304          14.000  
  20589387.542    -1201629.325        -145.208          44.000  
  21461219.651      407246.0713      -2057.829          25.000  
  21169420.565    -2993496.9533       1379.025          24.000  
  22096805.476     -272571.8193       1301.570          19.000  
  25816618.798      783427.6293      -3807.184          19.000  
  24729673.807     -459254.7043       2592.381          16.000  
  24372537.442     -359090.779        2267.117          31.000  
  22892746.500     -151538.2703       1743.352          27.000  
  24091511.823    -2611325.3123       1762.791          28.000  
  25417792.711      384789.4273      -1929.660          25.000  
  25110254.505     -449183.7103       2525.293          14.000  
 15  4  3 20 23 34.0010000  0 12G 3G23G16G 9G 7G32G20G30G10G27G 6G19
  22246538.012     8959396.9923      -3415.463          17.000  
  20589414.817    -1201484.555        -145.465          43.000  
  21461614.182      409303.9453      -2059.190          24.000  
  21169155.461    -2994879.2593       1383.453          25.000  
  22096556.461     -273872.8503       1298.114          21.000  
  25817341.639      787234.7113      -3802.090          19.000  
  24729185.184     -461830.3063       2575.815          16.000  
  24372104.118     -361358.2183       2267.300          30.000  
  22892414.597     -153281.8133       1741.099          25.000  
  24091176.605    -2613087.6243       1761.777          28.000  
  25418161.730      386720.1983      -1931.946          25.000  
  25109773.700     -451714.2093       2531.013          14.000  
 15  4  3 20 23 35.0010000  0 12G 3G23G16G 9G 7G32G20G30G10G27G 6G19
  22247181.401     8962817.7623      -3412.232          21.000  
  20589442.981    -1201339.412        -145.196          43.000  
  21462004.753      411362.4043      -2059.675          25.000  
  21168892.713    -2996261.2513       1376.983          25.000  
  22096310.728     -275175.4563       1295.508          21.000  
  25818065.474      791038.2073      -3820.819          19.000  
  24728697.799     -464402.1353       2565.257          17.000  
  24371671.230     -363625.5483       2266.062          30.000  
  22892083.026     -155024.7833       1740.919          23.000  
  24090841.892    -2614849.7653       1762.038          27.000  
  25418528.970      388651.2783      -1932.800          25.000  
  25109294.255     -454245.0973       2530.781          14.000  
 15  4  3 20 23 36.0010000  0 12G 3G23G16G 9G 7G32G20G30G10G27G 6G19
  22247825.419     8966239.8953      -3421.778          25.000  
  20589470.169    -1201194.000        -145.040          43.000  
  21462394.696      413421.3263      -2059.436          25.000  
  21168625.568    -2997648.9593       1381.677          22.000  
  22096060.788     -276476.3113       1300.789          20.000  
  25818787.040      794844.0283      -3806.471          19.000  
  24728210.100     -466973.0633       2572.893          17.000  
  24371237.941     -365892.8293       2267.873          29.000  
  22891753.147     -156768.5133       1737.221          22.000  
  24090508.244    -2616611.6383       1762.837          27.000  
  25418896.297      390582.0263      -1931.690          25.000  
  25108813.170     -456775.7563       2530.549          14.000  
 15  4  3 20 23 37.0010000  0 12G 3G23G16G 9G 7G32G20G30G10G27G 6G19
  22248475.317     8969661.7023      -3422.502          27.000  
  20589497.967    -1201048.270        -146.661          44.000  
  21462787.971      415480.7773      -2060.299          26.000  
  21168357.916    -2999030.9703       1386.852          20.000  
  22095813.588     -277778.8153       1296.892          20.000  
  25819512.166      798648.1623      -3799.403          19.000  
  24727722.402     -469539.1033       2563.439          18.000  
  24370804.478     -368159.8993       2266.463          29.000  
  22891421.662     -158512.7043       1739.644          23.000  
  24090171.682    -2618373.4163       1761.420          28.000  
  25419265.771      392513.5753      -1931.376          25.000  
  25108329.799     -459313.7053       2539.124          14.000  
 15  4  3 20 23 38.0010000  0 12G 3G23G16G 9G 7G32G20G30G10G27G 6G19
  22249123.820     8973084.0203      -3422.510          27.000  
  20589525.957    -1200902.027        -145.917          43.000  
  21463180.357      417541.0203      -2062.152          26.000  
  21168093.545    -3000417.5393       1387.534          18.000  
  22095564.626     -279081.8593       1305.719          20.000  
  25820237.205      802458.1033      -3810.923          19.000  
  24727233.639     -472106.9803       2569.922          19.000  
  24370372.463     -370426.7953       2266.696          29.000  
  22891090.161     -160251.8513       1744.138          24.000  
  24089834.753    -2620134.6983       1760.833          28.000  
  25419632.714      394445.4683      -1932.240          24.000  
  25107847.073     -461853.1443       2539.783          10.000  
 15  4  3 20 23 39.0010000  0 12G 3G23G16G 9G 7G32G20G30G10G27G 6G19
  22249772.846     8976506.5203      -3422.559          27.000  
  20589553.703    -1200755.587        -146.895          43.000  
  21463572.725      419601.6173      -2060.558          26.000  
  21167832.001    -3001795.8543       1375.826          18.000  
  22095319.433     -280384.9173       1297.273          20.000  
  25820960.465      806265.2973      -3791.795          19.000  
  24726744.928     -474673.7773       2567.835          20.000  
  24369940.291     -372693.6942       2267.029          29.000  
  22890758.362     -161993.3233       1741.233          26.000  
  24089499.586    -2621895.8943       1762.124          27.000  
  25420002.920      396377.4193      -1930.776          25.000  
  25107363.947     -464393.2333       2540.442          10.000  
 15  4  3 20 23 40.0010000  0 12G 3G23G16G 9G 7G32G20G30G10G27G 6G19
  22250422.797     8979929.3043      -3423.761          27.000  
  20589581.693    -1200608.708        -147.297          43.000  
  21463964.832      421662.8643      -2062.168          26.000  
  21167565.711    -3003174.7173       1382.449          19.000  
  22095070.977     -281686.2273       1302.004          19.000  
  25821684.300      810067.5773      -3791.656          20.000  
  24726258.643     -477237.5693       2566.596          20.000  
  24369508.747     -374960.3103       2269.840          30.000  
  22890427.174     -163734.0933       1740.385          26.000  
  24089165.572    -2623656.7753       1761.434          29.000  
  25420370.631      398309.6663      -1933.042          25.000  
  25106883.647     -466932.0883       2538.890          10.000  
 15  4  3 20 23 41.0010000  0 12G 3G23G16G 9G 7G32G20G30G10G27G 6G19
  22251074.143     8983352.4223      -3422.863          26.000  
  20589610.294    -1200461.478        -148.118          43.000  
  21464357.863      423724.8393      -2061.984          26.000  
  21167304.813    -3004555.6263       1377.186          20.000  
  22094824.719     -282989.1363       1304.701          21.000  
  25822409.635      813869.4503      -3798.228          20.000  
  24725773.666     -479805.6733       2564.939          21.000  
  24369077.238     -377226.9732       2266.457          31.000  
  22890098.098     -165474.2993       1739.419          26.000  
  24088828.242    -2625417.3713       1759.670          29.000  
  25420739.285      400242.2263      -1932.861          25.000  
  25106402.178     -469471.1863       2539.330          10.000  
 15  4  3 20 23 42.0010000  0 12G 3G23G16G 9G 7G32G20G30G10G27G 6G19
  22251727.672     8986775.8123      -3423.155          27.000  
  20589637.516    -1200313.880        -147.564          43.000  
  21464750.039      425787.1743      -2063.045          26.000  
  21167043.827    -3005934.1183       1377.707          19.000  
  22094579.771     -284289.2603       1306.242          22.000  
  25823134.238      817668.8403      -3794.351          20.000  
  24725286.805     -482372.6253       2566.323          21.000  
  24368646.462     -379493.3952       2265.088          31.000  
  22889770.034     -167214.1543       1738.115          26.000  
  24088492.377    -2627177.7663       1760.406          30.000  
  25421104.640      402175.0323      -1932.322          25.000  
  25105923.588     -472010.7143       2539.769          10.000  
 15  4  3 20 23 43.0010000  0 12G 3G23G16G 9G 7G32G20G30G10G27G 6G19
  22252381.043     8990199.4913      -3423.675          27.000  
  20589665.891    -1200165.967        -147.812          43.000  
  21465142.302      427850.1793      -2062.786          27.000  
  21166780.539    -3007307.8263       1370.190          16.000  
  22094333.565     -285592.0283       1305.529          22.000  
  25823858.440      821465.0183      -3792.162          20.000  
  24724799.996     -484939.0993       2564.367          22.000  
  24368216.087     -381759.7082       2267.718          32.000  
  22889440.050     -168953.4213       1740.156          25.000  
  24088157.386    -2628937.8373       1760.000          30.000  
  25421473.921      404107.4533      -1934.090          24.000  
  25105442.852     -474546.9153       2535.804          10.000  
 15  4  3 20 23 44.0010000  0 12G 3G23G16G 9G 7G32G20G30G10G27G 6G19
  22253034.466     8993623.3153      -3423.719          29.000  
  20589693.741    -1200017.797        -148.198          43.000  
  21465534.897      429913.6273      -2063.652          28.000  
  21166513.149    -3008695.1203       1384.306          13.000  
  22094090.013     -286888.6043       1268.426          21.000  
  25824601.156      825267.8353      -3795.513          20.000  
  24724313.537     -487502.9853       2565.499          22.000  
  24367785.555     -384026.0172       2266.596          32.000  
  22889109.875     -170692.2823       1738.370          26.000  
  24087823.720    -2630697.8123       1760.102          30.000  
  25421843.447      406040.0473      -1933.038          23.000  
  25104961.226     -477082.7133       2535.804          14.000  
 15  4  3 20 23 45.0010000  0 12G 3G23G16G 9G 7G32G20G30G10G27G 6G19
  22253686.825     8997047.3853      -3424.427          29.000  
  20589722.063    -1199869.331        -148.596          43.000  
  21465926.899      431977.6043      -2063.866          28.000  
  21166249.040    -3010084.8463       1396.738          14.000  
  22093842.342     -288185.5253       1304.196          21.000  
  25825306.703      829070.9213      -3807.829          21.000  
  24723826.379     -490073.4953       2555.196          22.000  
  24367355.093     -386292.2442       2265.655          33.000  
  22888780.938     -172430.8343       1738.765          25.000  
  24087487.158    -2632457.6253       1758.661          30.000  
  25422209.675      407972.9013      -1925.429          22.000  
  25104478.222     -479618.5023       2535.804          14.000  
 15  4  3 20 23 46.0010000  0 12G 3G23G16G 9G 7G32G20G30G10G27G 6G19
  22254340.702     9000471.8123      -3425.378          29.000  
  20589750.576    -1199720.364        -149.438          43.000  
  21466319.738      434042.2533      -2064.821          28.000  
  21165984.477    -3011470.6853       1383.247          15.000  
  22093596.259     -289485.8973       1287.108          22.000  
  25826039.577      832875.2263      -3804.777          21.000  
  24723341.437     -492636.8463       2565.025          22.000  
  24366924.719     -388558.2222       2266.627          34.000  
  22888448.058     -174168.6543       1736.820          26.000  
  24087150.211    -2634216.8583       1759.057          32.000  
  25422574.768      409904.4713      -1933.542          22.000  
  25103997.730     -482154.2933       2535.804          14.000  
 15  4  3 20 23 47.0010000  0 12G 3G23G16G 9G 7G32G20G30G10G27G 6G19
  22254990.758     9003896.5833      -3424.494          30.000  
  20589778.584    -1199571.098        -149.420          43.000  
  21466712.176      436107.4973      -2066.349          28.000  
  21165721.677    -3012843.8983       1376.603          15.000  
  22093350.455     -290783.4953       1304.683          22.000  
  25826750.185      836681.0023      -3809.017          21.000  
  24722852.168     -495205.0503       2565.243          22.000  
  24366494.693     -390824.0522       2266.150          34.000  
  22888114.323     -175905.9993       1737.133          27.000  
  24086818.849    -2635976.0082       1758.710          32.000  
  25422944.887      411837.4703      -1936.093          22.000  
  25103517.692     -484690.0823       2535.804          14.000  
 15  4  3 20 23 48.0010000  0 12G 3G23G16G 9G 7G32G20G30G10G27G 6G19
  22255648.212     9007321.5813      -3426.204          30.000  
  20589806.818    -1199421.492        -150.021          43.000  
  21467104.911      438173.2723      -2065.521          27.000  
  21165456.486    -3014225.3843       1380.998          16.000  
  22093102.226     -292082.1993       1301.629          22.000  
  25827485.590      840479.4873      -3801.022          20.000  
  24722362.201     -497771.8733       2560.206          22.000  
  24366064.388     -393089.8452       2265.369          35.000  
  22887785.351     -177642.8533       1737.005          26.000  
  24086476.668    -2637734.9112       1760.228          32.000  
  25423311.639      413772.0993      -1931.525          22.000  
  25103037.462     -487225.8803       2535.804          14.000  
 15  4  3 20 23 49.0010000  0 12G 3G23G16G 9G 7G32G20G30G10G27G 6G19
  22256297.308     9010746.8183      -3428.178          31.000  
  20589835.245    -1199271.472        -150.545          43.000  
  21467499.164      440239.6133      -2066.881          28.000  
  21165192.953    -3015606.3693       1380.998          13.000  
  22092855.096     -293381.8673       1298.730          21.000  
  25828213.805      844283.4423      -3792.123          20.000  
  24721875.357     -500334.3243       2575.844          22.000  
  24365634.607     -395355.432        2264.752          35.000  
  22887455.891     -179379.2983       1734.865          25.000  
  24086149.511    -2639493.5892       1758.315          33.000  
  25423682.578      415705.2793      -1925.814          22.000  
  25102553.288     -489767.3063       2542.397          14.000  
 15  4  3 20 23 50.0010000  0 12G 3G23G16G 9G 7G32G20G30G10G27G 6G19
  22256945.531     9014172.5832      -3424.924          31.000  
  20589863.776    -1199121.027        -150.912          43.000  
  21467894.027      442306.6823      -2067.532          27.000  
  21164931.042    -3016987.3543       1380.998          12.000  
  22092608.228     -294679.3373       1299.702          22.000  
  25828938.617      848082.1533      -3809.499          21.000  
  24721387.676     -502896.8423       2557.850          22.000  
  24365204.528     -397620.825        2265.562          35.000  
  22887126.047     -181114.9913       1734.904          25.000  
  24085813.507    -2641251.8672       1757.875          34.000  
  25424048.230      417638.5733      -1939.176          22.000  
  25102070.737     -492310.0173       2543.057          13.000  
 15  4  3 20 23 51.0010000  0 12G 3G23G16G 9G 7G32G20G30G10G27G 6G19
  22257594.557     9017598.6313      -3425.899          30.000  
  20589892.569    -1198970.163        -151.171          43.000  
  21468287.722      444374.3673      -2068.153          27.000  
  21164668.853    -3018368.3453       1380.998          12.000  
  22092364.186     -295980.4893       1298.315          22.000  
  25829664.738      851886.9053      -3809.257          21.000  
  24720901.356     -505459.4253       2565.011          22.000  
  24364774.224     -399885.996        2265.685          36.000  
  22886794.894     -182850.2383       1735.114          26.000  
  24085479.178    -2643009.8732       1756.092          34.000  
  25424414.911      419573.6363      -1922.559          21.000  
  25101586.755     -494853.3863       2543.716          13.000  
 15  4  3 20 23 52.0010000  0 11G 3G23G16G 7G32G20G30G10G27G 6G19
  22258250.964     9021024.7762      -3426.639          30.000  
  20589921.920    -1198819.141        -151.200          43.000  
  21468682.829      446442.4743      -2067.433          28.000  
  22092117.545     -297275.3273       1300.975          21.000  
  25830374.334      855691.8453      -3804.802          21.000  
  24720415.402     -508023.1383       2561.022          22.000  
  24364344.023     -402151.276        2265.519          36.000  
  22886463.166     -184585.1413       1733.347          26.000  
  24085144.326    -2644767.8032       1757.164          34.000  
  25424779.760      421507.8283      -1940.546          21.000  
  25101102.582     -497393.6313       2539.966          13.000  
 15  4  3 20 23 53.0010000  0 11G 3G23G16G 7G32G20G30G10G27G 6G19
  22258900.741     9024451.2413      -3423.710          30.000  
  20589950.573    -1198667.718        -151.588          43.000  
  21469077.676      448511.1563      -2068.257          28.000  
  22091872.771     -298569.1183       1300.714          19.000  
  25831093.405      859490.4863      -3805.368          20.000  
  24719928.175     -510588.2613       2566.185          22.000  
  24363914.102     -404416.389        2265.252          36.000  
  22886134.072     -186319.4833       1734.579          27.000  
  24084809.457    -2646525.4132       1757.015          34.000  
  25425148.571      423444.5333      -1933.404          21.000  
  25100616.227     -499933.6933       2540.186          13.000  
 15  4  3 20 23 54.0010000  0 11G 3G23G16G 7G32G20G30G10G27G 6G19
  22259552.646     9027877.9742      -3427.558          30.000  
  20589979.366    -1198515.934        -152.482          43.000  
  21469471.143      450580.4303      -2069.329          28.000  
  22091630.597     -299868.8363       1298.733          18.000  
  25831812.877      863293.0603      -3815.288          19.000  
  24719442.012     -513150.9793       2563.156          21.000  
  24363483.937     -406681.344        2265.612          36.000  
  22885806.060     -188053.3973       1734.034          28.000  
  24084474.936    -2648282.8182       1759.445          34.000  
  25425515.322      425375.1973      -1944.257          20.000  
  25100134.042     -502473.9733       2540.406          13.000  
 15  4  3 20 23 55.0010000  0 10G 3G23G16G32G20G30G10G27G 6G19
  22260204.813     9031304.9663      -3425.568          28.000  
  20590007.653    -1198363.831        -151.371          43.000  
  21469865.727      452650.2003      -2070.856          29.000  
  25832536.468      867094.5953      -3796.513          19.000  
  24718954.278     -515715.0713       2554.411          21.000  
  24363053.213     -408946.209        2265.410          36.000  
  22885474.855     -189786.7743       1734.699          27.000  
  24084141.061    -2650040.500        1757.292          35.000  
  25425881.759      427309.5653      -1943.651          20.000  
  25099650.828     -505008.8283       2534.017          13.000  
 15  4  3 20 23 56.0010000  0 12G 3G23G16G 9G 7G32G20G30G10G27G 6G19
  22260855.060     9034732.0513      -3427.349          27.000  
  20590037.004    -1198211.448        -153.073          43.000  
  21470260.172      454720.5093      -2070.522          28.000  
  21163358.254    -3025263.3673       1367.666          16.000  
  22091136.843     -302465.5253       1306.521          18.000  
  25833261.001      870896.0273      -3798.556          20.000  
  24718465.079     -518277.5063       2573.889          21.000  
  24362622.873     -411211.018        2263.953          36.000  
  22885147.716     -191519.7443       1733.386          26.000  
  24083806.662    -2651797.481        1756.312          34.000  
  25426250.011      429246.0923      -1932.652          21.000  
  25099170.529     -507543.0693       2534.850          15.000  
 15  4  3 20 23 57.0010000  0 11G 3G23G16G 9G 7G32G20G30G10G27G 6
  22261503.249     9038159.6143      -3428.007          27.000  
  20590066.600    -1198058.683        -153.057          43.000  
  21470652.418      456791.3833      -2070.875          27.000  
  21163095.751    -3026638.7783       1376.628          20.000  
  22090890.620     -303770.3903       1282.449          18.000  
  25833986.599      874694.4853      -3802.991          21.000  
  24717974.344     -520841.5283       2562.376          21.000  
  24362192.028     -413475.662        2265.706          36.000  
  22884816.842     -193252.3433       1731.368          27.000  
  24083472.089    -2653554.204        1755.407          34.000  
  25426615.855      431178.8453      -1925.071          22.000  
 15  4  3 20 23 58.0010000  0 11G 3G23G16G 9G 7G32G20G30G10G27G 6
  22262152.083     9041587.4663      -3427.974          27.000  
  20590095.794    -1197905.497        -152.975          43.000  
  21471046.287      458862.9353      -2071.927          27.000  
  21162834.032    -3028014.4373       1373.031          20.000  
  22090648.045     -305050.3933       1271.816          17.000  
  25834711.987      878492.0463      -3801.580          22.000  
  24717485.389     -523403.8023       2562.088          21.000  
  24361760.885     -415740.091        2265.789          35.000  
  22884487.958     -194984.1163       1732.158          28.000  
  24083138.232    -2655310.608        1755.918          34.000  
  25426982.850      433118.2143      -1943.207          22.000  
 15  4  3 20 23 59.0010000  0 11G 3G23G16G 9G32G20G30G10G27G 6G19
  22262802.574     9045015.7333      -3427.838          27.000  
  20590125.233    -1197751.829        -154.047          43.000  
  21471440.906      460935.1553      -2074.241          27.000  
  21162573.745    -3029390.9923       1382.013          21.000  
  25835437.096      882296.3293      -3799.963          22.000  
  24716997.585     -525963.6603       2558.112          21.000  
  24361329.132     -418004.311        2263.290          35.000  
  22884157.590     -196715.3713       1730.655          29.000  
  24082804.880    -2657066.559        1756.223          34.000  
  25427351.364      435055.0203      -1939.237          22.000  
  25097724.237     -515159.6033       2535.264          18.000  
 15  4  3 20 24  0.0010000  0 11G 3G23G16G 9G32G20G30G10G27G 6G19
  22263456.225     9048444.3793      -3428.656          27.000  
  20590155.142    -1197597.764        -154.573          43.000  
  21471836.695      463008.0303      -2072.824          27.000  
  21162310.438    -3030767.0193       1376.832          21.000  
  25836160.686      886096.5103      -3808.743          23.000  
  24716510.602     -528521.9133       2560.843          20.000  
  24360897.553     -420268.336        2264.168          35.000  
  22883826.071     -198446.0683       1731.499          29.000  
  24082471.302    -2658822.228        1756.495          35.000  
  25427722.146      436996.2643      -1948.557          22.000  
  25097242.471     -517697.6363       2543.823          19.000  
 15  4  3 20 24  1.0010000  0 11G 3G23G16G 9G32G20G30G10G27G 6G19
  22264107.798     9051873.3403      -3429.722          27.000  
  20590184.459    -1197443.323        -154.451          43.000  
  21472231.959      465081.5293      -2072.779          26.000  
  21162051.704    -3032143.5553       1371.047          22.000  
  25836884.417      889898.1323      -3799.771          23.000  
  24716024.439     -531081.0483       2565.609          20.000  
  24360466.114     -422532.219        2262.446          34.000  
  22883498.635     -200176.2303       1729.634          29.000  
  24082137.357    -2660577.679        1754.969          35.000  
  25428090.625      438934.3973      -1939.710          21.000  
  25096759.903     -520232.1893       2539.580          19.000  
 15  4  3 20 24  2.0010000  0 11G 3G23G16G 9G32G20G30G10G27G 6G19
  22264758.604     9055302.5583      -3429.088          26.000  
  20590213.932    -1197288.457        -154.938          43.000  
  21472626.247      467155.5243      -2074.567          27.000  
  21161789.584    -3033519.9673       1373.889          23.000  
  25837608.653      893697.3123      -3802.056          23.000  
  24715537.927     -533632.9353       2551.441          19.000  
  24360034.395     -424795.922        2264.945          34.000  
  22883169.751     -201905.8833       1728.603          29.000  
  24081803.744    -2662332.795        1755.962          35.000  
  25428461.372      440877.6753      -1934.109          21.000  
  25096274.421     -522773.5673       2529.834          18.000  
 15  4  3 20 24  3.0010000  0 12G 3G23G16G 9G 7G32G20G30G10G27G 6G19
  22265411.452     9058732.0823      -3430.455          26.000  
  20590242.882    -1197133.321        -155.151          43.000  
  21473021.774      469230.1493      -2075.171          27.000  
  21161525.353    -3034894.6203       1373.254          24.000  
  22089417.822     -311482.6863       1276.156          11.000  
  25838331.546      897499.8283      -3812.355          23.000  
  24715049.687     -536194.9743       2578.242          17.000  
  24359603.201     -427059.561        2263.586          34.000  
  22882840.169     -203635.0183       1729.128          28.000  
  24081470.008    -2664087.687        1754.564          34.000  
  25428828.420      442811.7013      -1943.653          21.000  
  25095792.149     -525308.1413       2544.092          18.000  
 15  4  3 20 24  4.0010000  0 12G 3G23G16G 9G 7G32G20G30G10G27G 6G19
  22266061.909     9062161.6753      -3430.992          25.000  
  20590272.722    -1196977.998        -155.533          43.000  
  21473416.201      471305.1463      -2074.744          27.000  
  21161262.884    -3036270.2033       1375.881          25.000  
  22089170.988     -312766.4653       1291.211          13.000  
  25839054.910      901300.3973      -3798.304          22.000  
  24714560.156     -538769.0113       2566.079          17.000  
  24359171.604     -429323.213        2263.535          34.000  
  22882509.941     -205363.8923       1730.517          28.000  
  24081136.133    -2665842.551        1753.459          34.000  
  25429196.602      444753.0753      -1944.238          19.000  
  25095308.830     -527842.3463       2531.805          17.000  
 15  4  3 20 24  5.0010000  0 12G 3G23G16G 9G 7G32G20G30G10G27G 6G19
  22266713.413     9065591.0693      -3430.350          24.000  
  20590302.056    -1196822.338        -155.746          43.000  
  21473811.222      473380.7103      -2074.768          27.000  
  21161003.609    -3037645.6143       1375.024          25.000  
  22088924.050     -314060.9623       1302.160          13.000  
  25839780.001      905097.2553      -3800.967          20.000  
  24714070.363     -541338.5313       2562.114          17.000  
  24358739.816     -431586.758        2264.083          34.000  
  22882181.894     -207092.2043       1727.940          27.000  
  24080802.712    -2667597.191        1752.714          34.000  
  25429565.884      446690.5353      -1931.576          17.000  
  25094826.384     -530382.1063       2530.864          16.000  
 15  4  3 20 24  6.0010000  0 12G 3G23G16G 9G 7G32G20G30G10G27G 6G19
  22267362.753     9069020.4593      -3428.777          23.000  
  20590331.442    -1196666.415        -155.886          43.000  
  21474208.144      475456.6473      -2076.337          26.000  
  21160740.879    -3039021.0153       1374.821          25.000  
  22088679.119     -315354.4153       1280.803          11.000  
  25840502.946      908899.0513      -3801.677          20.000  
  24713581.897     -543898.6733       2559.530          15.000  
  24358308.272     -433850.309        2262.650          34.000  
  22881854.284     -208820.1223       1726.511          25.000  
  24080469.081    -2669351.621        1754.096          34.000  
  25429934.031      448631.8273      -1948.424          14.000  
  25094344.741     -532915.7213       2535.155          15.000  
 15  4  3 20 24  7.0010000  0 12G 3G23G16G 9G 7G32G20G30G10G27G 6G19
  22268015.303     9072449.8793      -3431.793          22.000  
  20590361.282    -1196510.042        -156.680          43.000  
  21474604.753      477533.4013      -2077.234          26.000  
  21160478.637    -3040396.0213       1375.839          26.000  
  22088432.722     -316638.4763       1283.515          12.000  
  25841224.600      912695.4203      -3796.677          20.000  
  24713095.071     -546445.9453       2534.956          14.000  
  24357877.444     -436113.604        2263.015          33.000  
  22881524.684     -210547.0073       1728.135          25.000  
  24080135.311    -2671105.745        1754.050          33.000  
  25430301.969      450572.1503      -1947.546          13.000  
  25093861.562     -535447.7403       2525.489          16.000  
 15  4  3 20 24  8.0010000  0 12G 3G23G16G 9G 7G32G20G30G10G27G 6G19
  22268666.179     9075880.8023      -3436.898          22.000  
  20590390.685    -1196353.280        -157.015          42.000  
  21475001.658      479610.6923      -2076.458          26.000  
  21160217.320    -3041770.8033       1373.140          26.000  
  22088182.346     -317932.2263       1294.007          15.000  
  25841948.191      916492.7683      -3789.632          22.000  
  24712610.304     -548989.8543       2576.017          13.000  
  24357445.882     -438376.734        2262.409          33.000  
  22881195.747     -212273.9993       1726.246          24.000  
  24079801.750    -2672859.546        1754.213          33.000  
  25430672.891      452514.5213      -1939.985          14.000  
  25093376.777     -537977.1193       2548.096          16.000  
 15  4  3 20 24  9.0010000  0 12G 3G23G16G 9G 7G32G20G30G10G27G 6G19
  22269320.161     9079312.1253      -3428.858          22.000  
  20590420.560    -1196196.192        -156.660          42.000  
  21475398.790      481688.4533      -2078.574          27.000  
  21159956.596    -3043145.4563       1374.039          27.000  
  22087913.246     -319226.4593       1303.327          18.000  
  25842670.996      920290.0513      -3796.458          22.000  
  24712120.127     -551563.1203       2558.700          12.000  
  24357014.949     -440639.846        2262.747          34.000  
  22880865.520     -214000.3103       1726.717          25.000  
  24079467.770    -2674613.174        1754.561          33.000  
  25431040.951      454452.7253      -1954.098          15.000  
  25092889.654     -540516.6503       2544.987          16.000  
 15  4  3 20 24 10.0010000  0 12G 3G23G16G 9G 7G32G20G30G10G27G 6G19
  22269972.101     9082743.2653      -3432.751          22.000  
  20590450.348    -1196038.862        -158.425          42.000  
  21475793.217      483766.7213      -2078.047          27.000  
  21159695.139    -3044519.8803       1374.745          27.000  
  22087653.640     -320524.3033       1295.801          21.000  
  25843394.848      924091.2693      -3797.134          21.000  
  24711633.022     -554111.6553       2542.272          12.000  
  24356584.644     -442902.806        2263.394          34.000  
  22880537.822     -215726.2623       1724.645          25.000  
  24079133.878    -2676366.593        1752.231          32.000  
  25431412.448      456401.1313      -1932.534          16.000  
  25092405.952     -543058.7593       2532.976          17.000  
 15  4  3 20 24 11.0010000  0 11G 3G23G16G 9G 7G32G30G10G27G 6G19
  22270628.666     9086174.6663      -3428.155          23.000  
  20590480.903    -1195881.073        -158.382          43.000  
  21476186.214      485845.5973      -2079.752          26.000  
  21159433.665    -3045894.0413       1373.932          29.000  
  22087404.608     -321819.7093       1296.048          25.000  
  25844117.078      927889.7813      -3797.564          22.000  
  24356154.427     -445165.618        2262.690          34.000  
  22880207.402     -217451.6893       1725.250          26.000  
  24078801.207    -2678119.731        1753.861          32.000  
  25431783.545      458339.8313      -1968.033          15.000  
  25091921.481     -545600.2013       2530.647          19.000  
 15  4  3 20 24 12.0010000  0 11G 3G23G16G 9G 7G32G30G10G27G 6G19
  22271282.700     9089607.5173      -3426.466          24.000  
  20590511.127    -1195722.746        -158.100          43.000  
  21476581.793      487925.2143      -2079.262          26.000  
  21159172.540    -3047267.8023       1373.626          29.000  
  22087142.819     -323115.4743       1295.463          26.000  
  25844841.210      931690.6233      -3792.969          22.000  
  24355724.314     -447428.116        2263.308          34.000  
  22879877.279     -219176.3963       1724.717          26.000  
  24078467.838    -2679872.373        1750.493          33.000  
  25432154.851      460297.3733      -1936.783          13.000  
  25091439.087     -548138.5313       2541.725          20.000  
 15  4  3 20 24 13.0010000  0 11G 3G23G16G 9G 7G32G30G10G27G 6G19
  22271934.989     9093039.4713      -3419.417          25.000  
  20590541.350    -1195564.229        -159.160          43.000  
  21476977.407      490005.3623      -2079.892          27.000  
  21158912.061    -3048641.4973       1373.218          29.000  
  22086906.107     -324411.1283       1295.320          27.000  
  25845562.113      935487.3833      -3805.771          22.000  
  24355294.480     -449690.603        2261.165          35.000  
  22879551.047     -220901.1263       1724.633          26.000  
  24078133.946    -2681624.924        1752.288          33.000  
  25432524.533      462247.8533      -1942.999          14.000  
  25090956.100     -550673.0853       2549.833          20.000  
 15  4  3 20 24 14.0010000  0 11G 3G23G16G 9G 7G32G30G10G27G 6G19
  22272588.569     9096471.2443      -3431.345          26.000  
  20590571.504    -1195405.328        -159.481          43.000  
  21477372.427      492086.0183      -2081.536          27.000  
  21158648.510    -3050014.8153       1373.095          29.000  
  22086659.937     -325706.4703       1294.823          27.000  
  25846283.889      939287.0263      -3796.011          22.000  
  24354864.210     -451952.979        2261.641          35.000  
  22879220.871     -222624.8503       1722.059          24.000  
  24077800.664    -2683377.136        1752.538          33.000  
  25432893.501      464184.9983      -1923.179          13.000  
  25090473.480     -553214.9763       2534.346          20.000  
 15  4  3 20 24 15.0010000  0 11G 3G23G16G 9G 7G32G30G10G27G 6G19
  22273243.895     9099903.9443      -3431.569          27.000  
  20590601.850    -1195245.969        -158.920          43.000  
  21477765.476      494167.4343      -2080.455          26.000  
  21158386.949    -3051387.8843       1373.684          29.000  
  22086418.880     -327001.5103       1295.252          28.000  
  25847006.852      943084.4403      -3793.786          22.000  
  24354434.167     -454215.144        2260.653          35.000  
  22878892.772     -224346.9003       1723.984          22.000  
  24077466.859    -2685129.101        1750.625          33.000  
  25433264.091      466123.1013      -1936.457          14.000  
  25089990.178     -555758.3263       2545.290          20.000  
 15  4  3 20 24 16.0010000  0 11G 3G23G16G 9G 7G32G30G10G27G 6G19
  22273900.197     9103336.8853      -3433.514          26.000  
  20590632.510    -1195086.349        -159.563          43.000  
  21478159.327      496249.2813      -2082.257          27.000  
  21158124.533    -3052760.8593       1372.181          29.000  
  22086174.542     -328296.4993       1295.657          29.000  
  25847727.266      946881.2713      -3802.355          22.000  
  24354004.438     -456477.295        2260.265          35.000  
  22878565.162     -226070.2463       1714.520          22.000  
  24077133.490    -2686880.875        1751.733          33.000  
  25433633.442      468057.1963      -1920.877          15.000  
  25089508.866     -558293.9333       2542.464          21.000  
 15  4  3 20 24 17.0010000  0 10G 3G23G16G 9G 7G32G30G10G27G19
  22274554.965     9106770.2533      -3434.031          26.000  
  20590663.048    -1194926.329        -160.630          43.000  
  21478557.367      498331.7503      -2081.903          27.000  
  21157867.945    -3054133.4683       1377.776          30.000  
  22085925.004     -329591.1733       1294.873          29.000  
  25848453.893      950678.1713      -3804.288          22.000  
  24353574.447     -458739.157        2261.625          35.000  
  22878235.667     -227789.3553       1716.519          22.000  
  24076799.353    -2688632.353        1751.417          33.000  
  25089026.787     -560830.5773       2531.087          20.000  
 15  4  3 20 24 18.0010000  0 10G 3G23G16G 9G 7G32G30G10G27G19
  22275207.358     9110203.9183      -3433.606          26.000  
  20590693.586    -1194765.891        -160.904          43.000  
  21478952.736      500414.8253      -2081.657          26.000  
  21157610.641    -3055505.8803       1373.226          31.000  
  22085686.686     -330885.7023       1294.759          29.000  
  25849177.868      954477.0753      -3803.450          23.000  
  24353144.823     -461000.937        2261.345          35.000  
  22877907.725     -229509.6593       1716.761          22.000  
  24076465.583    -2690383.440        1753.353          33.000  
  25088544.986     -563372.5773       2533.516          20.000  
 15  4  3 20 24 19.0010000  0 11G 3G23G16G 9G 7G32G30G10G27G 6G19
  22275860.014     9113637.8373      -3434.196          26.000  
  20590723.932    -1194605.160        -161.087          43.000  
  21479346.186      502498.4303      -2082.877          26.000  
  21157344.525    -3056878.0772       1372.966          31.000  
  22085434.146     -332180.0683       1294.587          30.000  
  25849899.522      958275.8763      -3793.609          22.000  
  24352714.622     -463262.588        2261.892          36.000  
  22877580.481     -231229.9833       1731.674          21.000  
  24076130.975    -2692134.460        1750.228          33.000  
  25434748.860      473880.0613      -1939.953          12.000  
  25088063.168     -565910.4093       2529.441          22.000  
 15  4  3 20 24 20.0010000  0 11G 3G23G16G 9G 7G32G30G10G27G 6G19
  22276513.734     9117072.1243      -3433.365          26.000  
  20590754.418    -1194443.996        -161.758          43.000  
  21479740.718      504582.7403      -2086.119          25.000  
  21157088.496    -3058249.9832       1371.243          30.000  
  22085188.953     -333474.0203       1291.941          31.000  
  25850623.357      962077.0833      -3799.622          22.000  
  24352284.248     -465524.038        2262.821          36.000  
  22877250.236     -232949.9063       1726.542          22.000  
  24075797.414    -2693885.037        1750.012          32.000  
  25435118.840      475823.3193      -1953.919          13.000  
  25087578.663     -568447.4813       2550.445          22.000  
 15  4  3 20 24 21.0010000  0 12G 3G23G16G 9G 7G32G20G30G10G27G 6G19
  22277168.065     9120506.6143      -3435.116          26.000  
  20590784.816    -1194282.495        -161.355          43.000  
  21480137.728      506667.5553      -2085.189          26.000  
  21156823.584    -3059621.7042       1373.144          31.000  
  22084938.264     -334767.9162       1295.156          31.000  
  25851347.471      965876.0213      -3796.620          22.000  
  24706328.295     -582216.2283       2555.809          20.000  
  24351854.379     -467785.437        2261.492          36.000  
  22876923.062     -234670.7773       1721.315          22.000  
  24075463.713    -2695635.476        1748.746          32.000  
  25435489.465      477769.6373      -1946.757          13.000  
  25087094.158     -570987.6543       2545.092          22.000  
 15  4  3 20 24 22.0010000  0 12G 3G23G16G 9G 7G32G20G30G10G27G 6G19
  22277823.146     9123941.4193      -3434.381          26.000  
  20590815.930    -1194120.723        -161.881          43.000  
  21480537.827      508752.8753      -2086.267          27.000  
  21156561.796    -3060993.2522       1369.489          31.000  
  22084693.385     -336061.7823       1291.084          30.000  
  25852069.736      969672.8573      -3794.812          21.000  
  24705838.851     -584772.1253       2558.551          20.000  
  24351424.004     -470046.736        2260.688          36.000  
  22876598.453     -236392.1253       1722.883          23.000  
  24075130.676    -2697385.652        1750.168          31.000  
  25435860.806      479716.6393      -1961.066          13.000  
  25086609.495     -573529.5203       2541.167          22.000  
 15  4  3 20 24 23.0010000  0 12G 3G23G16G 9G 7G32G20G30G10G27G 6G19
  22278478.419     9127376.5783      -3435.177          26.000  
  20590846.851    -1193958.412        -162.440          43.000  
  21480935.866      510838.9193      -2087.229          28.000  
  21156300.182    -3062364.3532       1371.821          32.000  
  22084444.178     -337355.1583       1293.656          29.000  
  25852791.930      973473.1503      -3792.840          21.000  
  24705356.911     -587321.0963       2552.760          20.000  
  24350993.926     -472307.771        2260.744          36.000  
  22876270.371     -238110.0163       1727.387          22.000  
  24074797.080    -2699134.8953       1749.878          30.000  
  25436232.670      481670.6783      -1947.939          13.000  
  25086124.606     -576066.2683       2543.061          22.000  
 15  4  3 20 24 24.0010000  0 12G 3G23G16G 9G 7G32G20G30G10G27G 6G19
  22279133.727     9130812.3153      -3434.982          27.000  
  20590877.930    -1193795.520        -162.786          43.000  
  21481335.110      512925.8143      -2086.639          28.000  
  21156040.017    -3063735.0152       1369.914          33.000  
  22084198.322     -338648.2393       1293.988          29.000  
  25853514.998      977267.7853      -3808.304          21.000  
  24704871.621     -589871.8363       2553.215          20.000  
  24350563.656     -474568.416        2258.809          36.000  
  22875943.232     -239830.6323       1718.446          23.000  
  24074464.304    -2700884.1423       1747.981          30.000  
  25436600.695      483597.2143      -1925.061          10.000  
  25085641.026     -578606.7823       2535.035          23.000  
 15  4  3 20 24 25.0010000  0 12G 3G23G16G 9G 7G32G20G30G10G27G 6G19
  22279787.849     9134248.3583      -3437.092          26.000  
  20590909.219    -1193632.158        -163.589          43.000  
  21481733.167      515013.2363      -2087.821          28.000  
  21155780.078    -3065105.862        1369.305          33.000  
  22083952.867     -339941.0032       1293.347          30.000  
  25854239.094      981067.0743      -3805.155          21.000  
  24704383.817     -592425.6713       2548.334          20.000  
  24350133.979     -476828.804        2262.004          36.000  
  22875614.766     -241549.0863       1718.469          23.000  
  24074131.232    -2702633.0883       1748.259          30.000  
  25436968.580      485534.2373      -1942.738          11.000  
  25085157.114     -581141.1833       2540.598          23.000  
 15  4  3 20 24 26.0010000  0 12G 3G23G16G 9G 7G32G20G30G10G27G 6G19
  22280442.319     9137684.7023      -3436.970          26.000  
  20590940.821    -1193468.505        -163.478          43.000  
  21482130.072      517101.3403      -2088.815          27.000  
  21155519.198    -3066476.018        1369.391          33.000  
  22083706.435     -341233.6883       1292.665          29.000  
  25854961.254      984866.3503      -3804.494          22.000  
  24703897.585     -594980.8693       2557.234          21.000  
  24349703.570     -479089.195        2259.047          36.000  
  22875289.878     -243265.8203       1718.074          23.000  
  24073797.898    -2704381.7573       1749.318          30.000  
  25437335.192      487473.9273      -1928.787          11.000  
  25084674.545     -583679.5493       2539.747          22.000  
 15  4  3 20 24 27.0010000  0 12G 3G23G16G 9G 7G32G20G30G10G27G 6G19
  22281096.266     9141121.2763      -3437.656          26.000  
  20590972.859    -1193304.483        -164.387          43.000  
  21482527.658      519189.9633      -2087.963          28.000  
  21155258.038    -3067845.979        1369.562          33.000  
  22083460.265     -342525.9103       1293.068          28.000  
  25855684.531      988661.5163      -3799.490          22.000  
  24703412.154     -597534.6123       2554.417          21.000  
  24349273.108     -481349.342        2260.090          35.000  
  22874961.954     -244981.1263       1706.610          23.000  
  24073464.180    -2706130.3273       1744.995          30.000  
  25437705.503      489416.9813      -1960.037           9.000  
  25084192.134     -586218.3993       2537.323          22.000  
 15  4  3 20 24 28.0010000  0 12G 3G23G16G 9G 7G32G20G30G10G27G 6G19
  22281749.654     9144558.2413      -3437.126          27.000  
  20591004.148    -1193140.067        -164.504          43.000  
  21482923.847      521279.1463      -2090.102          28.000  
  21154998.152    -3069215.610        1370.286          33.000  
  22083213.571     -343818.2353       1291.824          28.000  
  25856406.987      992460.7963      -3795.908          23.000  
  24702924.473     -600087.6483       2552.449          22.000  
  24348842.541     -483609.427        2259.430          36.000  
  22874633.331     -246696.2713       1714.311          23.000  
  24073131.038    -2707878.3723       1749.322          30.000  
  25438080.055      491382.6873      -1967.149           8.000  
  25083707.664     -588757.4493       2524.407          22.000  
 15  4  3 20 24 29.0010000  0 12G 3G23G16G 9G 7G32G20G30G10G27G 6G19
  22282405.172     9147995.3413      -3437.964          27.000  
  20591035.785    -1192975.423        -165.251          43.000  
  21483319.095      523368.8303      -2090.414          28.000  
  21154737.742    -3070585.166        1370.686          34.000  
  22082966.930     -345110.3533       1290.157          28.000  
  25857129.863      996257.3593      -3800.068          22.000  
  24702436.356     -602638.7663       2551.102          22.000  
  24348412.428     -485869.457        2261.728          36.000  
  22874309.333     -248410.3863       1715.488          22.000  
  24072797.756    -2709626.4643       1748.339          30.000  
  25438452.180      493349.8523      -1967.149           7.000  
  25083228.376     -591295.0413       2543.660          21.000  
 15  4  3 20 24 30.0010000  0 12G 3G23G16G 9G 7G32G20G30G10G27G 6G19
  22283060.916     9151432.7003      -3436.320          26.000  
  20591067.230    -1192810.459        -164.969          44.000  
  21483715.860      525459.0703      -2091.356          28.000  
  21154477.158    -3071954.512        1370.489          34.000  
  22082720.114     -346402.7563       1291.579          28.000  
  25857852.302     1000056.5953      -3799.166          23.000  
  24701950.891     -605189.1603       2558.511          22.000  
  24347981.984     -488129.379        2259.864          35.000  
  22873985.003     -250122.6563       1704.446          21.000  
  24072464.492    -2711374.2622       1748.146          31.000  
  25438826.296      495317.0083      -1967.149           7.000  
  25082741.969     -593835.4953       2539.928          22.000  
 15  4  3 20 24 31.0010000  0 12G 3G23G16G 9G 7G32G20G30G10G27G 6G19
  22283716.765     9154869.8043      -3439.006          26.000  
  20591098.902    -1192644.955        -165.311          44.000  
  21484115.261      527550.1223      -2091.069          27.000  
  21154216.975    -3073323.461        1369.967          34.000  
  22082473.717     -347694.2323       1290.505          27.000  
  25858576.782     1003856.1593      -3799.416          23.000  
  24701466.455     -607739.2123       2542.037          23.000  
  24347551.208     -490389.055        2258.367          35.000  
  22873659.138     -251843.0563       1721.720          20.000  
  24072131.873    -2713121.6202       1744.399          31.000  
  25439197.724      497267.2583      -1947.358           7.000  
  25082259.837     -596372.3713       2531.186          23.000  
 15  4  3 20 24 32.0010000  0 12G 3G23G16G 9G 7G32G20G30G10G27G 6G19
  22284368.094     9158307.9303      -3438.977          25.000  
  20591131.046    -1192479.144        -165.796          44.000  
  21484513.056      529641.5783      -2092.002          29.000  
  21153956.548    -3074692.202        1369.263          34.000  
  22082226.779     -348985.6643       1290.913          27.000  
  25859302.258     1007655.5483      -3807.335          22.000  
  24700978.791     -610287.0483       2551.060          23.000  
  24347120.048     -492648.565        2260.823          35.000  
  22873332.104     -253555.5083       1716.482          21.000  
  24071799.028    -2714868.8112       1747.106          31.000  
  25439566.604      499213.6673      -1945.369           9.000  
  25081775.506     -598912.1833       2541.000          23.000  
 15  4  3 20 24 33.0010000  0 12G 3G23G16G 9G 7G32G20G30G10G27G 6G19
  22285023.664     9161746.1653      -3440.090          25.000  
  20591162.683    -1192312.995        -166.747          44.000  
  21484911.323      531733.5743      -2093.357          28.000  
  21153696.400    -3076060.818        1368.008          34.000  
  22081979.248     -350276.9533       1290.981          26.000  
  25860025.028     1011453.3723      -3800.742          22.000  
  24700491.407     -612839.9883       2555.844          23.000  
  24346690.005     -494908.032        2259.623          34.000  
  22873003.917     -255272.7653       1725.356          22.000  
  24071466.793    -2716615.7362       1747.024          31.000  
  25439936.077      501158.0783      -1943.379           9.000  
  25081290.372     -601452.0913       2534.814          23.000  
 15  4  3 20 24 34.0010000  0 12G 3G23G16G 9G 7G32G20G30G10G27G 6G19
  22285681.363     9165184.9163      -3438.685          25.000  
  20591194.756    -1192146.333        -166.620          44.000  
  21485309.763      533826.4143      -2091.655          27.000  
  21153436.113    -3077428.4903       1368.803          34.000  
  22081732.990     -351567.9083       1290.691          26.000  
  25860749.282     1015252.1483      -3805.120          21.000  
  24700006.081     -615391.0103       2557.804          23.000  
  24346259.560     -497167.179        2260.166          35.000  
  22872678.314     -256982.3523       1709.165          21.000  
  24071134.436    -2718362.2452       1746.474          31.000  
  25440305.236      503098.6523      -1939.220           9.000  
  25080805.797     -603991.7483       2536.525          22.000  
 15  4  3 20 24 35.0010000  0 12G 3G23G16G 9G 7G32G20G30G10G27G 6G19
  22286334.402     9168623.9573      -3438.993          24.000  
  20591226.114    -1191979.293        -167.018          44.000  
  21485705.517      535913.1223      -2095.322          25.000  
  21153176.105    -3078796.4012       1366.663          35.000  
  22081486.558     -352858.6403       1290.127          25.000  
  25861472.192     1019052.8563      -3795.028          22.000  
  24699520.058     -617939.2803       2553.965          23.000  
  24345828.679     -499426.184        2259.091          34.000  
  22872351.419     -258691.5963       1712.849          20.000  
  24070802.167    -2720108.3922       1745.709          32.000  
  25440671.586      505036.8053      -1936.999           9.000  
  25080322.950     -606530.1683       2543.022          22.000  
 15  4  3 20 24 36.0010000  0 12G 3G23G16G 9G 7G32G20G30G10G27G 6G19
  22286989.937     9172063.9843      -3441.963          22.000  
  20591258.415    -1191812.042        -167.266          44.000  
  21486103.486      538008.7243      -2094.647          24.000  
  21152916.009    -3080164.2062       1367.013          35.000  
  22081239.533     -354149.3513       1291.419          25.000  
  25862193.724     1022847.7383      -3798.716          22.000  
  24699033.319     -620486.6013       2553.268          23.000  
  24345398.968     -501685.218        2258.947          34.000  
  22872024.855     -260405.3123       1722.813          20.000  
  24070469.932    -2721854.6062       1744.934          31.000  
  25441041.025      506972.7373      -1934.777           9.000  
  25079838.863     -609070.9443       2537.481          22.000  
 15  4  3 20 24 37.0010000  0 12G 3G23G16G 9G 7G32G20G30G10G27G 6G19
  22287645.402     9175503.5133      -3438.238          23.000  
  20591290.663    -1191644.520        -168.090          44.000  
  21486502.521      540102.8483      -2094.335          27.000  
  21152655.704    -3081531.8692       1369.979          35.000  
  22080994.706     -355439.9763       1290.989          26.000  
  25862914.121     1026643.6903      -3788.670          22.000  
  24698551.658     -623035.9473       2550.854          23.000  
  24344969.762     -503944.199        2260.150          34.000  
  22871702.323     -262113.9273       1714.270          19.000  
  24070137.959    -2723600.5153       1745.132          29.000  
  25441410.917      508914.0023      -1941.401           9.000  
  25079357.778     -611611.6493       2545.432          24.000  
 15  4  3 20 24 38.0010000  0 12G 3G23G16G 9G 7G32G20G30G10G27G 6G19
  22288303.468     9178941.3633      -3440.573          24.000  
  20591323.120    -1191476.623        -168.202          44.000  
  21486901.764      542197.7163      -2094.372          27.000  
  21152395.452    -3082899.2972       1367.619          34.000  
  22080749.827     -356730.3563       1290.671          27.000  
  25863635.723     1030439.6173      -3796.291          22.000  
  24698069.037     -625585.5523       2538.235          23.000  
  24344540.260     -506203.047        2258.783          35.000  
  22871376.283     -263829.1063       1710.327          19.000  
  24069805.986    -2725346.2143       1746.205          29.000  
  25441780.984      510854.7653      -1940.071          15.000  
  25078873.866     -614153.8693       2538.318          24.000  
 15  4  3 20 24 39.0010000  0 12G 3G23G16G 9G 7G32G20G30G10G27G 6G19
  22288958.112     9182378.7153      -3439.971          24.000  
  20591355.019    -1191308.282        -169.027          44.000  
  21487301.287      544293.1113      -2095.717          26.000  
  21152135.792    -3084266.4692       1366.263          35.000  
  22080503.710     -358020.5733       1289.238          27.000  
  25864360.064     1034238.0213      -3791.625          22.000  
  24697583.310     -628135.5873       2544.645          23.000  
  24344110.601     -508461.671        2258.300          35.000  
  22871051.482     -265541.2473       1711.844          21.000  
  24069474.275    -2727091.5933       1742.398          30.000  
  25442149.393      512794.2033      -1938.740          15.000  
  25078391.263     -616695.2473       2535.006          25.000  
 15  4  3 20 24 40.0010000  0 12G 3G23G16G 9G 7G32G20G30G10G27G 6G19
  22289612.234     9185817.9083      -3427.255          22.000  
  20591386.918    -1191139.630        -168.719          44.000  
  21487699.379      546389.1493      -2096.157          26.000  
  21151875.575    -3085633.4112       1367.026          35.000  
  22080260.680     -359310.5713       1290.238          27.000  
  25865083.061     1038030.0973      -3798.979          22.000  
  24697099.049     -630685.5173       2545.371          22.000  
  24343681.290     -510720.245        2258.146          35.000  
  22870725.896     -267248.5833       1703.562          21.000  
  24069142.599    -2728836.6533       1744.465          30.000  
  25442522.409      514736.0923      -1941.843          15.000  
  25077909.026     -619233.9713       2549.097          25.000  
 15  4  3 20 24 41.0010000  0 12G 3G23G16G 9G 7G32G20G30G10G27G 6G19
  22290268.938     9189255.6733      -3437.801          21.000  
  20591419.027    -1190970.562        -169.532          44.000  
  21488097.069      548485.3093      -2096.685          25.000  
  21151615.549    -3086999.9962       1367.141          35.000  
  22080017.738     -360600.2613       1289.723          28.000  
  25865807.228     1041827.0333      -3797.765          22.000  
  24696617.842     -633228.1993       2551.163          21.000  
  24343252.486     -512978.588        2258.104          35.000  
  22870401.688     -268953.1923       1710.194          20.000  
  24068810.922    -2730581.4223       1745.375          29.000  
  25442892.510      516677.5213      -1940.964          15.000  
  25077424.137     -621774.8263       2541.994          25.000  
 15  4  3 20 24 42.0010000  0 12G 3G23G16G 9G 7G32G20G30G10G27G 6G19
  22290924.665     9192695.9873      -3455.156          19.000  
  20591451.711    -1190801.126        -169.557          44.000  
  21488493.678      550582.6963      -2097.390          24.000  
  21151354.721    -3088366.3902       1366.768          35.000  
  22079772.371     -361889.8373       1289.429          28.000  
  25866528.794     1045624.0363      -3795.641          22.000  
  24696130.161     -635775.0163       2544.852          21.000  
  24342823.595     -515236.795        2259.387          36.000  
  22870078.039     -270665.7493       1701.604          19.000  
  24068479.176    -2732325.9343       1749.273          29.000  
  25443260.448      518618.0733      -1940.085          15.000  
  25076941.865     -624316.5673       2538.377          25.000  
 15  4  3 20 24 43.0010000  0 12G 3G23G16G 9G 7G32G20G30G10G27G 6G19
  22291583.794     9196136.7403      -3446.695          20.000  
  20591483.697    -1190631.445        -169.875          44.000  
  21488891.735      552680.3083      -2098.264          24.000  
  21151095.428    -3089733.203        1365.640          35.000  
  22079527.579     -363179.3643       1288.294          29.000  
  25867252.821     1049421.2023      -3802.944          22.000  
  24695644.225     -638321.1493       2551.706          22.000  
  24342394.494     -517495.004        2258.855          36.000  
  22869751.301     -272375.7583       1700.629          18.000  
  24068147.256    -2734070.3122       1743.975          30.000  
  25443632.679      520569.0333      -1952.421          15.000  
  25076454.952     -626857.9223       2540.578          26.000  
 15  4  3 20 24 44.0010000  0 12G 3G23G16G 9G 7G32G20G30G10G27G 6G19
  22292241.162     9199578.5113      -3436.721          19.000  
  20591516.312    -1190461.322        -170.238          44.000  
  21489288.797      554779.1723      -2098.114          25.000  
  21150835.420    -3091099.144        1366.102          35.000  
  22079283.712     -364468.5623       1289.035          29.000  
  25867974.178     1053217.7033      -3796.484          23.000  
  24695160.854     -640868.7513       2548.790          22.000  
  24341965.271     -519752.999        2257.234          36.000  
  22869427.739     -274079.5203       1699.346          18.000  
  24067815.527    -2735814.3283       1745.434          29.000  
  25444002.449      522521.6813      -1952.873           7.000  
  25075970.482     -629398.1573       2538.860          26.000  
 15  4  3 20 24 45.0010000  0 12G 3G23G16G 9G 7G32G20G30G10G27G 6G19
  22292896.504     9203019.0003      -3441.699          20.000  
  20591548.333    -1190291.065        -170.383          44.000  
  21489687.814      556877.8293      -2097.155          24.000  
  21150576.040    -3092465.095        1366.596          35.000  
  22079040.945     -365757.5243       1289.966          31.000  
  25868696.321     1057014.5903      -3797.955          22.000  
  24694675.755     -643417.0473       2538.552          21.000  
  24341536.118     -522011.062        2258.980          36.000  
  22869103.671     -275791.4173       1691.593          17.000  
  24067483.118    -2737558.3482       1743.802          30.000  
  25444371.748      524474.7873      -1953.325           7.000  
  25075488.594     -631938.7833       2540.399          26.000  
 15  4  3 20 24 46.0010000  0 12G 3G23G16G 9G 7G32G20G30G10G27G 6G19
  22293552.825     9206459.8563      -3442.786          21.000  
  20591581.244    -1190120.320        -171.247          44.000  
  21490089.169      558977.2723      -2100.003          24.000  
  21150315.962    -3093830.711        1365.736          35.000  
  22078799.085     -367046.4293       1288.621          30.000  
  25869418.550     1060810.9213      -3788.779          22.000  
  24694191.616     -645962.0183       2543.101          20.000  
  24341106.563     -524268.867        2257.425          36.000  
  22868778.748     -277494.6453       1709.332          16.000  
  24067151.005    -2739301.8493       1742.887          30.000  
  25444740.611      526424.5743      -1949.361           7.000  
  25075008.032     -634479.4023       2540.023          26.000  
 15  4  3 20 24 47.0010000  0 12G 3G23G16G 9G 7G32G20G30G10G27G 6G19
  22294206.894     9209903.2113      -3445.814          20.000  
  20591613.701    -1189949.129        -171.494          44.000  
  21490488.360      561077.4243      -2098.616          24.000  
  21150055.744    -3095195.942        1367.048          35.000  
  22078553.875     -368335.0972       1291.338          31.000  
  25870142.996     1064611.1223      -3790.644          22.000  
  24693709.816     -648508.2593       2548.618          19.000  
  24340677.096     -526526.478        2258.138          37.000  
  22868458.432     -279185.1323       1672.821          14.000  
  24066819.085    -2741045.1643       1741.872          30.000  
  25445108.932      528373.9513      -1949.361           7.000  
  25074525.063     -637019.9333       2540.761          26.000  
 15  4  3 20 24 48.0010000  0 12G 3G23G16G 9G 7G32G20G30G10G27G 6G19
  22294862.900     9213345.8423      -3448.979          19.000  
  20591645.845    -1189777.646        -171.869          44.000  
  21490885.335      563177.9203      -2099.922          23.000  
  21149795.736    -3096561.077        1365.285          35.000  
  22078305.610     -369623.6903       1286.814          31.000  
  25870864.545     1068408.6903      -3799.203          21.000  
  24693225.572     -651051.3493       2550.690          19.000  
  24340247.384     -528784.006        2257.249          37.000  
  22868134.294     -280872.4143       1708.207          14.000  
  24066488.368    -2742788.2072       1739.932          30.000  
  25445480.099      530323.3213      -1949.361           7.000  
  25074039.824     -639560.7563       2540.094          26.000  
 15  4  3 20 24 49.0010000  0 12G 3G23G16G 9G 7G32G20G30G10G27G 6G19
  22295518.522     9216785.8683      -3440.473          19.000  
  20591678.738    -1189605.744        -171.971          44.000  
  21491284.055      565278.8913      -2101.759          22.000  
  21149536.862    -3097925.926        1364.421          36.000  
  22078061.395     -370911.9522       1287.693          31.000  
  25871586.862     1072203.6453      -3790.243          20.000  
  24692738.327     -653596.4693       2558.417          20.000  
  24339817.777     -531041.360        2257.304          36.000  
  22867806.667     -282580.0083       1703.777          18.000  
  24066156.186    -2744530.9162       1746.190          30.000  
  25445848.403      532265.1813      -1940.570           7.000  
  25073556.000     -642101.5823       2540.097          26.000  
 15  4  3 20 24 50.0010000  0 12G 3G23G16G 9G 7G32G20G30G10G27G 6G19
  22296176.465     9220230.1053      -3436.186          18.000  
  20591711.370    -1189433.685        -172.672          44.000  
  21491686.422      567380.2603      -2101.509          23.000  
  21149277.133    -3099290.666        1365.210          36.000  
  22077815.381     -372200.2672       1288.401          31.000  
  25872308.062     1075999.0123      -3798.016          20.000  
  24692255.393     -656141.1183       2544.685          21.000  
  24339387.664     -533298.796        2257.319          36.000  
  22867480.679     -284282.4813       1702.121          18.000  
  24065824.283    -2746273.5633       1746.996          29.000  
  25446215.608      534205.3343      -1939.691          16.000  
  25073071.512     -644642.6523       2542.363          26.000  
 15  4  3 20 24 51.0010000  0 12G 3G23G16G 9G 7G32G20G30G10G27G 6G19
  22296829.941     9223670.0813      -3453.883          17.000  
  20591743.775    -1189261.206        -172.515          44.000  
  21492085.735      569482.4783      -2103.526          24.000  
  21149017.892    -3100655.171        1364.643          36.000  
  22077570.764     -373488.3242       1288.014          31.000  
  25873035.247     1079796.2463      -3792.555          21.000  
  24691772.597     -658681.2003       2539.759          20.000  
  24338958.459     -535556.008        2257.632          36.000  
  22867156.524     -285980.8243       1696.457          17.000  
  24065492.764    -2748016.0293       1741.116          28.000  
  25446583.005      536145.9093      -1949.790          11.000  
  25072587.582     -647183.7553       2539.684          26.000  
 15  4  3 20 24 52.0010000  0 12G 3G23G16G 9G 7G32G20G30G10G27G 6G19
  22297485.179     9227115.3033      -3442.327          17.000  
  20591776.163    -1189088.270        -173.540          43.000  
  21492486.130      571585.3623      -2102.259          24.000  
  21148758.547    -3102019.300        1364.669          36.000  
  22077326.199     -374776.0342       1286.039          31.000  
  25873757.477     1083590.4573      -3793.206          21.000  
  24691291.006     -661224.2453       2535.644          19.000  
  24338528.468     -537813.001        2256.115          36.000  
  22866832.683     -287682.8333       1693.294          17.000  
  24065160.860    -2749757.9663       1740.030          28.000  
  25446952.216      538096.6253      -1944.442          15.000  
  25072104.333     -649724.8493       2540.602          26.000  
 15  4  3 20 24 53.0010000  0 12G 3G23G16G 9G 7G32G20G30G10G27G 6G19
  22298139.370     9230561.8853      -3445.433          18.000  
  20591809.004    -1188915.031        -172.880          44.000  
  21492888.829      573689.2473      -2104.531          24.000  
  21148498.975    -3103383.301        1364.190          37.000  
  22077081.478     -376063.6193       1289.536          31.000  
  25874481.539     1087388.3753      -3801.572          21.000  
  24690809.101     -663767.0473       2524.110          18.000  
  24338098.669     -540069.955        2257.182          36.000  
  22866510.778     -289382.9493       1705.768          18.000  
  24064830.091    -2751499.7973       1740.075          28.000  
  25447323.540      540047.4693      -1949.879          17.000  
  25071618.572     -652266.0663       2540.577          26.000  
 15  4  3 20 24 54.0010000  0 12G 3G23G16G 9G 7G32G20G30G10G27G 6G19
  22298794.434     9234005.3973      -3438.029          19.000  
  20591842.299    -1188741.531        -173.552          43.000  
  21493289.940      575793.0123      -2103.909          24.000  
  21148239.839    -3104747.153        1364.247          37.000  
  22076836.738     -377351.2312       1286.848          31.000  
  25875204.257     1091185.7853      -3803.474          20.000  
  24690326.952     -666305.1853       2542.161          18.000  
  24337668.608     -542326.852        2258.003          35.000  
  22866185.472     -291085.0763       1699.173          19.000  
  24064499.200    -2753241.6823       1742.540          27.000  
  25447692.856      541995.2653      -1949.770          18.000  
  25071135.253     -654807.5383       2541.001          27.000  
 15  4  3 20 24 55.0010000  0 12G 3G23G16G 9G 7G32G20G30G10G27G 6G19
  22299449.358     9237456.1993      -3446.369          19.000  
  20591875.350    -1188567.606        -173.918          43.000  
  21493689.410      577898.0843      -2103.547          23.000  
  21147980.529    -3106110.681        1363.945          37.000  
  22076592.086     -378638.5003       1288.582          31.000  
  25875925.544     1094981.5103      -3805.944          20.000  
  24689840.998     -668847.9813       2529.365          18.000  
  24337238.618     -544583.530        2258.144          35.000  
  22865861.299     -292786.3793       1696.411          19.000  
  24064165.744    -2754982.9273       1741.454          27.000  
  25448064.162      543947.6673      -1947.508          18.000  
  25070649.230     -657348.9123       2541.482          26.000  
 15  4  3 20 24 56.0010000  0 12G 3G23G16G 9G 7G32G20G30G10G27G 6G19
  22300100.408     9240899.8663      -3445.859          19.000  
  20591908.540    -1188393.405        -174.336          43.000  
  21494091.010      580003.0683      -2103.355          23.000  
  21147721.585    -3107474.100        1363.125          37.000  
  22076347.295     -379925.6392       1287.015          30.000  
  25876648.943     1098778.0523      -3781.949          20.000  
  24689359.913     -671389.2163       2548.375          18.000  
  24336808.505     -546840.222        2257.783          34.000  
  22865537.842     -294490.7943       1698.820          19.000  
  24063835.185    -2756724.0963       1741.046          28.000  
  25448435.956      545899.7293      -1963.467          18.000  
  25070167.953     -659890.4503       2542.663          26.000  
 15  4  3 20 24 57.0010000  0 12G 3G23G16G 9G 7G32G20G30G10G27G 6G19
  22300756.344     9244343.0353      -3438.314          21.000  
  20591941.818    -1188218.915        -175.096          43.000  
  21494491.824      582108.4493      -2104.339          25.000  
  21147462.432    -3108837.337        1363.616          37.000  
  22076102.328     -381212.7232       1286.307          30.000  
  25877369.428     1102572.3023      -3808.111          20.000  
  24688876.612     -673933.3973       2558.431          18.000  
  24336377.153     -549096.821        2258.330          33.000  
  22865213.320     -296195.7253       1711.374          22.000  
  24063507.592    -2758464.9983       1741.056          28.000  
  25448809.269      547854.2913      -1954.778          17.000  
  25069683.639     -662432.2213       2542.707          26.000  
 15  4  3 20 24 58.0010000  0 12G 3G23G16G 9G 7G32G20G30G10G27G 6G19
  22301412.019     9247791.8023      -3438.759          20.000  
  20591974.432    -1188044.113        -174.854          43.000  
  21494893.912      584214.4583      -2107.559          26.000  
  21147202.389    -3110200.375        1362.909          37.000  
  22075858.025     -382499.6423       1286.990          30.000  
  25878089.511     1106366.8363      -3796.077          20.000  
  24688392.455     -676480.6723       2546.994          19.000  
  24335945.714     -551353.301        2255.259          33.000  
  22864884.959     -297897.1533       1701.837          23.000  
  24063178.359    -2760205.7473       1740.166          28.000  
  25449181.115      549798.5523      -1946.842          18.000  
  25069201.839     -664974.1043       2544.466          26.000  
 15  4  3 20 24 59.0010000  0 12G 3G23G16G 9G 7G32G20G30G10G27G 6G19
  22302066.262     9251231.2193      -3441.414          18.000  
  20592007.971    -1187868.968        -175.375          43.000  
  21495294.883      586320.9733      -2106.235          26.000  
  21146942.957    -3111563.211        1363.007          38.000  
  22075613.286     -383786.3422       1286.698          30.000  
  25878810.868     1110160.6953      -3790.160          19.000  
  24687908.980     -679021.6173       2539.097          19.000  
  24335514.693     -553609.713        2253.478          32.000  
  22864560.961     -299598.2103       1700.772          24.000  
  24062846.909    -2761946.2113       1740.302          27.000  
  25449552.229      551756.3713      -1959.440          19.000  
  25068716.461     -667515.9293       2542.982          25.000  
 15  4  3 20 25  0.0010000  0 12G 3G23G16G 9G 7G32G20G30G10G27G 6G19
  22302725.148     9254679.0583      -3442.068          18.000  
  20592041.075    -1187693.446        -176.059          43.000  
  21495696.971      588428.1483      -2106.948          26.000  
  21146684.467    -3112925.776        1363.399          38.000  
  22075367.604     -385072.9593       1285.877          28.000  
  25879534.424     1113959.0753      -3790.204          18.000  
  24687427.301     -681563.1303       2549.609          18.000  
  24335084.336     -555865.904        2254.931          32.000  
  22864236.649     -301298.7413       1700.483          23.000  
  24062517.379    -2763686.4453       1739.667          27.000  
  25449923.500      553713.7953      -1950.588          19.000  
  25068232.287     -670057.9493       2542.358          25.000  
 15  4  3 20 25  1.0010000  0 12G 3G23G16G 9G 7G32G20G30G10G27G 6G19
  22303384.452     9258122.2633      -3452.867          19.000  
  20592074.527    -1187517.548        -176.149          43.000  
  21496099.425      590535.9033      -2107.199          27.000  
  21146424.633    -3114288.122        1362.584          38.000  
  22075122.411     -386359.2683       1286.851          28.000  
  25880263.564     1117751.2123      -3788.196          18.000  
  24686941.958     -684107.0073       2538.920          18.000  
  24334653.804     -558122.024        2255.930          32.000  
  22863911.063     -302998.7493       1699.749          24.000  
  24062185.267    -2765426.4033       1740.110          26.000  
  25450292.677      555655.5373      -1949.917          17.000  
  25067748.637     -672599.9713       2543.002          25.000  
 15  4  3 20 25  2.0010000  0 12G 3G23G16G 9G 7G32G20G30G10G27G 6G19
  22304042.116     9261570.8883      -3446.874          19.000  
  20592107.752    -1187341.354        -175.762          43.000  
  21496500.797      592644.1063      -2107.100          27.000  
  21146164.747    -3115650.306        1362.244          38.000  
  22074878.737     -387645.3513       1285.675          27.000  
  25880985.095     1121551.5833      -3795.305          17.000  
  24686458.448     -686651.6093       2548.138          16.000  
  24334223.778     -560378.1193       2255.829          31.000  
  22863588.408     -304698.7443       1699.719          23.000  
  24061855.143    -2767166.1033       1738.680          27.000  
  25450663.249      557599.8393      -1929.445          15.000  
  25067265.650     -675142.2383       2540.576          25.000  
 15  4  3 20 25  3.0010000  0 12G 3G23G16G 9G 7G32G20G30G10G27G 6G19
  22304701.472     9265016.2533      -3449.171          19.000  
  20592141.588    -1187164.836        -176.472          43.000  
  21496902.990      594752.8053      -2108.702          27.000  
  21145905.576    -3117012.222        1362.780          38.000  
  22074630.420     -388931.4083       1285.684          27.000  
  25881711.182     1125345.7793      -3801.737          17.000  
  24685978.096     -689184.6963       2521.328          14.000  
  24333793.665     -562634.0062       2255.607          32.000  
  22863265.649     -306397.1723       1695.357          20.000  
  24061523.607    -2768905.5363       1740.048          27.000  
  25451032.252      559548.4973      -1940.372          15.000  
  25066781.302     -677685.0403       2541.754          23.000  
 15  4  3 20 25  4.0010000  0 12G 3G23G16G 9G 7G32G20G30G10G27G 6G19
  22305360.480     9268464.1943      -3435.929          18.000  
  20592174.953    -1186987.897        -177.185          43.000  
  21497306.404      596862.2003      -2109.937          27.000  
  21145646.580    -3118373.915        1361.905          38.000  
  22074383.430     -390217.2663       1285.670          26.000  
  25882428.543     1129144.0423      -3791.376          16.000  
  24685493.992     -691721.8183       2541.354          14.000  
  24333364.739     -564889.7522       2256.012          32.000  
  22862942.663     -308097.0873       1710.356          17.000  
  24061191.826    -2770644.7413       1740.591          27.000  
  25451400.364      561492.3233      -1931.221          16.000  
  25066299.239     -680227.2843       2542.851          23.000  
 15  4  3 20 25  5.0010000  0 12G 3G23G16G 9G 7G32G20G30G10G27G 6G19
  22306019.103     9271912.4253      -3454.772          17.000  
  20592208.684    -1186810.593        -177.456          43.000  
  21497708.108      598972.1203      -2110.417          28.000  
  21145387.549    -3119735.359        1360.783          38.000  
  22074136.474     -391502.8593       1285.958          25.000  
  25883157.874     1132939.1473      -3788.479          18.000  
  24685011.842     -694261.6223       2527.478          14.000  
  24332935.795     -567145.3762       2255.177          33.000  
  22862617.513     -309807.4253       1710.356          14.000  
  24060861.999    -2772383.6593       1739.105          26.000  
  25451769.925      563442.3033      -1940.961          16.000  
  25065814.647     -682769.7083       2544.482          23.000  
 15  4  3 20 25  6.0010000  0 11G23G16G 9G 7G32G20G30G10G27G 6G19
  20592242.398    -1186633.044        -177.449          43.000  
  21498113.616      601082.5853      -2109.435          28.000  
  21145128.675    -3121096.613        1362.100          38.000  
  22073890.635     -392788.3603       1285.883          25.000  
  25883875.201     1136734.1973      -3795.633          19.000  
  24684528.855     -696798.2543       2550.096          16.000  
  24332507.288     -569400.8952       2256.855          33.000  
  22862287.791     -311538.3973       1710.356          11.000  
  24060532.051    -2774122.3293       1740.363          26.000  
  25452144.982      565394.8393      -1948.133          16.000  
  25065330.456     -685312.3203       2543.610          23.000  
 15  4  3 20 25  7.0010000  0 12G 3G23G16G 9G 7G32G20G30G10G27G 6G19
  22307338.322     9278815.6033      -3445.932          17.000  
  20592276.408    -1186455.176        -178.351          43.000  
  21498516.856      603193.5053      -2110.430          28.000  
  21144869.714    -3122457.766        1359.903          38.000  
  22073644.448     -394073.7563       1285.327          25.000  
  25884592.143     1140528.2973      -3795.953          20.000  
  24684044.542     -699345.8643       2542.630          16.000  
  24332078.833     -571656.4142       2255.904          33.000  
  22861966.218     -313223.3853       1700.565          14.000  
  24060201.125    -2775860.9523       1738.175          26.000  
  25452518.452      567352.8033      -1961.620          16.000  
  25064845.846     -687850.5063       2547.397          22.000  
 15  4  3 20 25  8.0010000  0 12G 3G23G16G 9G 7G32G20G30G10G27G 6G19
  22307996.160     9282263.1843      -3466.110          17.000  
  20592310.960    -1186276.894        -178.362          43.000  
  21498919.520      605305.0373      -2112.154          28.000  
  21144611.014    -3123818.582        1360.235          38.000  
  22073398.696     -395358.9533       1284.942          26.000  
  25885319.119     1144318.2833      -3791.782          19.000  
  24683561.258     -701888.7163       2549.295          16.000  
  24331650.796     -573911.7622       2254.513          33.000  
  22861641.505     -314918.3173       1697.311          19.000  
  24059872.537    -2777599.0983       1737.013          26.000  
  25452892.079      569304.1203      -1952.097          17.000  
  25064362.335     -690392.2043       2547.395          22.000  
 15  4  3 20 25  9.0010000  0 12G 3G23G16G 9G 7G32G20G30G10G27G 6G19
  22308654.819     9285713.5083      -3449.944          18.000  
  20592344.551    -1186098.192        -178.199          43.000  
  21499320.910      607417.2273      -2112.885          28.000  
  21144351.809    -3125179.110        1360.557          38.000  
  22073153.992     -396643.8713       1283.926          26.000  
  25886041.889     1148115.9733      -3806.759          19.000  
  24683081.150     -704428.4813       2536.040          15.000  
  24331223.109     -576166.8882       2255.536          34.000  
  22861321.363     -316616.4373       1699.450          20.000  
  24059543.688    -2779337.0433       1737.983          26.000  
  25453266.962      571261.5023      -1968.331          17.000  
  25063879.383     -692934.8223       2544.939          21.000  
 15  4  3 20 25 10.0010000  0 12G 3G23G16G 9G 7G32G20G30G10G27G 6G19
  22309313.408     9289166.5123      -3442.149          19.000  
  20592379.015    -1185919.103        -179.526          43.000  
  21499723.992      609530.0033      -2112.571          29.000  
  21144093.004    -3126539.358        1359.406          38.000  
  22072909.357     -397928.4463       1287.236          27.000  
  25886756.929     1151913.7263      -3794.256          19.000  
  24682596.697     -706970.5933       2535.966          16.000  
  24330794.880     -578421.8562       2255.431          34.000  
  22861000.785     -318308.8883       1682.052          20.000  
  24059213.599    -2781074.4933       1736.925          26.000  
  25453638.564      573206.0063      -1956.863          17.000  
  25063396.378     -695476.9683       2540.744          21.000  
 15  4  3 20 25 11.0010000  0 12G 3G23G16G 9G 7G32G20G30G10G27G 6G19
  22309971.368     9292615.7443      -3447.132          20.000  
  20592413.462    -1185739.604        -180.027          43.000  
  21500126.028      611643.3833      -2114.055          29.000  
  21143834.148    -3127899.353        1360.161          39.000  
  22072666.450     -399212.9483       1283.299          27.000  
  25887482.701     1155708.1893      -3786.370          19.000  
  24682115.891     -709504.9953       2538.291          16.000  
  24330367.036     -580676.6282       2254.427          35.000  
  22860678.340     -320008.0063       1693.016          19.000  
  24058884.767    -2782811.7713       1739.225          25.000  
  25454009.748      575160.9223      -1955.269          16.000  
  25062909.988     -698020.0113       2548.018          21.000  
 15  4  3 20 25 12.0010000  0 12G 3G23G16G 9G 7G32G20G30G10G27G 6G19
  22310628.543     9296064.4383      -3444.919          22.000  
  20592447.595    -1185559.716        -180.229          43.000  
  21500529.006      613757.3663      -2114.062          29.000  
  21143575.396    -3129259.062        1358.821          39.000  
  22072424.660     -400497.1743       1284.300          27.000  
  25888199.050     1159498.5803      -3796.629          19.000  
  24681632.660     -712034.4883       2534.565          17.000  
  24329939.436     -582931.2922       2254.978          35.000  
  22860355.895     -321704.6573       1695.342          17.000  
  24058557.715    -2784548.8773       1735.989          25.000  
  25454379.326      577118.0843      -1947.488          16.000  
  25062425.396     -700559.9253       2527.297          22.000  
 15  4  3 20 25 13.0010000  0 11G 3G23G16G 9G 7G32G20G30G10G27G19
  22311286.975     9299515.2133      -3452.448          23.000  
  20592481.099    -1185379.625        -180.808          43.000  
  21500933.938      615871.7873      -2114.753          29.000  
  21143316.923    -3130618.699        1358.946          39.000  
  22072178.891     -401781.3653       1285.173          27.000  
  25888921.995     1163291.3763      -3791.327          19.000  
  24681149.795     -714576.7613       2540.498          18.000  
  24329511.487     -585185.962        2254.226          35.000  
  22860034.846     -323398.5933       1696.053          19.000  
  24058227.714    -2786285.6983       1736.556          25.000  
  25061941.536     -703098.3723       2544.277          23.000  
 15  4  3 20 25 14.0010000  0 12G 3G23G16G 9G 7G32G20G30G10G27G 6G19
  22311942.894     9302965.4163      -3450.605          23.000  
  20592515.563    -1185199.141        -180.966          43.000  
  21501336.218      617986.8153      -2115.108          29.000  
  21143058.765    -3131978.084        1358.926          39.000  
  22071933.890     -403065.3413       1283.731          28.000  
  25889643.789     1167082.7513      -3794.276          19.000  
  24680670.402     -717111.8943       2534.374          18.000  
  24329083.119     -587440.466        2254.480          35.000  
  22859711.545     -325092.9193       1691.289          20.000  
  24057898.132    -2788022.1743       1735.315          26.000  
  25455127.225      581032.8983      -1946.220          16.000  
  25061455.460     -705639.3363       2545.577          22.000  
 15  4  3 20 25 15.0010000  0 12G 3G23G16G 9G 7G32G20G30G10G27G 6G19
  22312594.677     9306414.9703      -3452.910          25.000  
  20592549.591    -1185018.450        -180.827          43.000  
  21501736.927      620102.2243      -2115.395          28.000  
  21142800.257    -3133337.339        1359.593          39.000  
  22071689.727     -404349.3193       1284.352          28.000  
  25890365.669     1170875.7973      -3793.242          19.000  
  24680188.113     -719651.2643       2537.510          18.000  
  24328654.821     -589694.983        2254.670          36.000  
  22859388.333     -326787.8103       1695.079          20.000  
  24057567.189    -2789758.6613       1736.102          26.000  
  25455497.571      582979.1303      -1946.220          14.000  
  25060971.391     -708179.5623       2535.312          21.000  
 15  4  3 20 25 16.0010000  0 12G 3G23G16G 9G 7G32G20G30G10G27G 6G19
  22313249.706     9309864.8853      -3449.109          26.000  
  20592583.986    -1184837.345        -181.202          43.000  
  21502140.184      622218.2563      -2115.766          29.000  
  21142541.575    -3134696.347        1358.995          39.000  
  22071447.064     -405632.9223       1284.835          27.000  
  25891086.590     1174667.8073      -3785.960          19.000  
  24679708.110     -722190.4273       2547.788          18.000  
  24328226.261     -591949.320        2255.508          36.000  
  22859069.430     -328476.5193       1693.016          19.000  
  24057238.287    -2791494.8713       1736.497          26.000  
  25455869.574      584925.3323      -1963.538          13.000  
  25060487.689     -710724.1183       2537.931          21.000  
 15  4  3 20 25 17.0010000  0 12G 3G23G16G 9G 7G32G20G30G10G27G 6G19
  22313904.158     9313314.9343      -3450.553          27.000  
  20592618.921    -1184655.853        -181.586          43.000  
  21502542.516      624334.8763      -2116.224          29.000  
  21142282.649    -3136055.093        1358.506          39.000  
  22071202.150     -406916.4923       1282.231          28.000  
  25891807.145     1178460.8993      -3785.336          19.000  
  24679223.675     -724728.3433       2524.443          19.000  
  24327798.137     -594203.498        2254.644          36.000  
  22858751.347     -330171.5423       1683.705          17.000  
  24056911.514    -2793230.6713       1735.406          26.000  
  25456241.683      586881.5943      -1951.703          12.000  
  25060004.981     -713265.2353       2542.408          21.000  
 15  4  3 20 25 18.0010000  0 12G 3G23G16G 9G 7G32G20G30G10G27G 6G19
  22314555.139     9316765.2353      -3450.061          27.000  
  20592652.984    -1184474.118        -182.448          42.000  
  21502944.761      626451.9683      -2117.316          28.000  
  21142024.595    -3137413.710        1358.759          40.000  
  22070958.563     -408199.9103       1282.435          27.000  
  25892531.433     1182253.4533      -3799.622          18.000  
  24678741.159     -727259.3963       2536.455          19.000  
  24327369.664     -596457.664        2252.744          36.000  
  22858428.640     -331865.2033       1697.098          15.000  
  24056581.321    -2794966.4423       1736.484          26.000  
  25456612.797      588836.3143      -1949.398          14.000  
  25059521.470     -715810.3283       2543.827          20.000  
 15  4  3 20 25 19.0010000  0 12G 3G23G16G 9G 7G32G20G30G10G27G 6G19
  22315209.225     9320215.7183      -3450.874          28.000  
  20592687.553    -1184292.064        -182.337          42.000  
  21503347.024      628569.5653      -2118.532          28.000  
  21141766.629    -3138772.131        1358.857          40.000  
  22070714.626     -409483.1503       1282.472          28.000  
  25893252.738     1186047.0933      -3786.053          18.000  
  24678255.449     -729798.0343       2548.384          19.000  
  24326940.860     -598711.733        2254.234          36.000  
  22858105.113     -333559.5563       1692.029          17.000  
  24056248.790    -2796701.9273       1735.250          25.000  
  25456986.336      590784.9833      -1955.381          15.000  
  25059036.965     -718351.9013       2535.786          20.000  
 15  4  3 20 25 20.0010000  0 12G 3G23G16G 9G 7G32G20G30G10G27G 6G19
  22315865.057     9323666.5503      -3451.141          29.000  
  20592721.912    -1184109.667        -182.802          42.000  
  21503750.473      630687.7663      -2118.063          28.000  
  21141507.720    -3140130.357        1357.034          40.000  
  22070471.859     -410766.2153       1282.820          29.000  
  25893974.584     1189839.0663      -3790.747          18.000  
  24677768.990     -732337.9393       2536.230          20.000  
  24326511.847     -600965.707        2254.166          36.000  
  22857784.797     -335247.0373       1688.108          18.000  
  24055916.293    -2798437.0973       1734.262          25.000  
  25457362.091      592746.2163      -1952.954          15.000  
  25058551.988     -720893.7293       2532.419          20.000  
 15  4  3 20 25 21.0010000  0 12G 3G23G16G 9G 7G32G20G30G10G27G 6G19
  22316519.475     9327117.7293      -3451.835          29.000  
  20592757.022    -1183926.793        -183.101          42.000  
  21504153.904      632806.6123      -2119.134          27.000  
  21141249.579    -3141488.177        1358.410          40.000  
  22070227.870     -412049.0043       1282.970          29.000  
  25894694.807     1193626.7993      -3782.075          18.000  
  24677286.334     -734868.8603       2533.453          20.000  
  24326083.112     -603219.401        2253.760          36.000  
  22857463.120     -336933.7183       1694.518          20.000  
  24055584.879    -2800172.0773       1734.080          24.000  
  25457735.753      594699.9563      -1952.761          17.000  
  25058066.977     -723435.4193       2539.532          20.000  
 15  4  3 20 25 22.0010000  0 12G 3G23G16G 9G 7G32G20G30G10G27G 6G19
  22317176.371     9330569.1233      -3451.679          30.000  
  20592792.062    -1183743.671        -182.836          42.000  
  21504558.732      634925.9573      -2118.614          27.000  
  21140991.507    -3142845.921        1358.234          40.000  
  22069981.839     -413331.7353       1282.481          28.000  
  25895417.403     1197422.3323      -3795.721          19.000  
  24676802.108     -737406.2233       2542.820          20.000  
  24325654.291     -605473.125        2253.816          36.000  
  22857139.226     -338625.0013       1684.742          21.000  
  24055253.656    -2801907.1803       1734.568          24.000  
  25458108.839      596655.3433      -1947.865          16.000  
  25057584.880     -725979.2343       2543.786          21.000  
 15  4  3 20 25 23.0010000  0 12G 3G23G16G 9G 7G32G20G30G10G27G 6G19
  22317833.511     9334020.7613      -3452.296          29.000  
  20592826.683    -1183560.128        -183.498          42.000  
  21504963.420      637045.8323      -2121.229          27.000  
  21140732.633    -3144203.356        1357.266          40.000  
  22069737.309     -414614.2253       1283.919          28.000  
  25896139.946     1201214.4743      -3782.009          18.000  
  24676321.215     -739940.3103       2526.438          20.000  
  24325225.382     -607726.641        2253.286          36.000  
  22856816.938     -340313.6583       1687.164          20.000  
  24054923.742    -2803641.3973       1732.838          23.000  
  25458480.232      598608.8453      -1956.256          17.000  
  25057102.015     -728523.7683       2542.245          22.000  
 15  4  3 20 25 24.0010000  0 12G 3G23G16G 9G 7G32G20G30G10G27G 6G19
  22318487.528     9337472.7343      -3452.739          29.000  
  20592861.671    -1183376.253        -184.436          42.000  
  21505366.782      639166.2853      -2121.435          27.000  
  21140474.772    -3145560.609        1356.650          40.000  
  22069493.948     -415896.5273       1282.053          28.000  
  25896858.791     1205004.8143      -3779.118          17.000  
  24675836.413     -742470.4293       2533.755          20.000  
  24324796.525     -609980.025        2252.957          36.000  
  22856495.331     -342002.0833       1687.664          20.000  
  24054595.574    -2805375.0613       1739.541          23.000  
  25458850.717      600561.3543      -1960.621          18.000  
  25056620.581     -731066.0003       2539.431          21.000  
 15  4  3 20 25 25.0010000  0 12G 3G23G16G 9G 7G32G20G30G10G27G 6G19
  22319144.529     9340924.8333      -3452.748          29.000  
  20592896.519    -1183192.172        -184.809          42.000  
  21505769.672      641287.2223      -2121.876          27.000  
  21140216.474    -3146917.724        1355.925          40.000  
  22069249.942     -417178.7623       1283.247          27.000  
  25897580.549     1208797.3293      -3790.934          17.000  
  24675354.351     -745005.3613       2538.281          20.000  
  24324367.546     -612233.471        2252.475          36.000  
  22856173.933     -343687.1363       1689.489          21.000  
  24054266.114    -2807107.6753       1743.173          22.000  
  25459223.960      602518.4853      -1944.143          18.000  
  25056139.513     -733609.9313       2540.339          22.000  
 15  4  3 20 25 26.0010000  0 12G 3G23G16G 9G 7G32G20G30G10G27G 6G19
  22319799.156     9344377.1743      -3452.792          30.000  
  20592931.594    -1183007.728        -184.320          42.000  
  21506173.209      643408.7143      -2120.776          28.000  
  21139957.966    -3148274.662        1356.536          41.000  
  22069005.744     -418460.8933       1281.458          27.000  
  25898302.849     1212596.4813      -3795.725          18.000  
  24674869.845     -747542.6013       2533.191          20.000  
  24323938.428     -614486.772        2253.980          36.000  
  22855852.081     -345376.3553       1691.486          21.000  
  24053932.867    -2808843.3033       1736.251          22.000  
  25459596.225      604466.9083      -1954.592          17.000  
  25055655.130     -736152.7023       2546.475          22.000  
 15  4  3 20 25 27.0010000  0 12G 3G23G16G 9G 7G32G20G30G10G27G 6G19
  22320457.570     9347829.6043      -3452.707          29.000  
  20592966.355    -1182823.121        -184.588          42.000  
  21506576.640      645530.4683      -2122.234          28.000  
  21139699.424    -3149631.519        1356.982          41.000  
  22068760.743     -419742.9823       1281.679          27.000  
  25899023.490     1216386.6213      -3802.899          18.000  
  24674388.045     -750074.4783       2539.271          20.000  
  24323509.816     -616740.126        2252.857          36.000  
  22855529.374     -347066.2333       1695.556          22.000  
  24053602.377    -2810576.2233       1731.698          21.000  
  25459970.271      606422.7663      -1960.005          19.000  
  25055175.877     -738697.6963       2542.756          22.000  
 15  4  3 20 25 28.0010000  0 12G 3G23G16G 9G 7G32G20G30G10G27G 6G19
  22321116.613     9351282.3073      -3452.771          29.000  
  20593001.866    -1182638.136        -184.755          42.000  
  21506984.400      647652.8583      -2122.356          27.000  
  21139441.684    -3150988.157        1356.130          41.000  
  22068516.282     -421024.8743       1281.026          27.000  
  25899747.587     1220184.6643      -3799.821          18.000  
  24673906.995     -752608.3253       2538.071          20.000  
  24323081.622     -618993.393        2252.678          36.000  
  22855208.255     -348752.5413       1674.900          22.000  
  24053273.981    -2812311.2033       1737.353          21.000  
  25460344.421      608385.6993      -1962.418          19.000  
  25054690.604     -741243.4973       2546.657          22.000  
 15  4  3 20 25 29.0010000  0 12G 3G23G16G 9G 7G32G20G30G10G27G 6G19
  22321771.711     9354735.3413      -3453.564          29.000  
  20593037.342    -1182452.768        -185.135          42.000  
  21507387.604      649775.8283      -2124.147          27.000  
  21139184.014    -3152344.500        1356.865          41.000  
  22068274.178     -422306.5243       1280.964          27.000  
  25900469.066     1223975.8593      -3801.286          17.000  
  24673421.687     -755148.8763       2536.451          20.000  
  24322652.556     -621246.404        2253.483          36.000  
  22854889.213     -350440.5833       1683.628          22.000  
  24052942.689    -2814044.1133       1731.033          21.000  
  25460715.674      610338.0253      -1957.709          18.000  
  25054209.222     -743789.0173       2541.306          22.000  
 15  4  3 20 25 30.0010000  0 12G 3G23G16G 9G 7G32G20G30G10G27G 6G19
  22322428.590     9358188.6553      -3454.079          29.000  
  20593072.539    -1182267.037        -185.986          42.000  
  21507792.135      651899.4583      -2123.561          26.000  
  21138925.855    -3153700.623        1356.403          41.000  
  22068030.870     -423588.0603       1280.545          27.000  
  25901192.779     1227767.9353      -3793.642          18.000  
  24672939.781     -757683.6333       2542.274          19.000  
  24322223.299     -623499.363        2252.219          36.000  
  22854569.594     -352124.3413       1677.668          22.000  
  24052613.194    -2815780.0373       1742.605          20.000  
  25461087.783      612295.1673      -1955.478          17.000  
  25053727.370     -746333.8323       2550.854          22.000  
 15  4  3 20 25 31.0010000  0 12G 3G23G16G 9G 7G32G20G30G10G27G 6G19
  22323082.990     9361642.1593      -3453.389          29.000  
  20593108.208    -1182080.994        -186.183          42.000  
  21508195.811      654023.5023      -2124.825          26.000  
  21138668.151    -3155056.555        1356.629          41.000  
  22067784.106     -424869.3423       1281.357          26.000  
  25901914.677     1231557.9083      -3802.620          18.000  
  24672457.405     -760215.8133       2539.837          18.000  
  24321793.866     -625752.212        2252.365          35.000  
  22854250.413     -353806.8343       1683.372          23.000  
  24052284.031    -2817513.7863       1729.888          20.000  
  25461457.082      614244.1093      -1947.449          14.000  
  25053245.412     -748879.8083       2546.885          22.000  
 15  4  3 20 25 32.0010000  0 12G 3G23G16G 9G 7G32G20G30G10G27G 6G19
  22323734.337     9365096.1113      -3455.466          30.000  
  20593144.085    -1181894.628        -186.926          42.000  
  21508599.731      656146.1013      -2122.205          26.000  
  21138410.236    -3156412.311        1355.850          41.000  
  22067538.826     -426150.5343       1281.218          26.000  
  25902635.598     1235352.4683      -3795.486          18.000  
  24671974.610     -762752.2083       2518.337          19.000  
  24321364.661     -628004.976        2252.333          35.000  
  22853929.137     -355492.1923       1673.173          23.000  
  24051953.663    -2819247.5073       1739.537          20.000  
  25461833.239      616211.1273      -1956.119          13.000  
  25052763.611     -751426.6583       2546.608          22.000  
 15  4  3 20 25 33.0010000  0 12G 3G23G16G 9G 7G32G20G30G10G27G 6G19
  22324390.832     9368550.0372      -3453.186          29.000  
  20593179.509    -1181708.033        -186.870          42.000  
  21509003.442      658271.3653      -2126.532          25.000  
  21138152.113    -3157767.957        1355.097          41.000  
  22067295.326     -427431.7283       1279.678          26.000  
  25903354.006     1239145.3913      -3790.365          20.000  
  24671492.722     -765277.5293       2531.136          18.000  
  24320935.350     -630257.756        2253.415          35.000  
  22853610.722     -357176.9003       1686.732          23.000  
  24051623.487    -2820982.0763       1735.672          19.000  
  25462202.852      618165.9783      -1965.532          13.000  
  25052279.124     -753971.0763       2548.215          23.000  
 15  4  3 20 25 34.0010000  0 12G 3G23G16G 9G 7G32G20G30G10G27G 6G19
  22325049.543     9372004.2563      -3455.062          29.000  
  20593214.881    -1181521.011        -187.933          42.000  
  21509407.205      660397.1773      -2125.030          25.000  
  21137894.233    -3159123.293        1354.658          41.000  
  22067050.482     -428712.5903       1279.817          25.000  
  25904075.433     1242937.1013      -3800.603          20.000  
  24671008.688     -767807.0033       2532.355          18.000  
  24320507.244     -632510.318        2252.981          35.000  
  22853288.853     -358857.2173       1675.290          24.000  
  24051296.261    -2822710.5143       1741.293          20.000  
  25462576.688      620132.7393      -1969.155          13.000  
  25051795.700     -756516.3093       2548.088          23.000  
 15  4  3 20 25 35.0010000  0 12G 3G23G16G 9G 7G32G20G30G10G27G 6G19
  22325708.288     9375458.9213      -3455.819          30.000  
  20593250.724    -1181333.506        -187.148          42.000  
  21509812.591      662523.6243      -2126.142          25.000  
  21137636.354    -3160478.276        1355.664          41.000  
  22066803.352     -429993.3883       1281.106          25.000  
  25904794.975     1246726.8893      -3791.101          20.000  
  24670529.645     -770332.2973       2520.895          17.000  
  24320078.527     -634762.596        2253.794          35.000  
  22852970.840     -360540.0533       1673.838          23.000  
  24050967.272    -2824443.8053       1729.855          19.000  
  25462945.306      622084.5383      -1947.957          13.000  
  25051313.184     -759061.0643       2547.517          23.000  
 15  4  3 20 25 36.0010000  0 12G 3G23G16G 9G 7G32G20G30G10G27G 6G19
  22326362.166     9378913.9293      -3454.705          30.000  
  20593286.601    -1181145.583        -187.628          42.000  
  21510218.536      664650.5583      -2126.892          25.000  
  21137378.475    -3161832.983        1354.937          42.000  
  22066560.567     -431273.5283       1281.678          24.000  
  25905514.709     1250514.5963      -3785.351          21.000  
  24670047.198     -772863.7883       2543.271          17.000  
  24319649.653     -637014.757        2253.610          35.000  
  22852652.304     -362222.3463       1689.249          22.000  
  24050637.672    -2826178.1083       1727.500          18.000  
  25463315.739      624039.5723      -1964.951          13.000  
  25050828.400     -761604.9963       2551.740          23.000  
 15  4  3 20 25 37.0010000  0 12G 3G23G16G 9G 7G32G20G30G10G27G 6G19
  22327017.788     9382369.0603      -3454.287          30.000  
  20593323.002    -1180957.382        -188.116          42.000  
  21510622.351      666778.0403      -2126.564          26.000  
  21137120.700    -3163187.489        1354.402          42.000  
  22066317.939     -432552.6343       1283.602          24.000  
  25906234.636     1254307.1383      -3789.478          19.000  
  24669565.764     -775391.9273       2524.734          17.000  
  24319221.215     -639266.842        2252.768          35.000  
  22852333.733     -363904.8873       1680.799          23.000  
  24050304.635    -2827910.7703       1722.987          18.000  
  25463688.790      626003.3193      -1963.204          13.000  
  25050345.378     -764149.6133       2546.032          22.000  
 15  4  3 20 25 38.0010000  0 12G 3G23G16G 9G 7G32G20G30G10G27G 6G19
  22327673.672     9385824.4573      -3454.347          29.000  
  20593358.566    -1180768.852        -188.629          42.000  
  21511030.023      668905.9663      -2127.328          26.000  
  21136862.332    -3164541.824        1354.191          42.000  
  22066073.915     -433834.4623       1283.010          24.000  
  25906954.300     1258101.4173      -3790.847          19.000  
  24669082.899     -777920.6263       2536.775          16.000  
  24318792.690     -641518.824        2252.930          35.000  
  22852013.853     -365586.6213       1689.367          24.000  
  24049974.424    -2829639.2273       1723.032          16.000  
  25464062.958      627966.5363      -1963.204          11.000  
  25049859.721     -766693.5413       2545.251          21.000  
 15  4  3 20 25 39.0010000  0 12G 3G23G16G 9G 7G32G20G30G10G27G 6G19
  22328330.009     9389280.0853      -3455.464          28.000  
  20593394.496    -1180580.021        -188.733          42.000  
  21511436.823      671034.4733      -2127.088          25.000  
  21136605.168    -3165896.002        1354.266          42.000  
  22065828.600     -435118.2773       1278.388          24.000  
  25907674.663     1261889.0213      -3785.030          20.000  
  24668600.383     -780450.7103       2533.489          16.000  
  24318363.869     -643770.729        2252.292          35.000  
  22851695.264     -367267.1313       1678.620          25.000  
  24049646.587    -2831371.1453       1736.519          15.000  
  25464438.574      629929.7533      -1963.204          10.000  
  25049375.058     -769243.4383       2544.135          19.000  
 15  4  3 20 25 40.0010000  0 11G 3G23G16G 9G 7G32G20G30G10G27G19
  22328987.307     9392736.1803      -3449.688          28.000  
  20593430.775    -1180390.701        -189.586          42.000  
  21511839.085      673163.5853      -2130.409          25.000  
  21136347.638    -3167249.769        1353.219          42.000  
  22065585.100     -436398.3303       1283.626          23.000  
  25908397.695     1265681.3153      -3793.345          21.000  
  24668119.019     -782983.7173       2532.469          14.000  
  24317935.920     -646022.410        2251.251          35.000  
  22851377.409     -368946.8623       1675.922          25.000  
  24049317.214    -2833097.0843       1725.282          13.000  
  25048886.854     -771791.7293       2547.254          18.000  
 15  4  3 20 25 41.0010000  0 11G 3G23G16G 9G 7G32G20G30G10G27G19
  22329643.592     9396192.6253      -3456.746          27.000  
  20593467.438    -1180201.046        -189.729          42.000  
  21512243.424      675293.3573      -2130.187          25.000  
  21136089.846    -3168603.360        1353.285          42.000  
  22065343.327     -437679.1313       1272.852          22.000  
  25909118.284     1269468.7713      -3794.517          20.000  
  24667638.527     -785516.1783       2532.469          11.000  
  24317507.534     -648273.952        2250.434          35.000  
  22851055.505     -370627.4133       1680.984          25.000  
  24048987.301    -2834822.3553       1725.282          10.000  
  25048400.010     -774337.0233       2545.626          18.000  
 15  4  3 20 25 42.0010000  0 11G 3G23G16G 9G 7G32G20G30G10G27G19
  22330296.771     9399649.0403      -3455.806          26.000  
  20593503.490    -1180011.061        -190.505          42.000  
  21512648.391      677423.6713      -2130.167          25.000  
  21135831.810    -3169956.717        1352.975          42.000  
  22065098.256     -438959.3433       1286.469          22.000  
  25909838.332     1273260.9083      -3782.738          19.000  
  24667154.895     -788049.2393       2542.969          12.000  
  24317078.835     -650525.385        2251.395          35.000  
  22850738.504     -372307.3513       1678.485          25.000  
  24048659.673    -2836547.6263       1725.282           9.000  
  25047911.282     -776884.1213       2549.160          19.000  
 15  4  3 20 25 43.0010000  0 11G 3G23G16G 9G 7G32G20G30G10G27G19
  22330949.688     9403105.8323      -3457.667          25.000  
  20593539.455    -1179820.590        -190.776          42.000  
  21513052.591      679554.5863      -2131.268          26.000  
  21135574.297    -3171309.751        1352.911          42.000  
  22064857.652     -440239.9363       1281.095          22.000  
  25910556.740     1277048.8003      -3778.355          20.000  
  24666670.424     -790597.8763       2551.104          12.000  
  24316650.380     -652776.617        2250.868          35.000  
  22850420.352     -373986.6363       1678.158          25.000  
  24048328.642    -2838278.5623       1731.888           9.000  
  25047425.014     -779427.7273       2541.596          20.000  
 15  4  3 20 25 44.0010000  0 11G 3G23G16G 9G 7G32G20G30G10G27G19
  22331606.863     9406563.0723      -3457.413          25.000  
  20593576.066    -1179629.835        -190.835          42.000  
  21513460.367      681686.0253      -2132.412          26.000  
  21135316.313    -3172662.579        1352.943          42.000  
  22064617.817     -441518.7063       1278.045          24.000  
  25911278.080     1280837.4733      -3788.000          20.000  
  24666188.990     -793133.4043       2519.854           9.000  
  24316221.802     -655027.735        2250.402          35.000  
  22850101.937     -375665.5473       1676.444          23.000  
  24047998.641    -2840010.7483       1732.548          15.000  
  25046938.362     -781975.2793       2543.525          19.000  
 15  4  3 20 25 45.0010000  0 11G 3G23G16G 9G 7G32G20G30G10G27G19
  22332268.157     9410020.5083      -3457.243          25.000  
  20593612.397    -1179438.625        -191.112          42.000  
  21513864.584      683818.1943      -2132.561          27.000  
  21135059.044    -3174015.111        1352.335          42.000  
  22064378.243     -442797.2123       1278.816          26.000  
  25911999.315     1284625.5483      -3800.030          20.000  
  24665713.140     -795634.5613       2488.604           8.000  
  24315793.312     -657278.643        2250.458          35.000  
  22849785.321     -377337.1993       1677.431          21.000  
  24047670.647    -2841743.5913       1733.207          15.000  
  25046450.594     -784526.0143       2558.632          18.000  
 15  4  3 20 25 46.0010000  0 12G 3G23G16G 9G 7G32G20G30G10G27G 6G19
  22332925.123     9413478.2523      -3458.678          25.000  
  20593648.327    -1179247.083        -192.257          42.000  
  21514269.708      685950.7303      -2133.417          27.000  
  21134801.845    -3175367.424        1351.983          43.000  
  22064139.366     -444075.6843       1277.814          26.000  
  25912721.492     1288419.2253      -3781.289          20.000  
  24665238.424     -798123.1533       2488.604           7.000  
  24315364.700     -659529.546        2249.080          35.000  
  22849465.545     -379012.2613       1675.319          20.000  
  24047341.012    -2843475.1953       1731.651          15.000  
  25467042.059      643616.7553      -1961.448          13.000  
  25045966.909     -787075.9233       2541.112          16.000  
 15  4  3 20 25 47.0010000  0 12G 3G23G16G 9G 7G32G20G30G10G27G 6G19
  22333580.850     9416935.6933      -3457.722          25.000  
  20593684.466    -1179055.113        -192.094          42.000  
  21514674.571      688084.0263      -2133.300          27.000  
  21134545.083    -3176719.446        1352.117          43.000  
  22063899.827     -445353.8923       1278.102          26.000  
  25913439.569     1292207.9903      -3780.888          18.000  
  24664764.599     -800611.7453       2488.604           7.000  
  24314936.245     -661780.115        2250.994          35.000  
  22849148.946     -380687.5523       1681.092          19.000  
  24047013.262    -2845207.0463       1732.090          15.000  
  25467417.640      645578.3223      -1961.680          13.000  
  25045482.177     -789625.0033       2548.560          14.000  
 15  4  3 20 25 48.0010000  0 12G 3G23G16G 9G 7G32G20G30G10G27G 6G19
  22334243.783     9420410.5673      -3471.261          24.000  
  20593722.071    -1178862.825        -192.321          42.000  
  21515078.805      690217.7833      -2134.523          27.000  
  21134287.849    -3178071.268        1351.454          43.000  
  22063657.653     -446631.8903       1277.380          26.000  
  25914158.343     1295995.4443      -3793.063          17.000  
  24664290.267     -803100.3373       2488.604           7.000  
  24314507.947     -664030.637        2249.373          35.000  
  22848830.235     -382363.4943       1664.916          21.000  
  24046683.540    -2846939.3273       1732.530          15.000  
  25467793.029      647540.1253      -1961.912          13.000  
  25044993.832     -792180.5463       2537.927          13.000  
 15  4  3 20 25 49.0010000  0 12G 3G23G16G 9G 7G32G20G30G10G27G 6G19
  22334902.861     9423874.4363      -3458.273          25.000  
  20593758.979    -1178670.277        -192.364          42.000  
  21515486.390      692352.0213      -2134.505          28.000  
  21134031.122    -3179422.961        1351.592          43.000  
  22063415.235     -447909.8623       1278.937          26.000  
  25914879.840     1299782.4353      -3790.695          19.000  
  24663810.770     -805605.8753       2508.395           7.000  
  24314079.404     -666281.178        2250.680          35.000  
  22848510.198     -384036.3893       1676.518          22.000  
  24046355.947    -2848664.4933       1724.140          15.000  
  25468165.643      649500.2793      -1959.930          13.000  
  25044509.728     -794724.8973       2554.777          14.000  
 15  4  3 20 25 50.0010000  0 12G 3G23G16G 9G 7G32G20G30G10G27G 6G19
  22335557.663     9427333.0753      -3459.221          23.000  
  20593796.025    -1178477.302        -193.099          42.000  
  21515894.516      694486.8933      -2135.505          28.000  
  21133773.975    -3180774.330        1351.800          43.000  
  22063172.049     -449187.6063       1277.874          27.000  
  25915599.976     1303568.9383      -3795.115          20.000  
  24663334.693     -808115.2353       2510.385           8.000  
  24313650.931     -668531.461        2250.114          35.000  
  22848190.388     -385710.5683       1674.364          24.000  
  24046028.581    -2850388.4013       1723.689          15.000  
  25468542.289      651460.2153      -1959.930          17.000  
  25044026.514     -797270.6103       2546.268          15.000  
 15  4  3 20 25 51.0010000  0 11G 3G23G16G 9G 7G32G20G30G10G27G 6
  22336214.314     9430792.3523      -3459.352          24.000  
  20593833.264    -1178283.837        -193.024          42.000  
  21516300.739      696622.5723      -2133.341          28.000  
  21133516.567    -3182125.346        1351.386          43.000  
  22062928.566     -450464.9873       1277.635          28.000  
  25916320.041     1307356.0713      -3779.955          19.000  
  24662858.511     -810626.5783       2512.375           8.000  
  24313221.988     -670781.493        2249.698          35.000  
  22847868.624     -387384.9673       1675.567          25.000  
  24045699.819    -2852114.9023       1726.005          16.000  
  25468916.648      653420.1613      -1959.930          17.000  
 15  4  3 20 25 52.0010000  0 12G 3G23G16G 9G 7G32G20G30G10G27G 6G19
  22336872.798     9434251.8303      -3460.190          24.000  
  20593869.997    -1178090.058        -193.614          42.000  
  21516705.410      698758.5943      -2136.287          27.000  
  21133259.700    -3183476.143        1350.989          43.000  
  22062684.594     -451742.2543       1276.877          28.000  
  25917043.231     1311144.3283      -3790.239          19.000  
  24662378.578     -813147.4113       2523.127           8.000  
  24312793.847     -673031.437        2249.983          35.000  
  22847550.716     -389054.6403       1677.784          24.000  
  24045371.790    -2853842.7293       1727.594          20.000  
  25469291.322      655381.9853      -1962.139          17.000  
  25043053.682     -802378.6453       2566.389          12.000  
 15  4  3 20 25 53.0010000  0 12G 3G23G16G 9G 7G32G20G30G10G27G 6G19
  22337530.828     9437711.0633      -3463.186          23.000  
  20593906.869    -1177895.849        -194.223          42.000  
  21517110.988      700895.3403      -2137.863          27.000  
  21133002.885    -3184826.673        1349.700          43.000  
  22062443.240     -453019.2403       1276.691          28.000  
  25917763.977     1314932.9213      -3797.244          19.000  
  24661896.725     -815671.9323       2526.008           8.000  
  24312365.862     -675281.247        2250.911          35.000  
  22847231.028     -390729.9453       1674.273          25.000  
  24045040.672    -2855568.0393       1731.160          22.000  
  25469665.245      657344.2483      -1962.371          17.000  
  25042566.385     -804938.3593       2555.231          11.000  
 15  4  3 20 25 54.0010000  0 11G 3G23G16G 9G 7G32G20G30G10G27G 6
  22338187.271     9441169.9503      -3462.479          23.000  
  20593943.968    -1177701.383        -194.388          42.000  
  21517521.190      703032.5783      -2137.958          28.000  
  21132745.093    -3186177.026        1349.693          43.000  
  22062200.735     -454296.1953       1277.663          27.000  
  25918484.427     1318722.9243      -3789.896          18.000  
  24661415.640     -818199.3333       2528.888           8.000  
  24311937.442     -677530.956        2249.075          35.000  
  22846913.085     -392403.5443       1675.200          24.000  
  24044710.357    -2857291.1743       1722.010          21.000  
  25470038.017      659306.7403      -1962.603          17.000  
 15  4  3 20 25 55.0010000  0 12G 3G23G16G 9G 7G32G20G30G10G27G 6G19
  22338846.575     9444631.4423      -3469.055          24.000  
  20593980.684    -1177506.391        -195.023          42.000  
  21517928.199      705170.5653      -2138.155          29.000  
  21132488.139    -3187527.002        1350.121          42.000  
  22061958.648     -455572.8103       1275.728          26.000  
  25919209.274     1322519.7403      -3777.638          17.000  
  24660936.335     -820718.2633       2518.514           8.000  
  24311509.092     -679780.385        2248.671          34.000  
  22846595.229     -394079.7813       1684.374          22.000  
  24044381.717    -2859016.8363       1719.802          18.000  
  25470409.654      661258.1913      -1949.622          17.000  
  25041597.217     -810041.1233       2545.370          14.000  
 15  4  3 20 25 56.0010000  0 11G 3G23G16G 9G 7G32G20G30G10G27G 6
  22339502.441     9448094.0533      -3470.656          25.000  
  20594016.980    -1177310.941        -195.583          42.000  
  21518334.091      707309.0383      -2139.091          28.000  
  21132231.376    -3188876.678        1349.892          42.000  
  22061713.001     -456849.1373       1275.594          26.000  
  25919925.989     1326306.5263      -3784.335          17.000  
  24660457.204     -823237.5223       2520.064          11.000  
  24311081.230     -682029.627        2249.008          34.000  
  22846278.141     -395751.5093       1673.945          21.000  
  24044054.525    -2860736.2323       1718.575          16.000  
  25470780.401      663207.2803      -1948.511          10.000  
 15  4  3 20 25 57.0010000  0 12G 3G23G16G 9G 7G32G20G30G10G27G 6G19
  22340157.697     9451555.6023      -3458.535          24.000  
  20594054.638    -1177115.098        -195.805          42.000  
  21518740.524      709448.2743      -2139.799          28.000  
  21131974.491    -3190226.049        1349.289          43.000  
  22061466.691     -458125.2123       1277.061          27.000  
  25920644.921     1330093.8953      -3786.652          17.000  
  24659978.039     -825758.3263       2521.615          11.000  
  24310652.844     -684278.667        2249.879          34.000  
  22845961.821     -397419.2893       1653.908          20.000  
  24043728.660    -2862462.7533       1732.864          17.000  
  25471152.458      665155.2633      -1947.400          10.000  
  25040627.229     -815136.9083       2560.765          13.000  
 15  4  3 20 25 58.0010000  0 12G 3G23G16G 9G 7G32G20G30G10G27G 6G19
  22340819.654     9455018.5023      -3455.782          22.000  
  20594092.121    -1176918.972        -196.816          42.000  
  21519147.201      711587.9683      -2139.435          29.000  
  21131717.519    -3191575.273        1348.919          43.000  
  22061221.428     -459401.1593       1274.860          26.000  
  25921367.918     1333883.6113      -3795.971          17.000  
  24659497.442     -828284.4243       2527.530          11.000  
  24310225.314     -686527.696        2248.650          34.000  
  22845643.634     -399085.6013       1676.719          17.000  
  24043403.440    -2864187.0513       1723.259          16.000  
  25471526.381      667113.4323      -1959.520          10.000  
  25040141.921     -817689.7593       2551.652          14.000  
 15  4  3 20 25 59.0010000  0 12G 3G23G16G 9G 7G32G20G30G10G27G 6G19
  22341484.175     9458480.3433      -3449.540          20.000  
  20594129.953    -1176722.298        -196.839          42.000  
  21519553.774      713728.3043      -2141.163          28.000  
  21131460.705    -3192924.071        1348.566          43.000  
  22060978.434     -460676.7823       1275.350          27.000  
  25922087.722     1337673.0723      -3790.087          18.000  
  24659014.735     -830812.9143       2529.519          11.000  
  24309797.086     -688776.365        2248.894          34.000  
  22845324.940     -400757.2243       1675.954          14.000  
  24043072.549    -2865912.9043       1733.376          18.000  
  25471900.060      669073.0813      -1959.752          10.000  
  25039659.039     -820237.1733       2551.436          14.000  
 15  4  3 20 26  0.0010000  0 11G 3G23G16G 9G 7G32G20G30G10G27G 6
  22342145.381     9461936.4933      -3458.301          19.000  
  20594167.331    -1176525.326        -197.491          42.000  
  21519957.921      715869.6463      -2143.472          14.000  
  21131204.099    -3194272.684        1348.706          43.000  
  22060736.190     -461952.2253       1275.194          26.000  
  25922804.944     1341459.9193      -3787.783          17.000  
  24658529.531     -833343.3883       2531.509          11.000  
  24309368.788     -691024.964        2247.731          34.000  
  22845006.491     -402428.6353       1672.326          16.000  
  24042745.113    -2867634.0843       1707.393          19.000  
  25472273.477      671032.9603      -1959.984          10.000  
 15  4  3 20 26  1.0010000  0 12G 3G23G16G 9G 7G32G20G30G10G27G 6G19
  22342801.475     9465394.5083      -3463.762          18.000  
  20594205.233    -1176327.872        -197.268          42.000  
  21520361.457      718010.3533      -2146.411          15.000  
  21130947.145    -3195620.954        1348.604          42.000  
  22060491.870     -463227.4793       1272.186          25.000  
  25923527.540     1345252.5273      -3781.794          18.000  
  24658046.195     -835868.2903       2524.668          11.000  
  24308940.891     -693273.336        2247.254          34.000  
  22844684.029     -404113.1963       1689.244          16.000  
  24042412.861    -2869362.9603       1743.098          17.000  
  25472649.006      673000.5753      -1969.002          10.000  
  25038694.024     -825329.3193       2562.102          15.000  
 15  4  3 20 26  2.0010000  0 11G 3G23G 9G 7G32G20G30G10G27G 6G19
  22343455.771     9468857.0343      -3455.083          18.000  
  20594243.065    -1176129.990        -198.312          42.000  
  21130690.243    -3196968.937        1346.928          42.000  
  22060248.212     -464502.3423       1274.070          26.000  
  25924246.611     1349037.4843      -3776.729          16.000  
  24657559.386     -838393.4913       2525.779          17.000  
  24308513.099     -695521.506        2247.468          35.000  
  22844364.690     -405802.4283       1689.244          14.000  
  24042083.279    -2871102.2793       1735.559          15.000  
  25473022.371      674970.1303      -1970.113          11.000  
  25038209.973     -827877.8193       2547.130          16.000  
 15  4  3 20 26  3.0010000  0 12G 3G23G16G 9G 7G32G20G30G10G27G 6G19
  22344112.946     9472318.9943      -3463.785          20.000  
  20594280.391    -1175931.940        -198.279          43.000  
  21521177.395      722297.2913      -2146.278          25.000  
  21130433.777    -3198316.834        1347.840          42.000  
  22060003.892     -465777.2633       1274.702          26.000  
  25924967.601     1352830.0363      -3796.330          15.000  
  24657074.829     -840921.6263       2515.125          12.000  
  24308085.359     -697769.735        2248.218          35.000  
  22844042.768     -407484.8873       1681.571          14.000  
  24041752.283    -2872835.2753       1721.388          12.000  
  25473398.109      676940.7913      -1971.224          11.000  
  25037727.980     -830422.1213       2535.492          17.000  
 15  4  3 20 26  4.0010000  0 10G 3G23G 9G 7G32G20G30G27G 6G19
  22344767.085     9475784.8363      -3460.139          21.000  
  20594317.996    -1175733.499        -198.920          43.000  
  21130177.241    -3199664.494        1347.323          42.000  
  22059758.332     -467052.0343       1274.716          27.000  
  25925688.959     1356620.4603      -3784.531          15.000  
  24656591.021     -843443.4083       2518.906          17.000  
  24307657.933     -700017.815        2249.054          35.000  
  24041425.720    -2874573.2303       1741.607          12.000  
  25473775.173      678910.6683      -1970.115          11.000  
  25037244.784     -832972.1353       2549.839          18.000  
 15  4  3 20 26  5.0010000  0 10G 3G23G 9G 7G32G20G30G27G 6G19
  22345425.429     9479247.9233      -3463.089          22.000  
  20594355.933    -1175534.607        -199.367          43.000  
  21129920.671    -3201011.828        1346.600          42.000  
  22059516.786     -468326.4563       1273.401          26.000  
  25926410.542     1360403.5683      -3766.250          16.000  
  24656108.034     -845959.4583       2513.113          20.000  
  24307230.263     -702265.676        2248.612          35.000  
  24041096.347    -2876301.9833       1693.676          10.000  
  25474152.237      680881.2243      -1971.006          11.000  
  25036761.692     -835520.3263       2548.663          18.000  
 15  4  3 20 26  6.0010000  0 11G 3G23G 9G 7G32G20G30G10G27G 6G19
  22346082.674     9482709.6293      -3453.561          20.000  
  20594394.359    -1175335.316        -200.251          43.000  
  21129664.397    -3202358.872        1346.662          42.000  
  22059272.396     -469600.6863       1274.039          25.000  
  25927132.423     1364181.7913      -3773.889          16.000  
  24655622.552     -848479.0243       2523.364          22.000  
  24306802.733     -704513.371        2245.463          35.000  
  22843093.476     -412492.7833       1666.587          20.000  
  24040775.019    -2877995.6493       1693.676           9.000  
  25474525.881      682852.6773      -1971.897          11.000  
  25036278.129     -838072.2053       2548.003          17.000  
 15  4  3 20 26  7.0010000  0 11G 3G23G 9G 7G32G20G30G10G27G 6G19
  22346740.879     9486169.2053      -3471.953          20.000  
  20594432.260    -1175135.705        -199.969          43.000  
  21129408.402    -3203705.749        1346.248          42.000  
  22059031.304     -470875.3823       1272.701          24.000  
  25927851.634     1367968.3993      -3799.823          16.000  
  24655138.657     -851001.1263       2519.777          23.000  
  24306374.889     -706761.004        2246.729          35.000  
  22842777.453     -414158.7783       1664.870          21.000  
  24040452.294    -2879689.3063       1693.676           8.000  
  25474900.311      684832.5263      -1981.572          11.000  
  25035797.969     -840608.5933       2530.180          17.000  
 15  4  3 20 26  8.0010000  0 11G 3G23G 9G 7G32G20G30G10G27G 6G19
  22347401.945     9489632.9863      -3469.947          21.000  
  20594470.232    -1174935.513        -200.194          43.000  
  21129152.041    -3205052.140        1346.267          42.000  
  22058786.739     -472148.9553       1273.184          24.000  
  25928572.049     1371758.3063      -3794.567          15.000  
  24654657.276     -853518.7923       2521.798          23.000  
  24305947.463     -709008.274        2244.992          35.000  
  22842464.570     -415825.8673       1665.022          22.000  
  24040129.273    -2881384.4703       1712.399           8.000  
  25475277.497      686814.9713      -1983.354          14.000  
  25035316.779     -843152.3583       2538.320          16.000  
 15  4  3 20 26  9.0010000  0 11G 3G23G 9G 7G32G20G30G10G27G 6G19
  22348065.560     9493097.8903      -3460.498          21.000  
  20594509.041    -1174734.898        -200.484          43.000  
  21128895.662    -3206398.240        1345.696          42.000  
  22058543.623     -473422.2063       1273.930          25.000  
  25929292.603     1375547.1433      -3779.017          15.000  
  24654176.714     -856037.6633       2526.381          23.000  
  24305520.194     -711255.347        2245.276          35.000  
  22842150.728     -417491.1703       1667.346          19.000  
  24039804.664    -2883096.8573       1712.399           8.000  
  25475655.067      688799.2083      -1985.137          14.000  
  25034834.368     -845695.8913       2547.983          15.000  
 15  4  3 20 26 10.0010000  0 11G 3G23G16G 9G 7G20G30G10G27G 6G19
  22348722.752     9496561.6363      -3457.500          22.000  
  20594546.315    -1174533.920        -201.140          43.000  
  21524028.254      737310.3453      -2137.612          24.000  
  21128639.545    -3207744.111        1345.751          42.000  
  22058302.705     -474695.4933       1273.379          26.000  
  24653695.961     -858557.9923       2522.135          24.000  
  24305092.786     -713502.263        2247.070          35.000  
  22841836.869     -419155.6523       1654.881          17.000  
  24039480.090    -2884809.2443       1712.399           8.000  
  25476030.038      690773.9153      -1973.686          14.000  
  25034351.136     -848242.7323       2552.071          16.000  
 15  4  3 20 26 11.0010000  0 11G 3G23G16G 9G 7G20G30G10G27G 6G19
  22349385.058     9500027.5603      -3476.777          22.000  
  20594585.369    -1174332.481        -202.202          43.000  
  21524436.746      739456.7233      -2148.850          25.000  
  21128383.516    -3209089.639        1344.920          42.000  
  22058062.258     -475968.4373       1273.265          26.000  
  24653214.195     -861075.7943       2517.827          25.000  
  24304665.762     -715748.999        2245.094          35.000  
  22841521.177     -420814.7613       1665.520          19.000  
  24039156.459    -2886521.6313       1712.399           8.000  
  25476402.897      692747.8303      -1974.137          14.000  
  25033868.114     -850786.9023       2536.808          16.000  
 15  4  3 20 26 12.0010000  0 11G 3G23G16G 9G 7G32G20G30G10G27G 6
  22350047.294     9503492.0423      -3470.463          23.000  
  20594623.497    -1174130.653        -201.425          43.000  
  21524846.809      741605.2563      -2148.345          25.000  
  21128127.888    -3210434.914        1344.753          42.000  
  22057819.578     -477241.1643       1272.295          26.000  
  25931453.149     1386904.5303      -3774.394          15.000  
  24652734.331     -863594.0943       2517.115          25.000  
  24304238.598     -717995.543        2247.680          35.000  
  22841205.275     -422479.4783       1661.920          20.000  
  24038833.612    -2888234.0183       1712.399           8.000  
  25476777.727      694722.1953      -1974.589          14.000  
 15  4  3 20 26 13.0010000  0 11G 3G23G16G 9G 7G32G20G30G10G27G 6
  22350708.709     9506957.2613      -3466.487          23.000  
  20594662.132    -1173928.244        -202.899          43.000  
  21525255.493      743753.5873      -2149.174          23.000  
  21127871.788    -3211779.750        1343.827          42.000  
  22057576.095     -478513.5323       1271.143          26.000  
  25932175.100     1390701.0253      -3786.431          15.000  
  24652253.246     -866111.7833       2517.477          25.000  
  24303811.626     -720241.766        2244.878          35.000  
  22840889.741     -424143.1403       1665.945          21.000  
  24038511.499    -2889953.9583       1721.208           8.000  
  25477152.558      696691.3693      -1968.427          14.000  
 15  4  3 20 26 14.0010000  0 11G 3G23G16G 9G 7G20G30G10G27G 6G19
  22351365.710     9510425.4783      -3470.462          24.000  
  20594700.558    -1173725.555        -202.250          43.000  
  21525664.038      745904.7973      -2153.383          21.000  
  21127616.020    -3213124.400        1344.863          42.000  
  22057334.514     -479785.7413       1271.341          26.000  
  24651775.773     -868629.2343       2516.121          24.000  
  24303384.515     -722487.919        2247.329          35.000  
  22840575.026     -425805.5223       1674.337          20.000  
  24038187.972    -2891675.5583       1722.086          15.000  
  25477528.174      698659.7073      -1968.208          18.000  
  25032420.846     -858423.6823       2539.938          13.000  
 15  4  3 20 26 15.0010000  0 11G 3G23G16G 9G 7G20G30G10G27G 6G19
  22352028.068     9513894.1103      -3463.099          23.000  
  20594738.843    -1173522.532        -203.943          43.000  
  21526072.512      748053.2463      -2153.117          19.000  
  21127360.043    -3214468.845        1343.780          42.000  
  22057092.550     -481057.9253       1271.291          25.000  
  24651297.254     -871146.2513       2517.277          24.000  
  24302957.141     -724733.978        2245.513          35.000  
  22840259.875     -427466.9103       1670.255          18.000  
  24037862.438    -2893398.0543       1722.965          15.000  
  25477900.963      700627.4763      -1966.937          17.000  
  25031937.318     -860962.8143       2534.871          14.000  
 15  4  3 20 26 16.0010000  0 12G 3G23G16G 9G 7G32G20G30G10G27G 6G19
  22352686.360     9517357.1803      -3467.747          23.000  
  20594777.234    -1173319.008        -203.308          43.000  
  21526480.812      750200.4643      -2139.265          19.000  
  21127103.944    -3215812.933        1344.284          42.000  
  22056850.027     -482329.5583       1271.868          25.000  
  25934332.243     1402045.2393      -3773.474          14.000  
  24650820.444     -873662.9343       2515.824          25.000  
  24302529.506     -726979.836        2245.746          34.000  
  22839944.550     -429131.7163       1677.129          16.000  
  24037538.841    -2895121.3993       1723.827          15.000  
  25478275.793      702598.0023      -1964.006          19.000  
  25031452.620     -863516.5873       2561.267          14.000  
 15  4  3 20 26 17.0010000  0 12G 3G23G16G 9G 7G32G20G30G10G27G 6G19
  22353345.699     9520822.1903      -3475.106          24.000  
  20594816.601    -1173115.189        -204.146          43.000  
  21526890.858      752351.0603      -2153.329          19.000  
  21126847.338    -3217156.830        1343.542          42.000  
  22056608.428     -483601.1093       1272.489          25.000  
  25935050.355     1405824.5173      -3781.605          15.000  
  24650340.301     -876179.2533       2515.981          25.000  
  24302101.121     -729225.540        2246.484          34.000  
  22839624.041     -430800.3113       1672.642          15.000  
  24037211.370    -2896845.6303       1724.706          15.000  
  25478650.136      704570.8283      -1981.401          21.000  
  25030969.947     -866068.4403       2556.977          14.000  
 15  4  3 20 26 18.0010000  0 12G 3G23G16G 9G 7G32G20G30G10G27G 6G19
  22354005.562     9524291.6973      -3470.285          24.000  
  20594855.498    -1172910.882        -204.359          43.000  
  21527300.676      754508.5523      -2150.044          19.000  
  21126592.024    -3218500.364        1343.151          42.000  
  22056364.806     -484872.4063       1271.222          25.000  
  25935773.073     1409615.9363      -3789.405          14.000  
  24649863.177     -878695.1763       2516.747          25.000  
  24301673.329     -731471.015        2243.714          33.000  
  22839305.104     -432472.9413       1672.642          12.000  
  24036884.353    -2898570.7303       1725.584          15.000  
  25479023.675      706538.9733      -1960.656          20.000  
  25030486.576     -868620.3623       2542.480          15.000  
 15  4  3 20 26 19.0010000  0 11G 3G23G16G 9G 7G32G20G30G27G 6G19
  22354664.237     9527758.7013      -3472.850          23.000  
  20594893.906    -1172706.312        -204.471          43.000  
  21527711.855      756659.5053      -2149.897          20.000  
  21126336.186    -3219843.765        1343.195          42.000  
  22056122.702     -486143.6743       1270.651          24.000  
  25936491.359     1413399.1203      -3775.056          14.000  
  24649384.029     -881210.8763       2515.723          25.000  
  24301244.856     -733716.447        2245.171          32.000  
  24036559.622    -2900289.1543       1717.637          15.000  
  25479397.965      708502.6713      -1973.782          20.000  
  25030003.833     -871167.4163       2554.647          14.000  
 15  4  3 20 26 20.0010000  0 11G 3G23G16G 9G 7G32G20G30G27G 6G19
  22355321.308     9531227.0753      -3461.765          24.000  
  20594932.942    -1172501.331        -205.333          43.000  
  21528122.459      758812.1553      -2145.098          19.000  
  21126081.466    -3221186.856        1342.726          42.000  
  22055878.957     -487414.6663       1270.772          23.000  
  25937214.758     1417186.3653      -3788.814          15.000  
  24648905.788     -883726.1323       2514.581          25.000  
  24300816.296     -735961.702        2246.272          32.000  
  24036233.320    -2902006.7763       1717.637          10.000  
  25479773.581      710470.5473      -1960.262          19.000  
  25029521.335     -873715.7713       2533.483          11.000  
 15  4  3 20 26 21.0010000  0 11G 3G23G16G 9G 7G32G20G30G27G 6G19
  22355980.979     9534696.4293      -3470.888          24.000  
  20594972.118    -1172295.891        -205.915          43.000  
  21528532.365      760960.6863      -2148.527          19.000  
  21125826.221    -3222529.623        1342.711          42.000  
  22055640.325     -488685.3273       1271.172          22.000  
  25937936.307     1420972.1523      -3797.981          16.000  
  24648425.471     -886241.0463       2515.607          25.000  
  24300387.632     -738206.729        2245.785          32.000  
  24035909.654    -2903724.4093       1717.637          10.000  
  25480146.021      712440.7583      -1959.668          19.000  
  25029041.053     -876250.3983       2564.733           9.000  
