     2.10           OBSERVATION DATA    M (MIXED)           RINEX VERSION / TYPE
RTKCONV 2.4.2                           20150404 011313 UTC PGM / RUN BY / DATE 
log: D:\150403_downtown_1loop\rover_6t_150403.ubx           COMMENT             
format: u-blox                                              COMMENT             
                                                            MARKER NAME         
                                                            MARKER NUMBER       
                                                            OBSERVER / AGENCY   
                                                            REC # / TYPE / VERS 
                                                            ANT # / TYPE        
 -2508117.6547 -4659960.6021  3548346.3146                  APPROX POSITION XYZ 
        0.0000        0.0000        0.0000                  ANTENNA: DELTA H/E/N
     1     1                                                WAVELENGTH FACT L1/2
     4    C1    L1    D1    S1                              # / TYPES OF OBSERV 
  2015     4     3    19    55   15.0010000     GPS         TIME OF FIRST OBS   
  2015     4     3    20    36   40.0010000     GPS         TIME OF LAST OBS    
                                                            END OF HEADER       
 15  4  3 19 55 15.0010000  0  8G 3G 6G16G23G 7G 9G10G 8
  21351236.989      574590.860       -3136.850          48.000  
  24991609.155      298192.3623      -1729.391          23.000  
  21081950.290      233106.183       -1326.336          45.000  
  20748259.635      -13680.619          36.862          45.000  
  22687625.601     -246746.060        1292.933          39.000  
  21785248.858     -252578.061        1335.692          40.000  
  23696741.591     -382001.075        2125.039          35.000  
  23909287.634      626320.5853      -3372.104          28.000  
 15  4  3 19 55 16.0010000  0  7G 3G16G23G 7G 9G10G 8
  21351834.485      577728.259       -3138.134          48.000  
  21082202.672      234433.437       -1327.446          45.000  
  20748252.865      -13717.075          36.049          44.000  
  22687379.099     -248038.781        1291.672          39.000  
  21784995.254     -253913.166        1334.448          40.000  
  23696336.502     -384125.969        2123.150          36.000  
  23909928.860      629692.5133      -3372.680          28.000  
 15  4  3 19 55 17.0010000  0  8G 3G 6G16G23G 7G 9G10G 8
  21352432.242      580866.264       -3137.965          49.000  
  24992272.124      301643.8373      -1736.022          22.000  
  21082454.968      235761.483       -1328.686          45.000  
  20748245.815      -13753.104          35.592          44.000  
  22687132.982     -249331.148        1292.934          39.000  
  21784741.127     -255248.009        1334.743          40.000  
  23695931.727     -386250.320        2124.600          36.000  
  23910571.290      633064.5653      -3372.667          28.000  
 15  4  3 19 55 18.0010000  0  8G 3G 6G16G23G 7G 9G10G 8
  21353029.458      584004.974       -3139.406          49.000  
  24992601.968      303374.0513      -1730.080          23.000  
  21082707.804      237090.506       -1329.276          45.000  
  20748238.852      -13788.606          35.221          44.000  
  22686886.794     -250623.034        1292.425          39.000  
  21784486.999     -256582.418        1334.021          40.000  
  23695527.440     -388374.117        2124.353          36.000  
  23911214.313      636436.8553      -3372.935          28.000  
 15  4  3 19 55 19.0010000  0  9G 3G 6G16G23G 7G 9G10G30G 8
  21353626.832      587144.158       -3139.050          49.000  
  24992936.401      305104.4903      -1737.938          23.000  
  21082960.326      238420.235       -1329.854          45.000  
  20748232.134      -13823.814          35.148          44.000  
  22686640.641     -251914.732        1292.481          39.000  
  21784232.226     -257916.659        1334.565          40.000  
  23695123.084     -390497.494        2123.577          36.000  
  25253979.217       -8497.7483       2119.087          20.000  
  23911856.638      639809.1903      -3371.278          29.000  
 15  4  3 19 55 20.0010000  0  9G 3G 6G16G23G 7G 9G10G30G 8
  21354224.519      590283.774       -3139.998          49.000  
  24993267.170      306831.6963      -1730.856          23.000  
  21083213.755      239750.599       -1330.720          45.000  
  20748225.817      -13858.797          34.630          44.000  
  22686394.261     -253206.164        1290.238          39.000  
  21783977.732     -259250.826        1333.936          40.000  
  23694719.198     -392620.570        2122.705          36.000  
  25253576.675      -10619.3263       2124.578          20.000  
  23912498.614      643181.4423      -3372.658          29.000  
 15  4  3 19 55 21.0010000  0  9G 3G 6G16G23G 7G 9G10G30G 8
  21354822.206      593423.924       -3140.336          49.000  
  24993598.113      308560.5503      -1725.898          24.000  
  21083467.045      241081.715       -1331.831          45.000  
  20748219.273      -13893.413          34.651          45.000  
  22686147.829     -254497.376        1291.491          39.000  
  21783723.326     -260584.753        1334.137          40.000  
  23694315.191     -394743.190        2121.965          37.000  
  25253168.270      -12744.0823       2122.160          20.000  
  23913139.491      646553.7433      -3372.151          29.000  
 15  4  3 19 55 22.0010000  0  9G 3G 6G16G23G 7G 9G10G30G 8
  21355419.946      596564.661       -3140.964          49.000  
  24993932.390      310288.6433      -1737.113          24.000  
  21083720.597      242413.681       -1332.344          45.000  
  20748212.485      -13927.633          33.992          45.000  
  22685901.031     -255788.239        1290.756          36.000  
  21783470.018     -261918.425        1333.394          40.000  
  23693911.794     -396865.289        2122.355          37.000  
  25252755.276      -14865.8573       2123.725          20.000  
  23913781.048      649926.2043      -3373.028          30.000  
 15  4  3 19 55 23.0010000  0 10G 3G 6G16G23G 7G 9G32G10G30G 8
  21356018.244      599705.932       -3141.418          49.000  
  24994209.429      312012.7483      -1701.244          24.000  
  21083973.782      243746.395       -1332.908          45.000  
  20748206.622      -13961.491          33.286          45.000  
  22685654.320     -257078.794        1289.949          37.000  
  21783215.856     -263251.853        1334.751          40.000  
  24697366.602      812015.3523      -4192.282          23.000  
  23693508.363     -398986.964        2122.750          37.000  
  25252341.688      -16992.4913       2118.638          19.000  
  23914424.507      653298.9133      -3370.037          30.000  
 15  4  3 19 55 24.0010000  0 10G 3G 6G16G23G 7G 9G32G10G30G 8
  21356616.525      602847.637       -3141.954          49.000  
  24994578.938      313737.3953      -1735.376          22.000  
  21084228.224      245079.777       -1333.938          45.000  
  20748200.008      -13995.101          33.333          45.000  
  22685407.783     -258369.152        1290.071          37.000  
  21782961.920     -264585.213        1333.018          40.000  
  24698175.193      816207.4913      -4190.330          24.000  
  23693104.530     -401108.339        2120.231          36.000  
  25251934.662      -19113.2133       2123.440          17.000  
  23915066.448      656671.3332      -3370.940          31.000  
 15  4  3 19 55 25.0010000  0  9G 3G 6G16G23G 7G 9G32G10G 8
  21357214.457      605989.980       -3142.598          49.000  
  24994948.115      315470.1313      -1731.444          23.000  
  21084482.578      246414.012       -1334.170          45.000  
  20748194.110      -14028.253          33.064          45.000  
  22685161.718     -259659.149        1289.389          37.000  
  21782707.775     -265918.204        1331.852          40.000  
  24698983.766      820402.3103      -4193.363          23.000  
  23692701.098     -403229.137        2121.446          36.000  
  23915703.294      660043.9732      -3373.355          30.000  
 15  4  3 19 55 26.0010000  0  9G 3G 6G16G23G 7G 9G32G10G 8
  21357812.685      609132.830       -3143.017          49.000  
  24995294.973      317204.2853      -1734.745          25.000  
  21084736.828      247748.996       -1335.191          45.000  
  20748188.020      -14061.087          32.559          45.000  
  22684915.687     -260948.837        1288.219          37.000  
  21782453.875     -267251.030        1333.560          40.000  
  24699792.357      824598.3443      -4189.263          24.000  
  23692297.073     -405349.529        2121.617          36.000  
  23916355.321      663416.7143      -3371.564          31.000  
 15  4  3 19 55 27.0010000  0  9G 3G 6G16G23G 7G 9G32G10G 8
  21358410.599      612276.400       -3143.888          49.000  
  24995613.579      318939.4463      -1735.763          25.000  
  21084991.304      249084.919       -1336.676          45.000  
  20748181.650      -14093.365          31.991          45.000  
  22684669.674     -262238.057        1289.101          37.000  
  21782199.887     -268583.471        1332.118          40.000  
  24700581.124      828791.9713      -4187.460          25.000  
  23691893.363     -407469.329        2118.907          36.000  
  23916991.364      666789.6622      -3372.670          31.000  
 15  4  3 19 55 28.0010000  0 10G 3G 6G16G23G 7G 9G32G10G30G 8
  21359008.618      615420.545       -3144.639          49.000  
  24995951.031      320674.7243      -1737.390          25.000  
  21085245.711      250421.653       -1337.161          45.000  
  20748175.560      -14125.282          31.359          45.000  
  22684423.730     -263526.989        1288.308          36.000  
  21781946.038     -269915.659        1331.575          40.000  
  24701371.096      832986.6033      -4189.515          25.000  
  23691489.983     -409588.626        2118.355          36.000  
  25250292.230      -27607.7963       2118.177          20.000  
  23917636.813      670162.6982      -3374.300          32.000  
 15  4  3 19 55 29.0010000  0 10G 3G 6G16G23G 7G 9G32G10G30G 8
  21359607.196      618565.445       -3145.081          49.000  
  24996287.244      322410.9423      -1738.270          25.000  
  21085500.257      251759.373       -1338.523          45.000  
  20748170.098      -14156.589          31.131          45.000  
  22684177.787     -264815.382        1288.333          35.000  
  21781692.120     -271247.394        1332.039          40.000  
  24702172.305      837181.3583      -4194.168          25.000  
  23691086.953     -411707.252        2118.766          36.000  
  25249886.128      -29734.8223       2129.912          21.000  
  23918279.627      673536.0713      -3371.503          32.000  
 15  4  3 19 55 30.0010000  0 10G 3G 6G16G23G 7G 9G32G10G30G 8
  21360205.983      621710.869       -3145.674          49.000  
  24996633.509      324147.0343      -1733.577          23.000  
  21085754.874      253097.857       -1338.938          45.000  
  20748164.584      -14187.553          30.650          46.000  
  22683932.280     -266103.422        1288.617          36.000  
  21781437.050     -272578.912        1331.949          40.000  
  24702966.936      841374.4783      -4197.235          25.000  
  23690683.905     -413825.434        2117.486          36.000  
  25249484.320      -31859.0973       2118.952          23.000  
  23918921.271      676909.3952      -3373.304          32.000  
 15  4  3 19 55 31.0010000  0 10G 3G 6G16G23G 7G 9G32G10G30G 8
  21360804.089      624856.842       -3145.705          48.000  
  24996966.651      325883.8753      -1744.046          21.000  
  21086009.490      254437.118       -1339.350          45.000  
  20748158.808      -14218.155          30.831          46.000  
  22683687.104     -267391.238        1289.358          36.000  
  21781182.539     -273910.200        1331.360          40.000  
  24703751.061      845570.3333      -4206.396          25.000  
  23690280.753     -415943.213        2117.759          36.000  
  25249080.783      -33980.2043       2121.076          23.000  
  23919562.706      680282.9032      -3374.181          32.000  
 15  4  3 19 55 32.0010000  0  8G 3G16G23G 7G 9G10G30G 8
  21361403.434      628003.397       -3146.861          48.000  
  21086264.751      255777.195       -1340.678          45.000  
  20748153.625      -14248.373          29.795          46.000  
  22683442.260     -268678.690        1286.300          36.000  
  21780928.795     -275241.237        1330.499          40.000  
  23689877.252     -418060.471        2115.918          36.000  
  25248678.050      -36102.1263       2116.063          24.000  
  23920204.962      683656.4422      -3374.180          33.000  
 15  4  3 19 55 33.0010000  0  8G 3G16G23G 7G 9G10G30G 8
  21362002.325      631150.395       -3147.520          49.000  
  21086520.083      257117.948       -1341.749          45.000  
  20748147.867      -14278.307          29.384          46.000  
  22683197.033     -269965.964        1288.353          36.000  
  21780675.174     -276572.197        1330.382          40.000  
  23689474.012     -420177.374        2115.857          35.000  
  25248274.356      -38224.9473       2127.585          24.000  
  23920847.391      687029.9702      -3372.276          33.000  
 15  4  3 19 55 34.0010000  0  8G 3G16G23G 7G 9G10G30G 8
  21362600.938      634298.213       -3148.551          49.000  
  21086775.310      258459.751       -1342.615          45.000  
  20748142.161      -14307.587          28.968          46.000  
  22682952.607     -271252.681        1284.897          36.000  
  21780421.430     -277902.595        1330.021          40.000  
  23689072.203     -422293.508        2116.385          39.000  
  25247869.511      -40345.9533       2124.840          23.000  
  23921489.856      690403.8532      -3375.983          34.000  
 15  4  3 19 55 35.0010000  0  8G 3G16G23G 7G 9G10G30G 8
  21363200.073      637446.460       -3148.761          49.000  
  21087031.148      259802.226       -1342.743          45.000  
  20748136.734      -14336.648          28.716          46.000  
  22682707.920     -272539.112        1286.474          38.000  
  21780168.053     -279232.910        1329.942          39.000  
  23688670.307     -424409.398        2115.577          37.000  
  25247465.766      -42469.8433       2115.348          23.000  
  23922132.024      693777.7742      -3372.719          34.000  
 15  4  3 19 55 36.0010000  0  8G 3G16G23G 7G 9G10G30G 8
  21363799.087      640595.212       -3149.029          48.000  
  21087286.514      261145.426       -1343.875          45.000  
  20748131.847      -14365.361          28.080          46.000  
  22682462.535     -273825.333        1286.121          35.000  
  21779914.222     -280562.949        1330.379          39.000  
  23688267.085     -426524.828        2114.370          37.000  
  25247060.153      -44592.2043       2127.861          22.000  
  23922774.209      697151.6952      -3374.733          34.000  
 15  4  3 19 55 37.0010000  0  8G 3G16G23G 7G 9G10G30G 8
  21364397.682      643744.418       -3149.522          48.000  
  21087542.962      262489.293       -1344.566          46.000  
  20748126.543      -14393.822          28.968          46.000  
  22682217.657     -275111.344        1285.905          37.000  
  21779659.589     -281892.9703       1333.482          39.000  
  23687864.386     -428639.875        2115.350          37.000  
  25246656.564      -46711.9513       2121.396          22.000  
  23923416.587      700525.552       -3374.644          34.000  
 15  4  3 19 55 38.0010000  0  8G 3G16G23G 7G 9G10G30G 8
  21364996.504      646894.058       -3149.578          48.000  
  21087799.044      263833.847       -1345.342          46.000  
  20748121.726      -14422.029          28.100          47.000  
  22681972.917     -276397.205        1287.169          37.000  
  21779405.967     -283222.8782       1328.001          39.000  
  23687461.723     -430754.659        2115.019          37.000  
  25246253.045      -48832.1273       2119.283          22.000  
  23924058.301      703899.4353      -3374.398          33.000  
 15  4  3 19 55 39.0010000  0  8G 3G16G23G 7G 9G10G30G 8
  21365595.517      650044.284       -3149.643          48.000  
  21088055.685      265179.211       -1345.435          46.000  
  20748116.613      -14449.798          28.261          47.000  
  22681727.724     -277682.666        1288.325          36.000  
  21779152.398     -284552.3822       1329.366          39.000  
  23687060.036     -432868.859        2115.260          38.000  
  25245852.179      -50951.9813       2114.562          22.000  
  23924700.242      707273.4782      -3373.944          32.000  
 15  4  3 19 55 40.0010000  0  8G 3G16G23G 7G 9G10G30G 8
  21366195.142      653195.177       -3151.286          47.000  
  21088312.657      266525.453       -1346.617          46.000  
  20748111.605      -14477.133          27.574          47.000  
  22681482.549     -278967.712        1286.925          36.000  
  21778899.370     -285881.6552       1328.914          39.000  
  23686657.198     -434982.551        2113.998          37.000  
  25245449.184      -53072.8483       2123.598          21.000  
  23925342.026      710647.5852      -3374.194          33.000  
 15  4  3 19 55 41.0010000  0  7G 3G16G23G 7G 9G10G 8
  21366794.434      656346.491       -3151.431          47.000  
  21088569.280      267872.391       -1346.629          46.000  
  20748106.422      -14504.181          26.824          47.000  
  22681238.647     -280252.593        1283.799          38.000  
  21778645.940     -287210.7752       1328.580          39.000  
  23686255.564     -437095.862        2112.901          38.000  
  23925984.160      714021.6732      -3376.007          34.000  
 15  4  3 19 55 42.0010000  0  7G 3G16G23G 7G 9G10G 8
  21367393.972      659498.505       -3152.127          47.000  
  21088825.554      269220.226       -1348.566          45.000  
  20748101.502      -14530.715          26.258          47.000  
  22680993.279     -281537.059        1282.550          36.000  
  21778392.808     -288539.5322       1328.619          39.000  
  23685853.144     -439208.606        2112.184          38.000  
  23926626.310      717396.0372      -3375.537          34.000  
 15  4  3 19 55 43.0010000  0  7G 3G16G23G 7G 9G10G 8
  21367994.137      662651.039       -3153.057          47.000  
  21089082.089      270568.824       -1349.155          45.000  
  20748096.022      -14556.924          25.573          47.000  
  22680749.133     -282821.213        1286.421          36.000  
  21778139.378     -289868.0982       1328.668          39.000  
  23685451.650     -441320.877        2111.211          38.000  
  23927268.688      720770.4942      -3374.411          34.000  
 15  4  3 19 55 44.0010000  0  7G 3G16G23G 7G 9G10G 8
  21368594.302      665804.168       -3153.446          47.000  
  21089338.101      271918.251       -1349.984          45.000  
  20748090.892      -14582.719          25.817          47.000  
  22680504.621     -284105.004        1283.177          37.000  
  21777887.327     -291196.3572       1328.233          40.000  
  23685050.207     -443432.648        2111.014          38.000  
  23927910.978      724145.0092      -3373.446          34.000  
 15  4  3 19 55 45.0010000  0  7G 3G16G23G 7G 9G10G 8
  21369194.817      668957.818       -3154.340          48.000  
  21089594.585      273268.422       -1350.257          45.000  
  20748086.110      -14608.170          25.027          46.000  
  22680261.400     -285388.462        1282.708          37.000  
  21777634.997     -292524.4332       1327.031          40.000  
  23684647.910     -445544.023        2110.560          37.000  
  23928553.338      727519.6262      -3375.724          35.000  
 15  4  3 19 55 46.0010000  0  7G 3G16G23G 7G 9G10G 8
  21369795.104      672112.054       -3154.942          48.000  
  21089851.016      274619.432       -1351.118          45.000  
  20748080.998      -14633.212          25.120          47.000  
  22680017.411     -286671.677        1282.515          37.000  
  21777382.388     -293852.2312       1327.182          40.000  
  23684245.927     -447654.909        2108.902          36.000  
  23929196.064      730894.3302      -3374.883          35.000  
 15  4  3 19 55 47.0010000  0  7G 3G16G23G 7G 9G10G 8
  21370395.933      675266.720       -3154.689          47.000  
  21090108.179      275971.091       -1351.708          44.000  
  20748076.618      -14658.000          24.794          47.000  
  22679772.951     -287954.639        1281.595          36.000  
  21777130.110     -295179.8952       1328.992          40.000  
  23683844.013     -449765.393        2112.023          36.000  
  23929838.668      734269.0302      -3374.937          35.000  
 15  4  3 19 55 48.0010000  0  8G 3G 6G16G23G 7G 9G10G 8
  21370996.813      678421.919       -3155.675          48.000  
  25002517.775      355318.7903      -1751.581          22.000  
  21090365.151      277323.518       -1353.033          44.000  
  20748072.307      -14682.421          24.304          46.000  
  22679528.648     -289237.333        1282.385          36.000  
  21776877.710     -296507.3712       1327.565          41.000  
  23683442.292     -451875.484        2110.541          36.000  
  23930481.185      737643.7792      -3374.755          35.000  
 15  4  3 19 55 49.0010000  0  8G 3G 6G16G23G 7G 9G10G 8
  21371597.764      681577.777       -3155.874          48.000  
  25002849.975      357067.8433      -1751.030          21.000  
  21090622.507      278676.821       -1353.783          44.000  
  20748068.067      -14706.376          24.281          46.000  
  22679284.083     -290519.594        1283.154          36.000  
  21776625.380     -297834.521        1326.758          41.000  
  23683041.007     -453984.930        2111.269          36.000  
  23931123.266      741018.741       -3374.679          35.000  
 15  4  3 19 55 50.0010000  0  8G 3G 6G16G23G 7G 9G10G 8
  21372198.453      684734.207       -3156.740          48.000  
  25003183.658      358814.0803      -1750.555          20.000  
  21090879.566      280030.955       -1354.307          44.000  
  20748063.286      -14729.943          23.723          46.000  
  22679039.152     -291801.602        1278.807          35.000  
  21776373.573     -299161.354        1326.418          41.000  
  23682640.262     -456094.022        2109.772          36.000  
  23931765.277      744393.777       -3375.717          34.000  
 15  4  3 19 55 51.0010000  0  9G 3G 6G16G23G 7G 9G10G30G 8
  21372799.543      687891.165       -3157.194          48.000  
  25003513.711      360556.6743      -1751.592          19.000  
  21091137.323      281385.809       -1355.410          43.000  
  20748058.452      -14753.158          23.263          46.000  
  22678795.006     -293083.224        1283.238          35.000  
  21776122.517     -300488.032        1325.993          41.000  
  23682239.169     -458202.630        2107.928          36.000  
  25241015.467      -76383.9653       2123.039          19.000  
  23932407.567      747768.894       -3375.731          34.000  
 15  4  3 19 55 52.0010000  0  9G 3G 6G16G23G 7G 9G10G30G 8
  21373400.581      691048.773       -3157.437          48.000  
  25003841.880      362302.9093      -1763.627          18.000  
  21091395.098      282741.587       -1356.098          43.000  
  20748053.828      -14775.896          22.697          46.000  
  22678550.999     -294364.434        1283.784          35.000  
  21775870.797     -301814.338        1327.033          42.000  
  23681838.111     -460310.637        2107.560          36.000  
  25240617.812      -78503.4153       2114.429          19.000  
  23933049.578      751144.202       -3374.916          34.000  
 15  4  3 19 55 53.0010000  0  9G 3G 6G16G23G 7G 9G10G30G 8
  21374002.090      694206.848       -3158.667          48.000  
  25004175.929      364069.0373      -1768.190          17.000  
  21091653.623      284098.048       -1357.085          44.000  
  20748049.203      -14798.347          21.913          46.000  
  22678307.045     -295645.462        1281.549          35.000  
  21775619.095     -303140.514        1325.913          42.000  
  23681437.140     -462418.270        2106.424          35.000  
  25240219.057      -80620.2953       2104.557          19.000  
  23933691.868      754519.491       -3374.791          34.000  
 15  4  3 19 55 54.0010000  0  8G 3G16G23G 7G 9G10G30G 8
  21374603.372      697365.842       -3159.086          48.000  
  21091912.253      285455.629       -1358.137          44.000  
  20748045.068      -14820.084          21.098          46.000  
  22678062.463     -296925.2893       1282.621          33.000  
  21775367.306     -304466.134        1325.204          43.000  
  23681036.134     -464525.125        2106.972          36.000  
  25239817.545      -82733.9923       2120.407          20.000  
  23934333.914      757895.158       -3376.050          35.000  
 15  4  3 19 55 55.0010000  0  9G 3G 6G16G23G 7G 9G10G30G 8
  21375204.043      700525.462       -3159.888          49.000  
  25004909.816      367572.8553      -1750.171          21.000  
  21092170.865      286814.102       -1359.015          44.000  
  20748040.775      -14841.340          21.606          46.000  
  22677818.474     -298205.3742       1277.180          35.000  
  21775116.930     -305791.343        1325.819          44.000  
  23680635.337     -466631.412        2105.462          36.000  
  25239414.898      -84853.4703       2113.977          21.000  
  23934976.065      761271.064       -3374.185          34.000  
 15  4  3 19 55 56.0010000  0  9G 3G 6G16G23G 7G 9G10G30G 8
  21375805.675      703685.506       -3160.651          49.000  
  25005247.233      369322.1073      -1742.154          23.000  
  21092429.442      288173.223       -1359.758          44.000  
  20748036.604      -14862.351          20.279          46.000  
  22677574.886     -299485.0552       1280.121          36.000  
  21774866.223     -307116.521        1324.868          45.000  
  23680234.645     -468737.358        2105.156          36.000  
  25239011.502      -86970.3133       2123.050          21.000  
  23935618.006      764646.937       -3376.834          34.000  
 15  4  3 19 55 57.0010000  0  9G 3G 6G16G23G 7G 9G10G30G 8
  21376406.974      706846.413       -3161.376          48.000  
  25005587.355      371071.8473      -1750.654          24.000  
  21092688.089      289533.422       -1360.615          44.000  
  20748032.521      -14882.695          20.089          46.000  
  22677331.892     -300764.2522       1278.481          36.000  
  21774614.731     -308441.136        1324.547          44.000  
  23679834.075     -470842.560        2104.642          35.000  
  25238609.815      -89087.6113       2123.181          21.000  
  23936260.139      768023.162       -3375.964          33.000  
 15  4  3 19 55 58.0010000  0  9G 3G 6G16G23G 7G 9G10G30G 8
  21377009.251      710007.564       -3161.460          48.000  
  25005924.616      372822.8303      -1749.152          25.000  
  21092946.946      290894.146       -1360.735          44.000  
  20748028.856      -14902.940          20.619          46.000  
  22677088.148     -302043.3302       1278.701          36.000  
  21774362.523     -309765.791        1324.802          44.000  
  23679433.279     -472947.546        2104.768          35.000  
  25238207.204      -91201.8233       2112.855          20.000  
  23936902.447      771399.211       -3376.258          33.000  
 15  4  3 19 55 59.0010000  0  9G 3G 6G16G23G 7G 9G10G30G 8
  21377610.882      713169.129       -3161.963          48.000  
  25006259.311      374574.0453      -1751.863          25.000  
  21093205.733      292255.451       -1361.488          44.000  
  20748024.843      -14922.989          20.029          46.000  
  22676845.328     -303322.2962       1279.078          36.000  
  21774111.711     -311090.383        1323.978          45.000  
  23679032.639     -475052.249        2104.360          35.000  
  25237802.568      -93319.5483       2113.101          18.000  
  23937544.597      774775.216       -3375.763          33.000  
 15  4  3 19 56  0.0010000  0  9G 3G 6G16G23G 7G 9G10G30G 8
  21378212.339      716331.238       -3162.357          48.000  
  25006586.276      376325.7373      -1752.735          26.000  
  21093464.624      293617.548       -1362.209          43.000  
  20748021.091      -14942.661          19.504          46.000  
  22676602.578     -304600.9902       1277.945          37.000  
  21773860.829     -312414.751        1324.740          45.000  
  23678632.139     -477156.546        2103.768          35.000  
  25237399.293      -95432.2213       2118.064          17.000  
  23938186.486      778151.177       -3376.570          33.000  
 15  4  3 19 56  1.0010000  0  9G 3G 6G16G23G 7G 9G10G30G 8
  21378814.301      719493.900       -3163.053          48.000  
  25006922.594      378077.9433      -1752.684          26.000  
  21093723.969      294980.427       -1363.146          44.000  
  20748017.112      -14961.965          19.005          46.000  
  22676359.269     -305879.3912       1277.567          37.000  
  21773609.755     -313738.880        1323.761          46.000  
  23678232.041     -479260.288        2103.740          35.000  
  25236993.977      -97548.2353       2112.338          16.000  
  23938829.230      781527.344       -3375.633          32.000  
 15  4  3 19 56  2.0010000  0  9G 3G 6G16G23G 7G 9G10G30G 8
  21379416.578      722657.049       -3163.220          48.000  
  25007250.378      379830.6263      -1753.248          25.000  
  21093983.384      296344.035       -1363.835          44.000  
  20748013.326      -14980.927          18.713          45.000  
  22676115.472     -307157.4492       1279.721          36.000  
  21773358.106     -315062.817        1324.383          46.000  
  23677831.209     -481363.656        2103.570          34.000  
  25236590.807      -99660.2203       2112.708          16.000  
  23939471.852      784903.450       -3375.735          33.000  
 15  4  3 19 56  3.0010000  0  9G 3G 6G16G23G 7G 9G10G30G 8
  21380018.524      725820.669       -3164.382          48.000  
  25007583.137      381583.6243      -1756.050          24.000  
  21094242.991      297708.354       -1364.929          43.000  
  20748009.329      -14999.603          18.116          45.000  
  22675871.745     -308435.3182       1276.711          35.000  
  21773106.543     -316386.620        1324.038          46.000  
  23677430.901     -483466.1463       2101.977          34.000  
  25236186.591     -101774.7143       2105.292          15.000  
  23940114.107      788279.600       -3376.163          32.000  
 15  4  3 19 56  4.0010000  0  9G 3G 6G16G23G 7G 9G10G30G 8
  21380620.015      728984.924       -3163.967          49.000  
  25007908.479      383337.9413      -1751.263          24.000  
  21094502.546      299073.512       -1365.160          43.000  
  20748006.119      -15017.816          18.333          45.000  
  22675628.629     -309712.7982       1277.684          35.000  
  21772854.876     -317710.067        1323.291          45.000  
  23677031.326     -485568.6102       2102.393          34.000  
  25235779.425     -103896.0923       2117.851          15.000  
  23940756.554      791655.9533      -3377.358          32.000  
 15  4  3 19 56  5.0010000  0  9G 3G 6G16G23G 7G 9G10G30G 8
  21381221.734      732149.626       -3164.796          49.000  
  25008237.433      385091.9583      -1755.447          24.000  
  21094762.292      300439.342       -1366.260          44.000  
  20748002.175      -15035.767          17.672          45.000  
  22675385.460     -310990.1122       1277.447          34.000  
  21772603.104     -319033.429        1323.672          45.000  
  23676632.292     -487670.6702       2103.042          35.000  
  25235374.039     -106010.5193       2113.211          15.000  
  23941398.774      795032.2963      -3375.353          33.000  
 15  4  3 19 56  6.0010000  0  8G 3G 6G16G23G 7G 9G10G 8
  21381824.447      735314.987       -3165.595          47.000  
  25008572.773      386845.7853      -1743.843          23.000  
  21095022.265      301806.064       -1366.631          44.000  
  20747999.331      -15053.250          18.017          45.000  
  22675141.977     -312267.0712       1278.657          34.000  
  21772349.919     -320356.482        1322.850          45.000  
  23676233.206     -489772.2482       2101.847          35.000  
  23942041.972      798408.7822      -3377.378          33.000  
 15  4  3 19 56  7.0010000  0  8G 3G 6G16G23G 7G 9G10G 8
  21382427.125      738480.734       -3165.728          47.000  
  25008905.950      388601.3713      -1751.779          24.000  
  21095282.832      303173.425       -1368.157          44.000  
  20747996.312      -15070.505          17.141          45.000  
  22674898.407     -313544.295        1276.549          34.000  
  21772097.467     -321679.387        1322.939          45.000  
  23675833.910     -491873.4682       2101.117          37.000  
  23942684.768      801785.1912      -3376.755          33.000  
 15  4  3 19 56  8.0010000  0  8G 3G 6G16G23G 7G 9G10G 8
  21383028.512      741647.330       -3166.735          47.000  
  25009238.691      390358.5583      -1757.241          25.000  
  21095543.399      304541.898       -1369.110          44.000  
  20747993.014      -15087.077          16.011          44.000  
  22674656.198     -314820.417        1276.755          36.000  
  21771846.376     -323001.786        1322.013          46.000  
  23675435.259     -493973.9252       2099.936          36.000  
  23943326.640      805162.0032      -3377.871          32.000  
 15  4  3 19 56  9.0010000  0  8G 3G 6G16G23G 7G 9G10G 8
  21383631.120      744814.388       -3167.553          47.000  
  25009569.896      392114.4533      -1755.688          25.000  
  21095804.245      305911.028       -1370.150          44.000  
  20747989.593      -15103.334          16.205          44.000  
  22674414.617     -316096.272        1275.267          37.000  
  21771594.709     -324324.011        1321.550          47.000  
  23675036.714     -496073.9942       2099.239          36.000  
  23943969.087      808538.8863      -3376.425          31.000  
 15  4  3 19 56 10.0010000  0  8G 3G 6G16G23G 7G 9G10G 8
  21384233.501      747982.091       -3168.125          46.000  
  25009901.922      393871.2183      -1756.076          25.000  
  21096064.707      307281.064       -1370.748          44.000  
  20747986.871      -15119.187          15.611          44.000  
  22674172.775     -317371.733        1275.105          37.000  
  21771343.251     -325645.920        1321.875          46.000  
  23674637.924     -498173.5352       2099.842          37.000  
  23944611.133      811915.7643      -3380.391          30.000  
 15  4  3 19 56 11.0010000  0  8G 3G 6G16G23G 7G 9G10G 8
  21384836.023      751150.155       -3168.692          46.000  
  25010232.167      395628.0623      -1757.755          25.000  
  21096325.971      308651.677       -1371.058          44.000  
  20747983.556      -15134.810          15.234          44.000  
  22673929.553     -318647.127        1272.148          36.000  
  21771092.230     -326967.763        1321.664          47.000  
  23674239.448     -500272.7812       2098.620          37.000  
  23945253.789      815292.6983      -3377.441          29.000  
 15  4  3 19 56 12.0010000  0  8G 3G 6G16G23G 7G 9G10G 8
  21385437.898      754318.715       -3168.764          46.000  
  25010565.309      397385.7763      -1757.808          25.000  
  21096587.218      310023.024       -1372.000          44.000  
  20747980.659      -15150.114          14.666          44.000  
  22673686.769     -319922.183        1273.603          35.000  
  21770841.016     -328289.426        1321.221          47.000  
  23673840.973     -502371.6322       2097.800          38.000  
  23945896.114      818669.6033      -3373.863          28.000  
 15  4  3 19 56 13.0010000  0  9G 3G 6G16G23G 7G 9G10G30G 8
  21386040.437      757487.906       -3169.617          46.000  
  25010898.870      399144.0483      -1757.635          26.000  
  21096848.675      311395.225       -1372.632          44.000  
  20747977.588      -15164.985          14.456          44.000  
  22673444.263     -321196.910        1273.148          36.000  
  21770589.367     -329610.779        1320.865          47.000  
  23673442.061     -504470.418        2098.732          37.000  
  25232223.524     -122921.1033       2117.354          19.000  
  23946538.282      822046.6773      -3373.571          28.000  
 15  4  3 19 56 14.0010000  0  9G 3G 6G16G23G 7G 9G10G30G 8
  21386644.092      760657.568       -3170.325          47.000  
  25011233.513      400902.6393      -1758.900          25.000  
  21097110.079      312768.127       -1373.558          45.000  
  20747975.284      -15179.551          14.005          45.000  
  22673201.565     -322471.363        1274.652          35.000  
  21770337.735     -330931.973        1320.992          46.000  
  23673043.079     -506568.345        2097.633          37.000  
  25231827.003     -125035.0643       2103.795          20.000  
  23947180.869      825423.6403      -3381.283          30.000  
 15  4  3 19 56 15.0010000  0  9G 3G 6G16G23G 7G 9G10G30G 8
  21387246.910      763827.916       -3170.920          46.000  
  25011569.185      402661.8813      -1759.879          24.000  
  21097371.292      314141.959       -1374.512          44.000  
  20747973.033      -15193.586          13.847          45.000  
  22672959.827     -323745.358        1273.200          36.000  
  21770086.277     -332252.773        1320.637          46.000  
  23672643.940     -508665.658        2096.465          38.000  
  25231425.822     -127148.5283       2105.597          22.000  
  23947823.159      828800.9643      -3381.256          29.000  
 15  4  3 19 56 16.0010000  0  9G 3G 6G16G23G 7G 9G10G30G 8
  21387850.391      766998.990       -3170.878          46.000  
  25011904.805      404421.9193      -1759.150          23.000  
  21097633.132      315516.730       -1374.876          44.000  
  20747970.695      -15207.121          13.500          44.000  
  22672718.561     -325018.911        1273.783          38.000  
  21769834.383     -333573.197        1320.498          46.000  
  23672245.534     -510762.367        2096.824          38.000  
  25231022.740     -129263.1883       2123.505          22.000  
  23948465.362      832178.4463      -3382.250          28.000  
 15  4  3 19 56 17.0010000  0  9G 3G 6G16G23G 7G 9G10G30G 8
  21388453.226      770170.277       -3172.207          46.000  
  25012237.476      406181.4763      -1756.611          23.000  
  21097894.222      316892.064       -1375.884          43.000  
  20747967.711      -15220.527          13.374          43.000  
  22672476.038     -326292.334        1274.012          37.000  
  21769583.693     -334893.594        1320.173          47.000  
  23671847.425     -512858.795        2096.816          38.000  
  25230620.704     -131376.4643       2121.157          23.000  
  23949107.164      835553.7323      -3377.344          27.000  
 15  4  3 19 56 18.0010000  0  9G 3G 6G16G23G 7G 9G10G30G 8
  21389056.428      773342.514       -3172.668          45.000  
  25012569.641      407930.7723      -1760.656          23.000  
  21098155.731      318268.490       -1376.692          44.000  
  20747965.023      -15233.238          12.388          44.000  
  22672234.317     -327565.237        1272.031          39.000  
  21769334.277     -336213.470        1319.958          48.000  
  23671448.967     -514954.494        2096.653          36.000  
  25230217.656     -133488.9193       2111.017          24.000  
  23949759.854      838931.2753      -3376.209          26.000  
 15  4  3 19 56 19.0010000  0  9G 3G 6G16G23G 7G 9G10G30G 8
  21389659.333      776515.199       -3172.925          46.000  
  25012906.378      409692.9763      -1757.223          23.000  
  21098417.903      319645.602       -1377.076          43.000  
  20747962.615      -15245.657          12.239          44.000  
  22671992.771     -328837.873        1271.604          39.000  
  21769083.640     -337533.206        1319.272          48.000  
  23671051.189     -517049.799        2094.312          37.000  
  25229816.877     -135600.7933       2111.750          25.000  
  23950417.222      842309.0383      -3376.736          25.000  
 15  4  3 19 56 20.0010000  0  8G 3G 6G16G23G 7G 9G10G30
  21390262.953      779688.470       -3174.013          45.000  
  25013239.607      411453.5623      -1763.814          24.000  
  21098680.128      321023.511       -1378.489          44.000  
  20747960.434      -15257.685          11.819          44.000  
  22671751.539     -330110.159        1272.621          39.000  
  21768832.706     -338852.664        1319.262          48.000  
  23670652.870     -519144.637        2094.288          37.000  
  25229415.662     -137712.6783       2112.101          25.000  
 15  4  3 19 56 21.0010000  0  8G 3G 6G16G23G 7G 9G10G30
  21390866.382      782862.272       -3174.032          45.000  
  25013574.651      413214.2643      -1765.117          25.000  
  21098942.230      322402.211       -1379.656          43.000  
  20747958.183      -15269.327          11.545          43.000  
  22671509.959     -331382.148        1271.427          39.000  
  21768582.033     -340171.890        1319.547          48.000  
  23670254.325     -521238.994        2095.577          37.000  
  25229012.754     -139824.3953       2111.049          25.000  
 15  4  3 19 56 22.0010000  0  9G 3G 6G16G23G 7G 9G10G30G 8
  21391470.665      786036.606       -3175.150          46.000  
  25013911.092      414977.6433      -1763.644          25.000  
  21099204.699      323781.660       -1379.807          43.000  
  20747956.106      -15280.602          11.176          44.000  
  22671269.285     -332653.876        1270.991          41.000  
  21768331.501     -341490.906        1319.147          48.000  
  23669856.966     -523332.931        2092.676          37.000  
  25228561.107     -141935.9433       2112.497          25.000  
  23952399.252      852441.6233      -3377.236          25.000  
 15  4  3 19 56 23.0010000  0  9G 3G 6G16G23G 7G 9G10G30G 8
  21392074.739      789211.619       -3175.293          46.000  
  25014249.190      416743.2603      -1759.610          25.000  
  21099467.743      325162.015       -1380.984          43.000  
  20747954.379      -15291.367          11.250          44.000  
  22671028.612     -333925.117        1271.253          41.000  
  21768080.689     -342809.547        1318.587          48.000  
  23669459.764     -525426.238        2093.518          37.000  
  25228147.485     -144047.1513       2111.958          26.000  
  23953040.984      855820.0283      -3378.952          25.000  
 15  4  3 19 56 24.0010000  0 10G 3G 6G16G23G 7G 9G10G30G 8G27
  21392679.599      792387.283       -3176.400          46.000  
  25014584.775      418507.1913      -1764.795          25.000  
  21099731.311      326543.276       -1382.032          43.000  
  20747952.197      -15301.707          10.331          44.000  
  22670787.048     -335195.989        1270.780          41.000  
  21767829.894     -344127.861        1318.215          47.000  
  23669062.370     -527518.984        2092.502          37.000  
  25227732.955     -146158.0343       2110.627          26.000  
  23953670.343      859198.6243      -3378.114          25.000  
  24807015.674     -187128.7783       1667.687          25.000  
 15  4  3 19 56 25.0010000  0  9G 3G 6G16G23G 7G 9G10G30G27
  21393283.830      795563.526       -3176.170          46.000  
  25014923.030      420271.8443      -1763.925          27.000  
  21099994.478      327925.323       -1381.913          43.000  
  20747950.086      -15311.609          10.231          43.000  
  22670546.043     -336466.503        1270.783          41.000  
  21767578.977     -345445.899        1317.834          47.000  
  23668664.819     -529611.274        2092.876          37.000  
  25227335.945     -148268.6283       2110.667          28.000  
  24806700.017     -188797.1713       1669.774          25.000  
 15  4  3 19 56 26.0010000  0  9G 3G 6G16G23G 7G 9G10G30G27
  21393888.881      798740.307       -3176.411          46.000  
  25015259.941      422036.9633      -1764.939          27.000  
  21100257.924      329308.148       -1382.853          43.000  
  20747948.097      -15321.162           9.470          43.000  
  22670306.277     -337736.719        1270.576          42.000  
  21767328.061     -346763.732        1317.976          47.000  
  23668267.076     -531703.087        2091.704          37.000  
  25226929.808     -150379.0603       2110.501          28.000  
  24806373.610     -190465.6303       1666.804          25.000  
 15  4  3 19 56 27.0010000  0  9G 3G 6G16G23G 7G 9G10G30G27
  21394493.950      801917.808       -3177.722          47.000  
  25015597.167      423802.6903      -1767.081          27.000  
  21100521.527      330691.912       -1384.455          43.000  
  20747946.317      -15330.167           8.923          44.000  
  22670065.918     -339006.486        1269.759          42.000  
  21767077.441     -348081.138        1317.359          47.000  
  23667869.595     -533794.274        2091.418          38.000  
  25226536.550     -152489.1393       2109.471          28.000  
  24806052.300     -192133.6183       1666.051          25.000  
 15  4  3 19 56 28.0010000  0 10G 3G 6G16G23G 7G 9G10G30G 8G27
  21395099.141      805095.924       -3178.688          46.000  
  25015935.369      425569.0263      -1767.091          28.000  
  21100785.235      332076.535       -1385.027          43.000  
  20747944.781      -15338.714           8.218          44.000  
  22669826.117     -340275.799        1268.607          44.000  
  21766826.925     -349398.233        1316.890          47.000  
  23667472.376     -535884.916        2091.596          37.000  
  25226136.033     -154598.8263       2109.677          29.000  
  23956258.996      872718.2713      -3378.622          25.000  
  24805732.367     -193801.3713       1665.298          24.000  
 15  4  3 19 56 29.0010000  0  9G 3G 6G16G23G 7G 9G10G30G27
  21395703.896      808274.736       -3178.769          46.000  
  25016270.239      427335.9953      -1766.244          27.000  
  21101048.628      333462.111       -1385.662          44.000  
  20747943.333      -15346.746           7.915          43.000  
  22669585.496     -341544.737        1268.933          43.000  
  21766575.538     -350714.940        1317.118          47.000  
  23667075.244     -537974.957        2089.687          37.000  
  25225739.704     -156708.2263       2110.056          30.000  
  24805413.395     -195468.2273       1664.012          23.000  
 15  4  3 19 56 30.0010000  0  9G 3G 6G16G23G 7G 9G10G30G27
  21396308.651      811454.307       -3179.862          45.000  
  25016605.091      429103.5823      -1768.377          28.000  
  21101312.179      334848.670       -1386.549          44.000  
  20747942.321      -15354.206           6.575          43.000  
  22669345.172     -342813.117        1268.346          43.000  
  21766325.057     -352031.229        1316.381          47.000  
  23666677.955     -540064.350        2088.762          37.000  
  25225336.132     -158817.1872       2107.935          31.000  
  24805094.405     -197135.4073       1667.038          23.000  
 15  4  3 19 56 31.0010000  0  9G 3G 6G16G23G 7G 9G10G30G27
  21396914.679      814634.450       -3180.344          46.000  
  25016944.585      430871.7533      -1768.372          27.000  
  21101575.991      336236.020       -1387.520          43.000  
  20747941.012      -15361.223           7.016          43.000  
  22669103.835     -344081.168        1267.431          44.000  
  21766075.013     -353347.231        1315.837          47.000  
  23666280.893     -542153.170        2089.088          36.000  
  25224935.633     -160925.8452       2107.420          32.000  
  24804775.031     -198800.9133       1660.833          23.000  
 15  4  3 19 56 32.0010000  0  9G 3G 6G16G23G 7G 9G10G30G27
  21397520.272      817815.174       -3181.082          46.000  
  25017282.736      432640.4863      -1768.566          27.000  
  21101839.734      337624.200       -1388.358          44.000  
  20747940.209      -15367.873           6.197          43.000  
  22668862.953     -345348.871        1267.973          44.000  
  21765824.253     -354662.963        1315.708          47.000  
  23665883.586     -544241.565        2088.188          37.000  
  25224535.272     -163034.3153       2108.352          31.000  
  24804455.482     -200465.7343       1658.675          21.000  
 15  4  3 19 56 33.0010000  0  9G 3G 6G16G23G 7G 9G10G30G27
  21398125.759      820996.580       -3181.796          46.000  
  25017623.887      434409.8103      -1769.823          27.000  
  21102103.093      339013.304       -1389.829          43.000  
  20747938.935      -15373.989           5.543          43.000  
  22668621.633     -346616.145        1267.505          43.000  
  21765573.581     -355978.341        1314.804          46.000  
  23665486.838     -546329.331        2087.767          36.000  
  25224134.929     -165142.4642       2106.384          31.000  
  24804136.196     -202132.2513       1666.827          21.000  
 15  4  3 19 56 34.0010000  0  9G 3G 6G16G23G 7G 9G10G30G27
  21398731.544      824178.717       -3182.159          45.000  
  25017963.119      436179.8763      -1770.395          27.000  
  21102367.149      340403.392       -1390.637          43.000  
  20747937.435      -15379.565           5.450          43.000  
  22668381.204     -347882.892        1266.427          44.000  
  21765323.013     -357293.260        1314.897          46.000  
  23665089.793     -548416.441        2087.826          37.000  
  25223734.168     -167250.1092       2107.550          32.000  
  24803819.614     -203800.0243       1667.983          21.000  
 15  4  3 19 56 35.0010000  0  9G 3G 6G16G23G 7G 9G10G30G27
  21399337.398      827361.571       -3184.094          46.000  
  25018303.486      437950.9913      -1770.279          27.000  
  21102631.712      341794.342       -1391.252          42.000  
  20747935.585      -15384.626           4.196          42.000  
  22668140.356     -349149.222        1266.446          44.000  
  21765072.027     -358607.839        1313.955          45.000  
  23664693.080     -550502.977        2085.884          36.000  
  25223333.423     -169357.4562       2106.265          32.000  
  24803502.282     -205462.6473       1663.919          22.000  
 15  4  3 19 56 36.0010000  0  9G 3G 6G16G23G 7G 9G10G30G27
  21399942.816      830544.967       -3183.676          45.000  
  25018640.205      439722.2243      -1772.616          27.000  
  21102896.222      343186.169       -1392.262          43.000  
  20747934.800      -15389.250           4.252          43.000  
  22667899.927     -350415.163        1265.502          44.000  
  21764821.093     -359922.119        1313.938          45.000  
  23664296.035     -552588.956        2086.190          37.000  
  25222932.819     -171464.5542       2105.882          32.000  
  24803183.972     -207128.2673       1663.301          23.000  
 15  4  3 19 56 37.0010000  0 10G 3G 6G16G23G 7G 9G10G30G 8G27
  21400548.844      833729.125       -3183.766          45.000  
  25018976.105      441494.0763      -1772.642          27.000  
  21103160.925      344578.913       -1393.390          42.000  
  20747934.206      -15393.314           4.052          43.000  
  22667659.516     -351680.651        1265.586          44.000  
  21764570.473     -361235.995        1313.042          43.000  
  23663898.257     -554674.349        2084.407          37.000  
  25222531.830     -173571.2462       2106.560          32.000  
  23962005.440      903134.7993      -3384.090          25.000  
  24802866.483     -208791.7233       1666.945          24.000  
 15  4  3 19 56 38.0010000  0 10G 3G 6G16G23G 7G 9G10G30G 8G27
  21401154.559      836913.968       -3185.558          46.000  
  25019314.203      443266.6303      -1772.419          26.000  
  21103426.238      345972.614       -1394.027          42.000  
  20747933.037      -15396.883           3.141          42.000  
  22667418.947     -352945.658        1265.435          43.000  
  21764319.853     -362549.438        1312.999          45.000  
  23663501.736     -556759.023        2083.830          38.000  
  25222130.842     -175677.5652       2106.151          32.000  
  23962644.327      906516.0893      -3381.555          27.000  
  24802548.523     -210456.1533       1667.848          25.000  
 15  4  3 19 56 39.0010000  0 10G 3G 6G16G23G 7G 9G10G30G 8G27
  21401760.587      840099.480       -3186.094          46.000  
  25019648.880      445039.7783      -1773.020          26.000  
  21103692.336      347367.217       -1395.423          43.000  
  20747932.409      -15399.924           2.956          42.000  
  22667178.884     -354210.235        1264.614          44.000  
  21764068.988     -363862.560        1312.892          44.000  
  23663106.018     -558843.210        2084.580          38.000  
  25221730.080     -177783.5302       2104.274          32.000  
  23963282.290      909897.4673      -3380.924          28.000  
  24802230.597     -212120.7573       1662.927          24.000  
 15  4  3 19 56 40.0010000  0 10G 3G 6G16G23G 7G 9G10G30G 8G27
  21402366.721      843285.722       -3186.385          46.000  
  25019984.186      446812.9843      -1776.336          24.000  
  21103958.033      348762.764       -1396.179          42.000  
  20747930.926      -15402.451           1.291          42.000  
  22666937.722     -355474.357        1264.183          44.000  
  21763818.281     -365175.277        1312.588          44.000  
  23662709.793     -560926.754        2082.358          38.000  
  25221329.371     -179889.0922       2107.347          32.000  
  23963921.055      913278.8933      -3381.398          28.000  
  24801912.637     -213785.0653       1663.089          24.000  
 15  4  3 19 56 41.0010000  0 10G 3G 6G16G23G 7G 9G10G30G 8G27
  21402973.273      846472.745       -3186.981          45.000  
  25020322.511      448582.9833      -1774.570          22.000  
  21104224.132      350159.336       -1397.227          43.000  
  20747930.385      -15404.310           1.312          42.000  
  22666697.189     -356737.912        1263.586          44.000  
  21763567.940     -366487.479        1312.134          43.000  
  23662314.057     -563009.529        2083.133          39.000  
  25220928.173     -181994.2482       2105.881          31.000  
  23964567.097      916660.7783      -3381.184          29.000  
  24801595.182     -215448.6933       1664.919          23.000  
 15  4  3 19 56 42.0010000  0 10G 3G 6G16G23G 7G 9G10G30G 8G27
  21403579.842      849660.379       -3187.984          45.000  
  25020659.039      450358.1473      -1776.987          21.000  
  21104490.527      351556.776       -1397.899          42.000  
  20747930.280      -15405.743           1.324          42.000  
  22666456.341     -358001.071        1263.258          44.000  
  21763316.256     -367799.396        1311.953          41.000  
  23661917.588     -565091.821        2082.569          37.000  
  25220526.660     -184099.1702       2104.452          31.000  
  23965207.485      920042.8033      -3382.062          30.000  
  24801276.507     -217112.2653       1661.971          23.000  
 15  4  3 19 56 43.0010000  0  9G 3G16G23G 7G 9G10G30G 8G27
  21404186.482      852848.709       -3188.472          45.000  
  21104756.555      352955.103       -1398.481          42.000  
  20747929.896      -15406.676           0.473          42.000  
  22666215.667     -359263.757        1263.434          43.000  
  21763065.095     -369110.911        1311.055          42.000  
  23661521.660     -567173.433        2082.487          39.000  
  25220126.143     -186203.6423       2104.328          30.000  
  23965851.538      923425.1393      -3382.083          32.000  
  24800958.249     -218775.3543       1663.597          24.000  
 15  4  3 19 56 44.0010000  0  9G 3G16G23G 7G 9G10G30G 8G27
  21404792.929      856037.559       -3189.312          45.000  
  21105022.566      354354.207       -1399.571          42.000  
  20747929.844      -15407.260           0.379          42.000  
  22665975.064     -360526.234        1262.342          43.000  
  21762813.881     -370422.241        1310.645          42.000  
  23661125.872     -569254.675        2080.938          38.000  
  25219724.893     -188307.8462       2103.512          30.000  
  23966490.687      926807.4733      -3383.589          32.000  
  24800639.731     -220438.6113       1662.764          24.000  
 15  4  3 19 56 45.0010000  0  9G 3G16G23G 7G 9G10G30G 8G27
  21405399.446      859227.151       -3190.158          45.000  
  21105288.839      355754.260       -1400.859          42.000  
  20747930.123      -15407.266          -0.585          42.000  
  22665734.914     -361788.127        1261.797          43.000  
  21762562.616     -371733.143        1310.201          42.000  
  23660730.293     -571335.284        2080.585          38.000  
  25219323.765     -190411.7683       2103.836          29.000  
  23967135.438      930190.0042      -3382.710          33.000  
  24800322.486     -222103.4143       1669.184          22.000  
 15  4  3 19 56 46.0010000  0  9G 3G16G23G 7G 9G10G30G 8G27
  21406006.243      862417.299       -3190.911          45.000  
  21105554.990      357155.162       -1402.122          42.000  
  20747930.559      -15406.830          -0.585          43.000  
  22665495.043     -363049.681        1261.155          43.000  
  21762311.873     -373043.732        1310.347          41.000  
  23660335.307     -573415.325        2079.557          39.000  
  25218922.497     -192515.4233       2107.112          29.000  
  23967775.773      933572.6892      -3382.870          34.000  
  24800003.757     -223768.5583       1658.428          22.000  
 15  4  3 19 56 47.0010000  0  9G 3G16G23G 7G 9G10G30G 8G27
  21406613.249      865608.246       -3191.261          44.000  
  21105822.083      358557.070       -1402.958          42.000  
  20747931.065      -15405.798          -1.311          43.000  
  22665255.347     -364310.740        1261.021          44.000  
  21762061.690     -374353.888        1309.582          41.000  
  23659939.867     -575494.666        2079.379          38.000  
  25218520.531     -194618.6573       2102.549          27.000  
  23968423.176      936955.6932      -3382.727          35.000  
  24799683.982     -225431.3283       1652.258          21.000  
 15  4  3 19 56 48.0010000  0  9G 3G16G23G 7G 9G10G30G 8G27
  21407219.731      868799.895       -3192.056          44.000  
  21106088.845      359959.879       -1402.683          41.000  
  20747931.414      -15404.313          -1.360          43.000  
  22665016.244     -365571.333        1260.116          43.000  
  21761811.174     -375663.644        1309.285          40.000  
  23659544.428     -577573.443        2077.748          38.000  
  25218119.682     -196721.4353       2103.174          27.000  
  23969062.954      940338.9042      -3383.273          35.000  
  24799366.842     -227089.8263       1655.480          20.000  
 15  4  3 19 56 49.0010000  0  9G 3G16G23G 7G 9G10G30G 8G27
  21407827.225      871992.179       -3192.579          45.000  
  21106355.466      361363.580       -1403.742          41.000  
  20747931.362      -15402.299          -1.594          42.000  
  22664777.228     -366831.512        1260.745          43.000  
  21761561.479     -376973.075        1308.704          41.000  
  23659149.058     -579651.650        2078.124          38.000  
  25217718.694     -198823.9653       2105.230          26.000  
  23969708.699      943722.3302      -3381.365          36.000  
  24799048.934     -228752.3183       1660.068          20.000  
 15  4  3 19 56 50.0010000  0 10G 3G 6G16G23G 7G 9G10G30G 8G27
  21408434.266      875184.943       -3193.139          45.000  
  25023372.373      464557.0243      -1779.050          27.000  
  21106622.123      362768.015       -1405.458          43.000  
  20747931.589      -15399.997          -3.365          42.000  
  22664538.038     -368091.435        1259.390          44.000  
  21761310.807     -378282.341        1308.477          38.000  
  23658753.602     -581729.438        2076.812          37.000  
  25217313.918     -200924.8523       2092.441          25.000  
  23970353.502      947105.7562      -3383.664          37.000  
  24798734.184     -230412.8463       1663.780          19.000  
 15  4  3 19 56 51.0010000  0  9G 3G 6G16G23G 7G 9G10G30G 8
  21409042.075      878378.409       -3193.561          45.000  
  25023715.915      466337.4473      -1780.095          27.000  
  21106890.333      364173.389       -1405.774          43.000  
  20747932.234      -15397.134          -3.729          42.000  
  22664298.255     -369350.886        1259.743          44.000  
  21761061.234     -379591.166        1309.310          41.000  
  23658358.564     -583806.553        2075.896          37.000  
  25216909.981     -203018.6103       2096.042          23.000  
  23970997.049      950489.3982      -3383.860          37.000  
 15  4  3 19 56 52.0010000  0  9G 3G 6G16G23G 7G 9G10G30G 8
  21409650.005      881572.651       -3195.320          45.000  
  25024054.223      468118.6083      -1780.250          26.000  
  21107158.211      365579.732       -1407.605          43.000  
  20747932.671      -15393.673          -4.086          42.000  
  22664059.222     -370609.828        1258.167          44.000  
  21760811.626     -380899.575        1307.980          40.000  
  23657962.967     -585883.013        2075.744          37.000  
  25216506.095     -205117.9013       2101.658          24.000  
  23971640.927      953873.3772      -3384.214          37.000  
 15  4  3 19 56 53.0010000  0 10G 3G 6G16G23G 7G 9G10G30G 8G27
  21410258.337      884767.718       -3195.902          45.000  
  25024391.396      469900.4893      -1784.460          26.000  
  21107426.753      366987.157       -1408.186          43.000  
  20747933.194      -15389.560          -4.704          42.000  
  22663820.014     -371868.170        1257.769          44.000  
  21760561.983     -382207.471        1308.070          40.000  
  23657567.859     -587958.788        2075.540          36.000  
  25216105.316     -207219.7553       2104.767          23.000  
  23972284.718      957257.7012      -3384.269          37.000  
  24797799.341     -235393.6923       1668.151          21.000  
 15  4  3 19 56 54.0010000  0 10G 3G 6G16G23G 7G 9G10G30G 8G27
  21410866.635      887963.421       -3196.422          45.000  
  25024725.218      471682.9003      -1782.699          25.000  
  21107695.067      368395.454       -1409.005          43.000  
  20747934.294      -15384.981          -5.550          42.000  
  22663581.138     -373126.103        1257.281          45.000  
  21760313.387     -383515.009        1306.629          40.000  
  23657172.786     -590033.918        2075.506          36.000  
  25215704.467     -209321.7203       2099.669          23.000  
  23972928.404      960642.2042      -3384.841          38.000  
  24797486.162     -237054.1353       1652.190          21.000  
 15  4  3 19 56 55.0010000  0 10G 3G 6G16G23G 7G 9G10G30G 8G27
  21411475.124      891159.619       -3196.043          45.000  
  25025062.409      473465.9053      -1782.328          25.000  
  21107963.399      369804.457       -1409.271          43.000  
  20747934.939      -15380.087          -5.114          42.000  
  22663341.843     -374383.802        1257.906          45.000  
  21760065.071     -384822.351        1307.875          40.000  
  23656777.609     -592108.700        2074.926          36.000  
  25215307.108     -211422.2223       2102.509          24.000  
  23973571.706      964026.209       -3385.562          38.000  
  24797176.211     -238713.1103       1665.459          22.000  
 15  4  3 19 56 56.0010000  0 10G 3G 6G16G23G 7G 9G10G30G 8G27
  21412083.944      894356.422       -3196.982          45.000  
  25025398.308      475249.3773      -1784.733          25.000  
  21108232.098      371214.348       -1410.700          43.000  
  20747936.039      -15374.720          -5.083          42.000  
  22663102.339     -375641.096        1257.224          45.000  
  21759816.824     -386129.394        1306.377          41.000  
  23656382.937     -594182.912        2073.245          36.000  
  25214909.592     -213521.4503       2099.939          26.000  
  23974215.986      967410.916       -3384.948          38.000  
  24796862.561     -240369.7213       1658.154          23.000  
 15  4  3 19 56 57.0010000  0 10G 3G 6G16G23G 7G 9G10G30G 8G27
  21412692.503      897553.983       -3198.542          45.000  
  25025733.771      477033.6323      -1785.124          25.000  
  21108501.145      372625.225       -1411.044          43.000  
  20747937.400      -15368.795          -5.589          42.000  
  22662863.411     -376897.882        1256.871          45.000  
  21759568.804     -387436.014        1306.315          41.000  
  23655988.126     -596256.409        2074.704          36.000  
  25214512.408     -215621.0943       2099.740          28.000  
  23974860.021      970795.884       -3384.347          38.000  
  24796547.847     -242030.9523       1658.684          24.000  
 15  4  3 19 56 58.0010000  0 10G 3G 6G16G23G 7G 9G10G30G 8G27
  21413301.202      900752.251       -3198.764          45.000  
  25026072.934      478818.6973      -1784.444          24.000  
  21108770.018      374037.008       -1412.793          43.000  
  20747939.232      -15362.327          -7.111          43.000  
  22662624.674     -378154.198        1255.636          45.000  
  21759321.150     -388742.205        1305.309          41.000  
  23655593.332     -598329.349        2072.643          36.000  
  25214113.950     -217720.5243       2099.305          28.000  
  23975503.637      974181.108       -3385.780          38.000  
  24796235.261     -243688.9313       1649.412          24.000  
 15  4  3 19 56 59.0010000  0 10G 3G 6G16G23G 7G 9G10G30G 8G27
  21413909.900      903951.182       -3199.096          46.000  
  25026412.969      480604.2123      -1784.899          24.000  
  21109038.699      375449.716       -1413.390          43.000  
  20747940.419      -15355.378          -7.278          43.000  
  22662385.414     -379410.090        1255.796          45.000  
  21759073.270     -390048.062        1305.492          41.000  
  23655198.626     -600401.665        2071.514          36.000  
  25213715.631     -219819.6493       2099.051          29.000  
  23976148.405      977566.528       -3385.860          39.000  
  24795920.982     -245346.7853       1655.094          25.000  
 15  4  3 19 57  0.0010000  0 10G 3G 6G16G23G 7G 9G10G30G 8G27
  21414518.948      907150.683       -3200.183          46.000  
  25026756.040      482390.0933      -1785.684          23.000  
  21109308.061      376863.245       -1414.592          43.000  
  20747941.849      -15347.998          -8.146          43.000  
  22662146.416     -380665.621        1255.090          45.000  
  21758825.686     -391353.660        1305.553          42.000  
  23654803.797     -602473.479        2070.787          36.000  
  25213319.895     -221918.5413       2099.563          29.000  
  23976792.353      980952.066       -3386.152          38.000  
  24795605.762     -246999.9203       1650.776          23.000  
 15  4  3 19 57  1.0010000  0 10G 3G 6G16G23G 7G 9G10G30G 8G27
  21415128.379      910350.948       -3201.266          46.000  
  25027095.761      484176.1783      -1788.765          23.000  
  21109576.794      378277.756       -1414.698          43.000  
  20747943.106      -15340.046          -8.538          43.000  
  22661907.348     -381920.643        1255.075          45.000  
  21758578.626     -392658.798        1304.025          42.000  
  23654409.248     -604544.654        2069.775          36.000  
  25212924.211     -224016.8523       2098.847          30.000  
  23977436.074      984337.883       -3385.528          38.000  
  24795291.291     -248657.8133       1660.665          22.000  
 15  4  3 19 57  2.0010000  0 10G 3G 6G16G23G 7G 9G10G30G 8G27
  21415737.810      913551.767       -3201.601          46.000  
  25027431.834      485963.4483      -1787.635          23.000  
  21109846.051      379693.053       -1415.669          42.000  
  20747944.816      -15331.709          -8.929          43.000  
  22661668.699     -383175.357        1254.448          45.000  
  21758331.775     -393963.674        1304.220          43.000  
  23654015.431     -606615.328        2069.426          36.000  
  25212527.149     -226115.0942       2097.055          32.000  
  23978079.952      987723.778       -3385.910          38.000  
  24794976.315     -250314.2683       1665.161          22.000  
 15  4  3 19 57  3.0010000  0 10G 3G 6G16G23G 7G 9G10G30G 8G27
  21416346.823      916753.439       -3201.793          46.000  
  25027773.946      487752.0433      -1787.432          24.000  
  21110114.889      381109.443       -1416.114          42.000  
  20747946.962      -15322.709          -9.020          43.000  
  22661430.434     -384429.473        1254.301          45.000  
  21758084.384     -395268.027        1304.197          43.000  
  23653621.248     -608685.219        2069.973          36.000  
  25212133.385     -228212.8252       2097.725          32.000  
  23978724.214      991110.062       -3386.964          38.000  
  24794662.211     -251970.6763       1661.658          22.000  
 15  4  3 19 57  4.0010000  0 10G 3G 6G16G23G 7G 9G10G30G 8G27
  21416956.638      919955.639       -3202.727          46.000  
  25028113.004      489540.4563      -1789.425          26.000  
  21110383.797      382526.595       -1417.121          42.000  
  20747948.550      -15313.313          -9.173          43.000  
  22661191.750     -385683.269        1253.617          45.000  
  21757837.376     -396572.133        1304.342          44.000  
  23653227.589     -610754.679        2069.201          36.000  
  25211732.815     -230310.3942       2097.589          32.000  
  23979367.866      994496.437       -3386.359          38.000  
  24794345.228     -253630.7513       1656.372          21.000  
 15  4  3 19 57  5.0010000  0 10G 3G 6G16G23G 7G 9G10G30G 8G27
  21417566.820      923158.495       -3203.288          47.000  
  25028453.876      491329.5373      -1789.784          27.000  
  21110653.281      383944.615       -1418.507          41.000  
  20747950.505      -15303.464         -10.110          43.000  
  22660953.135     -386936.645        1253.476          45.000  
  21757590.665     -397875.906        1302.907          44.000  
  23652834.383     -612823.533        2068.782          36.000  
  25211333.537     -232407.6222       2096.122          33.000  
  23980012.023      997882.979       -3385.641          38.000  
  24794027.424     -255288.1713       1654.512          22.000  
 15  4  3 19 57  6.0010000  0 10G 3G 6G16G23G 7G 9G10G30G 8G27
  21418176.461      926361.964       -3203.724          47.000  
  25028793.300      493119.1883      -1790.804          27.000  
  21110922.782      385363.518       -1419.297          41.000  
  20747952.826      -15293.152         -10.705          43.000  
  22660714.835     -388189.638        1252.486          45.000  
  21757343.605     -399179.348        1302.927          44.000  
  23652440.549     -614891.874        2067.377          36.000  
  25210938.516     -234504.5612       2096.628          33.000  
  23980655.849     1001269.679       -3386.497          39.000  
  24793708.748     -256943.6023       1654.341          23.000  
 15  4  3 19 57  7.0010000  0 10G 3G 6G16G23G 7G 9G10G30G 8G27
  21418786.329      929566.111       -3204.507          47.000  
  25029131.521      494909.4853      -1790.710          28.000  
  21111193.051      386783.312       -1419.955          41.000  
  20747955.112      -15282.330         -10.956          43.000  
  22660476.099     -389442.194        1252.162          45.000  
  21757095.934     -400482.470        1302.607          45.000  
  23652046.802     -616959.620        2067.840          37.000  
  25210538.295     -236601.1563       2097.070          33.000  
  23981300.268     1004656.570       -3386.016          39.000  
  24793390.596     -258598.6283       1655.498          25.000  
 15  4  3 19 57  8.0010000  0 10G 3G 6G16G23G 7G 9G10G30G 8G27
  21419396.284      932770.811       -3205.334          47.000  
  25029471.329      496700.2553      -1791.511          28.000  
  21111463.651      388203.916       -1421.077          41.000  
  20747957.904      -15271.146         -11.212          43.000  
  22660237.345     -390694.424        1251.769          44.000  
  21756848.716     -401785.299        1302.514          45.000  
  23651653.544     -619026.871        2067.954          37.000  
  25210137.796     -238697.5062       2097.478          32.000  
  23981944.390     1008043.599       -3386.549          38.000  
  24793075.602     -260254.7563       1655.580          26.000  
 15  4  3 19 57  9.0010000  0 10G 3G 6G16G23G 7G 9G10G30G 8G27
  21420006.221      935976.053       -3205.715          47.000  
  25029808.676      498491.5603      -1791.675          28.000  
  21111734.461      389625.270       -1422.346          41.000  
  20747960.259      -15259.547         -11.594          43.000  
  22659998.748     -391946.351        1252.120          44.000  
  21756602.197     -403087.902        1302.299          45.000  
  23651260.478     -621093.658        2066.584          36.000  
  25209738.796     -240793.6552       2096.086          32.000  
  23982587.972     1011430.689       -3386.669          38.000  
  24792758.165     -261910.6783       1654.760          27.000  
 15  4  3 19 57 10.0010000  0 10G 3G 6G16G23G 7G 9G10G30G 8G27
  21420616.001      939181.960       -3206.076          47.000  
  25030146.321      500283.4603      -1793.049          28.000  
  21112005.341      391047.572       -1422.751          41.000  
  20747962.353      -15247.481         -12.254          43.000  
  22659760.361     -393197.865        1251.579          46.000  
  21756355.085     -404390.166        1301.940          46.000  
  23650867.744     -623159.868        2066.481          36.000  
  25209339.378     -242889.4602       2096.406          32.000  
  23983232.391     1014817.977       -3387.653          38.000  
  24792441.845     -263566.1983       1654.439          27.000  
 15  4  3 19 57 11.0010000  0 10G 3G 6G16G23G 7G 9G10G30G 8G27
  21421226.166      942388.416       -3206.348          47.000  
  25030483.267      502075.8493      -1793.290          28.000  
  21112276.639      392470.604       -1423.883          42.000  
  20747964.849      -15235.052         -12.747          43.000  
  22659521.642     -394449.046        1251.343          45.000  
  21756108.007     -405692.178        1302.465          47.000  
  23650473.892     -625225.600        2065.611          36.000  
  25208940.606     -244985.1092       2095.120          31.000  
  23983876.566     1018205.329       -3386.761          38.000  
  24792125.717     -265221.6123       1655.746          27.000  
 15  4  3 19 57 12.0010000  0 10G 3G 6G16G23G 7G 9G10G30G 8G27
  21421836.400      945595.318       -3206.724          47.000  
  25030822.813      503868.6463      -1792.968          29.000  
  21112547.571      393894.336       -1423.972          42.000  
  20747967.449      -15222.303         -13.043          43.000  
  22659283.289     -395700.014        1250.439          45.000  
  21755860.772     -406994.036        1302.232          46.000  
  23650080.477     -627290.964        2066.061          35.000  
  25208540.961     -247080.4822       2098.283          30.000  
  23984520.828     1021592.687       -3387.862          38.000  
  24791810.095     -266876.9223       1655.380          28.000  
 15  4  3 19 57 13.0010000  0 10G 3G 6G16G23G 7G 9G10G30G 8G27
  21422446.547      948802.950       -3207.734          47.000  
  25031165.029      505661.7683      -1792.001          29.000  
  21112818.940      395319.056       -1425.260          41.000  
  20747970.032      -15209.003         -13.177          44.000  
  22659045.512     -396950.513        1250.499          45.000  
  21755613.660     -408295.459        1301.615          47.000  
  23649687.603     -629355.666        2063.185          35.000  
  25208141.351     -249175.5763       2096.547          29.000  
  23985165.439     1024980.345       -3387.886          38.000  
  24791491.995     -268531.8403       1654.866          29.000  
 15  4  3 19 57 14.0010000  0 10G 3G 6G16G23G 7G 9G10G30G 8G27
  21423056.851      952011.289       -3208.452          47.000  
  25031503.808      507455.8873      -1795.479          29.000  
  21113090.029      396744.692       -1426.904          41.000  
  20747972.771      -15195.163         -13.665          43.000  
  22658807.893     -398200.509        1250.177          45.000  
  21755366.809     -409596.489        1300.604          47.000  
  23649294.502     -631419.753        2062.751          34.000  
  25207742.718     -251270.2173       2095.197          29.000  
  23985809.666     1028368.184       -3387.101          38.000  
  24791173.651     -270186.4553       1654.763          29.000  
 15  4  3 19 57 15.0010000  0 10G 3G 6G16G23G 7G 9G10G30G 8G27
  21423667.172      955220.223       -3209.610          47.000  
  25031846.757      509250.6023      -1796.870          30.000  
  21113360.874      398171.133       -1426.796          41.000  
  20747975.633      -15180.907         -14.890          44.000  
  22658570.901     -399450.211        1249.642          45.000  
  21755119.347     -410897.256        1300.653          47.000  
  23648902.064     -633483.328        2062.901          35.000  
  25207343.527     -253364.7183       2098.629          28.000  
  23986454.434     1031756.171       -3388.270          39.000  
  24790856.406     -271840.8223       1654.293          29.000  
 15  4  3 19 57 16.0010000  0 10G 3G 6G16G23G 7G 9G10G30G 8G27
  21424278.401      958429.691       -3210.058          47.000  
  25032189.863      511045.7832      -1796.043          30.000  
  21113632.486      399598.418       -1427.510          41.000  
  20747978.792      -15166.257         -14.963          44.000  
  22658333.264     -400699.534        1248.503          45.000  
  21754872.025     -412197.776        1300.067          48.000  
  23648509.155     -635546.390        2063.787          35.000  
  25206946.220     -255458.7353       2094.074          27.000  
  23987099.411     1035144.244       -3387.814          39.000  
  24790540.347     -273495.0063       1653.637          29.000  
 15  4  3 19 57 17.0010000  0 10G 3G 6G16G23G 7G 9G10G30G 8G27
  21424889.804      961639.779       -3210.486          47.000  
  25032535.657      512841.5502      -1794.865          30.000  
  21113904.291      401026.500       -1429.125          41.000  
  20747981.706      -15151.176         -15.210          43.000  
  22658095.313     -401948.500        1248.787          45.000  
  21754624.494     -413497.999        1299.458          48.000  
  23648116.263     -637608.957        2059.002          34.000  
  25206548.181     -257552.7733       2093.543          26.000  
  23987744.145     1038532.451       -3389.235          39.000  
  24790225.231     -275148.9723       1653.445          29.000  
 15  4  3 19 57 18.0010000  0 10G 3G 6G16G23G 7G 9G10G30G 8G27
  21425500.946      964850.549       -3211.489          47.000  
  25032882.270      514637.8903      -1799.086          29.000  
  21114176.340      402455.549       -1429.648          41.000  
  20747985.109      -15135.558         -15.631          44.000  
  22657856.734     -403196.975        1248.976          45.000  
  21754377.608     -414797.790        1299.624          48.000  
  23647724.104     -639670.3993       2061.640          33.000  
  25206147.821     -259646.7993       2093.809          25.000  
  23988389.035     1041920.910       -3389.031          39.000  
  24789908.056     -276802.5773       1653.207          29.000  
 15  4  3 19 57 19.0010000  0 10G 3G 6G16G23G 7G 9G10G30G 8G27
  21426111.302      968061.953       -3211.704          47.000  
  25033230.612      516434.8063      -1796.132          28.000  
  21114448.808      403885.395       -1430.110          42.000  
  20747988.424      -15119.491         -16.234          44.000  
  22657618.224     -404445.108        1247.920          44.000  
  21754130.636     -416097.298        1299.759          48.000  
  23647331.021     -641731.7842       2060.083          33.000  
  25205793.319     -261740.2353       2093.682          24.000  
  23989033.873     1045309.531       -3389.010          39.000  
  24789593.219     -278455.9893       1652.691          28.000  
 15  4  3 19 57 20.0010000  0 10G 3G 6G16G23G 7G 9G10G30G 8G27
  21426723.194      971273.882       -3212.354          47.000  
  25033576.231      518231.5963      -1797.653          27.000  
  21114721.589      405316.066       -1430.312          42.000  
  20747991.443      -15103.053         -16.633          44.000  
  22657380.116     -405692.923        1247.331          45.000  
  21753884.081     -417396.564        1299.104          48.000  
  23646938.356     -643792.6992       2059.590          33.000  
  25205412.765     -263833.2223       2092.769          25.000  
  23989678.972     1048698.224       -3388.503          39.000  
  24789277.946     -280109.1133       1653.007          28.000  
 15  4  3 19 57 21.0010000  0  9G 3G16G23G 7G 9G10G30G 8G27
  21427334.649      974486.521       -3212.719          47.000  
  21114993.987      406747.661       -1431.567          42.000  
  20747995.561      -15086.060         -17.007          44.000  
  22657142.636     -406940.281        1246.931          44.000  
  21753637.004     -418695.410        1298.823          48.000  
  23646545.621     -645852.9732       2059.177          32.000  
  25205019.664     -265925.9443       2092.283          25.000  
  23990323.863     1052087.141       -3388.010          39.000  
  24788963.040     -281761.9633       1653.992          27.000  
 15  4  3 19 57 22.0010000  0  9G 3G16G23G 7G 9G10G30G 8G27
  21427946.088      977699.699       -3213.524          48.000  
  21115266.821      408179.992       -1433.557          42.000  
  20747998.510      -15068.729         -17.797          44.000  
  22656905.330     -408187.311        1246.927          45.000  
  21753390.118     -419994.037        1298.594          48.000  
  23646153.044     -647912.8413       2059.232          31.000  
  25204612.568     -268018.4253       2092.364          26.000  
  23990968.683     1055476.163       -3389.204          38.000  
  24788646.859     -283415.1083       1652.663          25.000  
 15  4  3 19 57 23.0010000  0  9G 3G16G23G 7G 9G10G30G 8G27
  21428557.683      980913.449       -3214.171          48.000  
  21115538.626      409613.151       -1434.306          42.000  
  20748002.349      -15050.974         -18.045          44.000  
  22656668.322     -409434.022        1246.637          45.000  
  21753143.285     -421292.425        1297.338          48.000  
  23645760.379     -649972.1243       2058.750          31.000  
  25204215.959     -270110.6553       2092.411          27.000  
  23991613.189     1058865.228       -3390.006          38.000  
  24788330.836     -285068.8393       1655.406          23.000  
 15  4  3 19 57 24.0010000  0  9G 3G16G23G 7G 9G10G30G 8G27
  21429170.255      984127.857       -3214.787          48.000  
  21115811.513      411047.217       -1433.993          42.000  
  20748005.508      -15032.733         -18.477          44.000  
  22656431.732     -410680.317        1245.688          45.000  
  21752896.347     -422590.427        1297.448          48.000  
  23645367.854     -652030.8862       2058.543          31.000  
  25203817.309     -272202.5763       2090.854          27.000  
  23992257.870     1062254.541       -3389.969          38.000  
  24788017.273     -286717.2113       1652.284          21.000  
 15  4  3 19 57 25.0010000  0  8G 3G16G23G 7G 9G10G30G 8
  21429781.973      987342.819       -3215.380          48.000  
  21116084.347      412482.075       -1435.098          42.000  
  20748008.963      -15014.090         -19.218          44.000  
  22656194.845     -411926.274        1245.254          45.000  
  21752649.915     -423888.167        1297.496          48.000  
  23644975.573     -654089.2192       2058.632          31.000  
  25203419.008     -274294.2453       2090.642          27.000  
  23992902.446     1065643.915       -3388.825          38.000  
 15  4  3 19 57 26.0010000  0  8G 3G16G23G 7G 9G10G30G 8
  21430393.969      990558.467       -3215.724          48.000  
  21116357.722      413917.881       -1436.608          42.000  
  20748012.471      -14994.901         -19.500          44.000  
  22655958.743     -413171.787        1245.609          45.000  
  21752402.959     -425185.524        1297.046          48.000  
  23644584.130     -656146.7643       2057.415          31.000  
  25203015.280     -276385.4933       2091.947          28.000  
  23993547.249     1069033.605       -3389.549          38.000  
 15  4  3 19 57 27.0010000  0  9G 3G16G23G 7G 9G10G30G 8G27
  21431004.605      993773.273       -3214.698          48.000  
  21116631.847      415355.084       -1438.713          45.000  
  20748015.140      -14974.818         -20.894          46.000  
  22655720.338     -414417.971        1245.605          41.000  
  21752155.899     -426482.6103       1296.990          41.000  
  23644194.327     -658202.6673       2053.892          31.000  
  25202602.111     -278474.7433       2091.297          27.000  
  23994193.553     1072424.4713      -3378.560          33.000  
  24787074.333     -291679.0673       1652.923          20.000  
 15  4  3 19 57 28.0010000  0 10G 3G 6G16G23G 7G 9G10G30G 8G27
  21431616.060      996986.598       -3211.866          49.000  
  25036307.783      532621.5633      -1801.374          25.000  
  21116905.153      416794.281       -1440.548          47.000  
  20748018.578      -14953.0093        -21.729          45.000  
  22655481.079     -415664.2743       1246.182          41.000  
  21751905.611     -427778.1553       1295.062          48.000  
  23643802.796     -660257.6923       2051.910          32.000  
  25202188.244     -280566.4313       2095.687          27.000  
  23994839.264     1075816.2213      -3393.095          36.000  
  24786763.126     -293330.7613       1639.301          21.000  
 15  4  3 19 57 29.0010000  0  9G 3G16G23G 7G 9G10G30G 8G27
  21432227.481     1000199.060       -3212.454          49.000  
  21117180.063      418234.908       -1440.491          51.000  
  20748022.661      -14930.3182        -22.293          42.000  
  22655242.831     -416912.4343       1249.150          36.000  
  21751657.259     -429072.8283       1294.771          51.000  
  23643408.177     -662312.9273       2054.400          32.000  
  25201787.797     -282657.9483       2092.861          25.000  
  23995486.213     1079211.8323      -3391.379          31.000  
  24786450.767     -294979.7793       1652.430          22.000  
 15  4  3 19 57 30.0010000  0 10G 3G 6G16G23G 7G 9G10G30G 8G27
  21432838.989     1003415.066       -3217.904          49.000  
  25036993.612      536228.0483      -1800.179          27.000  
  21117454.241      419674.929       -1438.932          49.000  
  20748026.204      -14908.5222        -20.191          40.000  
  22655003.693     -418158.2033       1242.962          36.000  
  21751413.445     -430368.4362       1296.312          47.000  
  23643021.236     -664368.3023       2055.646          28.000  
  25201425.757     -284751.4863       2096.720          23.000  
  23996133.476     1082604.0773      -3389.120          36.000  
  24786140.415     -296630.8093       1651.954          24.000  
 15  4  3 19 57 31.0010000  0 10G 3G 6G16G23G 7G 9G10G30G 8G27
  21433451.073     1006633.218       -3218.119          49.000  
  25037337.049      538030.3793      -1803.462          28.000  
  21117728.611      421114.364       -1439.607          49.000  
  20748029.101      -14887.7072        -20.617          40.000  
  22654764.171     -419402.3622       1245.335          36.000  
  21751168.705     -431664.8312       1296.477          47.000  
  23642647.801     -666423.8663       2055.381          30.000  
  25201033.301     -286840.8323       2092.188          21.000  
  23996780.705     1085993.8142      -3390.605          37.000  
  24785829.033     -298281.7233       1651.458          26.000  
 15  4  3 19 57 32.0010000  0 10G 3G 6G16G23G 7G 9G10G30G 8G27
  21434063.733     1009851.898       -3218.899          49.000  
  25037685.844      539833.9863      -1803.930          28.000  
  21118003.242      422554.601       -1440.872          49.000  
  20748032.800      -14866.4752        -21.714          40.000  
  22654525.260     -420646.2002       1244.640          36.000  
  21750922.622     -432960.9842       1295.855          47.000  
  23642267.072     -668479.1553       2057.204          32.000  
  25200649.187     -288931.7763       2085.608          21.000  
  23997427.428     1089383.6752      -3389.851          37.000  
  24785514.877     -299932.6203       1649.837          27.000  
 15  4  3 19 57 33.0010000  0 10G 3G 6G16G23G 7G 9G10G30G 8G27
  21434676.096     1013071.184       -3219.760          49.000  
  25038026.961      541638.0733      -1805.018          27.000  
  21118277.665      423995.671       -1441.562          49.000  
  20748037.006      -14844.8432        -21.348          40.000  
  22654286.629     -421889.7322       1243.592          36.000  
  21750676.260     -434256.8342       1295.506          47.000  
  23641880.218     -670533.7232       2052.722          32.000  
  25200250.380     -291021.4853       2090.804          21.000  
  23998074.133     1092773.7172      -3389.909          37.000  
  24785204.088     -301583.1903       1650.204          28.000  
 15  4  3 19 57 34.0010000  0 10G 3G 6G16G23G 7G 9G10G30G 8G27
  21435289.052     1016290.938       -3220.542          49.000  
  25038371.585      543442.6283      -1805.769          27.000  
  21118552.645      425437.452       -1442.406          50.000  
  20748040.775      -14822.9022        -22.733          40.000  
  22654048.520     -423132.9952       1242.850          36.000  
  21750430.230     -435552.5032       1295.236          46.000  
  23641494.272     -672587.8272       2053.415          32.000  
  25199856.808     -293109.3813       2090.962          21.000  
  23998720.454     1096163.7402      -3390.516          37.000  
  24784892.113     -303233.6533       1650.380          28.000  
 15  4  3 19 57 35.0010000  0 10G 3G 6G16G23G 7G 9G10G30G 8G27
  21435902.043     1019511.378       -3220.850          49.000  
  25038719.735      545247.2473      -1804.170          26.000  
  21118827.329      426880.144       -1443.198          50.000  
  20748045.050      -14800.4392        -23.258          40.000  
  22653811.669     -424375.8072       1242.285          37.000  
  21750184.129     -436847.8122       1295.016          46.000  
  23641099.304     -674641.4082       2051.570          32.000  
  25199454.650     -295201.1283       2103.117          22.000  
  23999366.478     1099553.9742      -3389.850          37.000  
  24784578.899     -304883.8043       1650.182          28.000  
 15  4  3 19 57 36.0010000  0 10G 3G 6G16G23G 7G 9G10G30G 8G27
  21436515.331     1022732.534       -3221.524          50.000  
  25039066.261      547053.0573      -1807.958          24.000  
  21119102.205      428323.804       -1443.945          50.000  
  20748049.395      -14777.3682        -23.126          40.000  
  22653574.782     -425618.1262       1241.197          37.000  
  21749937.784     -438142.6872       1294.906          46.000  
  23640712.136     -676694.2062       2052.417          32.000  
  25199051.306     -297292.2943       2091.772          22.000  
  24000011.875     1102944.4932      -3390.531          37.000  
  24784267.360     -306533.5923       1651.038          28.000  
 15  4  3 19 57 37.0010000  0 10G 3G 6G16G23G 7G 9G10G30G 8G27
  21437128.410     1025954.257       -3222.118          49.000  
  25039410.118      548853.2963      -1805.846          21.000  
  21119377.412      429768.260       -1444.892          50.000  
  20748053.932      -14753.977         -24.256          40.000  
  22653338.454     -426860.096        1242.859          37.000  
  21749691.073     -439437.307        1294.925          45.000  
  23640317.778     -678746.6362       2053.645          31.000  
  25198656.268     -299381.5223       2089.597          23.000  
  24000657.288     1106334.579       -3391.074          37.000  
  24783951.721     -308183.1523       1648.884          27.000  
 15  4  3 19 57 38.0010000  0  9G 3G16G23G 7G 9G10G30G 8G27
  21437741.314     1029176.495       -3222.574          49.000  
  21119652.253      431213.469       -1445.723          50.000  
  20748058.068      -14730.200         -24.482          40.000  
  22653103.015     -428101.804        1242.582          37.000  
  21749444.345     -440731.704        1294.320          45.000  
  23639926.684     -680798.5582       2051.037          31.000  
  25198257.966     -301471.1523       2100.338          23.000  
  24001301.795     1109725.241       -3390.471          37.000  
  24783635.942     -309832.5683       1649.426          27.000  
 15  4  3 19 57 39.0010000  0  9G 3G16G23G 7G 9G10G30G 8G27
  21438354.462     1032399.219       -3223.109          49.000  
  21119927.757      432659.389       -1446.474          50.000  
  20748062.396      -14706.088         -24.919          40.000  
  22652867.350     -429343.262        1241.318          38.000  
  21749197.721     -442025.934        1293.688          45.000  
  23639537.160     -682850.0822       2052.448          31.000  
  25197861.236     -303560.3583       2087.802          24.000  
  24001947.104     1113115.893       -3391.348          37.000  
  24783323.286     -311481.8883       1649.621          27.000  
 15  4  3 19 57 40.0010000  0  9G 3G16G23G 7G 9G10G30G 8G27
  21438967.715     1035622.602       -3223.579          49.000  
  21120202.650      434106.220       -1447.300          50.000  
  20748067.543      -14681.491         -24.403          40.000  
  22652631.982     -430584.296        1241.714          38.000  
  21748951.236     -443319.796        1293.464          44.000  
  23639147.392     -684900.9672       2054.965          30.000  
  25197470.944     -305648.2783       2088.832          24.000  
  24002592.413     1116506.794       -3389.886          37.000  
  24783007.158     -313130.8903       1648.987          26.000  
 15  4  3 19 57 41.0010000  0  9G 3G16G23G 7G 9G10G30G 8G27
  21439581.020     1038846.571       -3223.979          49.000  
  21120477.875      435553.866       -1447.939          50.000  
  20748072.691      -14656.455         -25.111          40.000  
  22652396.735     -431824.977        1240.148          38.000  
  21748704.647     -444613.350        1293.612          44.000  
  23638758.043     -686951.4373       2050.006          30.000  
  25197072.835     -307735.5903       2084.633          24.000  
  24003237.704     1119897.780       -3389.984          37.000  
  24782693.316     -314779.6073       1647.606          26.000  
 15  4  3 19 57 42.0010000  0  9G 3G16G23G 7G 9G10G30G 8G27
  21440194.308     1042071.179       -3224.625          49.000  
  21120753.309      437002.399       -1448.865          50.000  
  20748077.141      -14630.952         -24.819          39.000  
  22652160.808     -433065.257        1239.701          38.000  
  21748458.076     -445906.589        1293.049          43.000  
  23638368.746     -689001.2872       2051.958          30.000  
  25196677.169     -309822.7853       2083.660          23.000  
  24003882.874     1123288.962       -3391.040          37.000  
  24782375.827     -316428.1083       1648.632          25.000  
 15  4  3 19 57 43.0010000  0  9G 3G16G23G 7G 9G10G30G 8G27
  21440807.893     1045296.454       -3225.254          49.000  
  21121029.180      438451.838       -1449.575          50.000  
  20748081.887      -14604.961         -26.719          39.000  
  22651925.073     -434305.065        1240.009          38.000  
  21748211.085     -447199.455        1292.344          43.000  
  23637979.135     -691050.5673       2050.096          31.000  
  25196281.206     -311913.1113       2088.808          23.000  
  24004528.305     1126680.359       -3391.549          37.000  
  24782059.489     -318076.2343       1650.789          23.000  
 15  4  3 19 57 44.0010000  0 10G 3G 6G16G23G 7G 9G10G30G 8G27
  21441421.739     1048522.225       -3226.237          49.000  
  25041773.331      561507.5653      -1812.935          23.000  
  21121304.876      439901.978       -1450.826          50.000  
  20748086.407      -14578.618         -26.901          39.000  
  22651689.251     -435544.663        1238.266          38.000  
  21747964.392     -448492.134        1292.709          42.000  
  23637589.245     -693099.3882       2048.917          30.000  
  25195887.267     -314003.7693       2092.140          21.000  
  24005173.335     1130071.741       -3392.087          38.000  
  24781744.216     -319724.4043       1645.360          22.000  
 15  4  3 19 57 45.0010000  0 10G 3G 6G16G23G 7G 9G10G30G 8G27
  21442035.620     1051748.492       -3226.841          49.000  
  25042121.812      563319.4463      -1811.765          23.000  
  21121580.816      441352.896       -1451.560          50.000  
  20748090.962      -14551.932         -26.616          39.000  
  22651453.376     -436783.982        1238.435          38.000  
  21747717.349     -449784.587        1292.252          42.000  
  23637199.616     -695147.8203       2045.828          30.000  
  25195491.374     -316092.4613       2088.957          21.000  
  24005818.766     1133463.200       -3392.393          38.000  
  24781429.048     -321372.1843       1645.293          20.000  
 15  4  3 19 57 46.0010000  0  9G 3G 6G16G23G 7G 9G10G30G 8
  21442650.060     1054975.360       -3227.681          49.000  
  25042464.115      565130.3153      -1811.563          23.000  
  21121857.088      442804.619       -1452.256          50.000  
  20748095.377      -14524.831         -27.883          39.000  
  22651216.943     -438022.923        1238.134          38.000  
  21747469.957     -451076.768        1291.691          41.000  
  23636809.743     -697195.6802       2048.221          29.000  
  25195093.055     -318181.2923       2093.691          20.000  
  24006464.197     1136854.782       -3391.464          38.000  
 15  4  3 19 57 47.0010000  0  9G 3G 6G16G23G 7G 9G10G30G 8
  21443263.993     1058202.867       -3228.055          49.000  
  25042810.048      566943.4003      -1808.601          23.000  
  21122133.674      444257.219       -1453.300          50.000  
  20748100.786      -14497.230         -27.030          39.000  
  22650981.383     -439261.467        1238.236          38.000  
  21747221.990     -452368.613        1290.177          40.000  
  23636420.220     -699242.9563       2047.721          29.000  
  25194697.895     -320268.4943       2076.233          18.000  
  24007109.471     1140246.560       -3392.094          38.000  
 15  4  3 19 57 48.0010000  0  9G 3G 6G16G23G 7G 9G10G30G 8
  21443878.677     1061430.985       -3228.013          49.000  
  25043157.203      568756.7183      -1812.741          23.000  
  21122409.789      445710.673       -1453.175          50.000  
  20748105.812      -14469.213         -28.453          39.000  
  22650745.997     -440499.652        1238.282          38.000  
  21746974.005     -453660.136        1292.538          40.000  
  23636031.359     -701289.7482       2047.898          29.000  
  25194302.892     -322354.9563       2092.006          17.000  
  24007754.693     1143638.434       -3392.307          38.000  
 15  4  3 19 57 49.0010000  0  9G 3G 6G16G23G 7G 9G10G30G 8
  21444492.925     1064659.718       -3228.748          49.000  
  25043502.857      570569.0103      -1805.284          24.000  
  21122686.619      447164.981       -1454.573          50.000  
  20748111.204      -14440.710         -28.416          39.000  
  22650510.349     -441737.414        1238.429          38.000  
  21746725.828     -454951.316        1291.413          39.000  
  23635641.574     -703336.0623       2044.731          29.000  
  25193906.894     -324439.1013       2083.208          16.000  
  24008400.456     1147030.512       -3392.450          38.000  
 15  4  3 19 57 50.0010000  0  9G 3G 6G16G23G 7G 9G10G30G 8
  21445107.609     1067889.122       -3229.728          49.000  
  25043848.772      572383.5963      -1805.432          25.000  
  21122963.223      448620.199       -1455.614          50.000  
  20748117.329      -14411.711         -28.779          39.000  
  22650274.614     -442974.769        1237.405          39.000  
  21746477.022     -456242.132        1291.443          39.000  
  23635252.312     -705381.6552       2042.391          29.000  
  25193512.083     -326522.5993       2083.732          14.000  
  24009046.393     1150422.805       -3391.184          38.000  
 15  4  3 19 57 51.0010000  0  9G 3G 6G16G23G 7G 9G10G30G 8
  21445722.275     1071119.094       -3230.246          49.000  
  25044194.392      574197.6263      -1816.086          24.000  
  21123240.454      450076.233       -1456.289          50.000  
  20748122.773      -14382.303         -29.007          39.000  
  22650038.966     -444211.763        1236.840          39.000  
  21746228.025     -457532.678        1290.705          39.000  
  23634863.468     -707426.6893       2052.072          28.000  
  25193116.452     -328606.3183       2083.732          10.000  
  24009691.859     1153815.179       -3393.172          38.000  
 15  4  3 19 57 52.0010000  0  8G 3G 6G16G23G 7G 9G10G 8
  21446337.413     1074349.753       -3230.610          49.000  
  25044539.941      576010.5063      -1813.151          25.000  
  21123517.965      451533.182       -1457.338          50.000  
  20748128.392      -14352.388         -29.917          39.000  
  22649803.284     -445448.289        1236.583          39.000  
  21745980.564     -458822.838        1290.496          39.000  
  23634475.009     -709471.2563       2043.505          26.000  
  24010337.168     1157207.806       -3392.445          39.000  
 15  4  3 19 57 53.0010000  0  8G 3G 6G16G23G 7G 9G10G 8
  21446952.236     1077581.013       -3231.462          49.000  
  25044886.834      577825.4143      -1816.183          25.000  
  21123795.720      452990.970       -1458.158          50.000  
  20748134.395      -14322.011         -30.849          39.000  
  22649568.404     -446684.451        1235.733          39.000  
  21745733.957     -460112.698        1289.254          38.000  
  23634085.747     -711515.2953       2044.213          26.000  
  24010982.844     1160600.537       -3392.435          39.000  
 15  4  3 19 57 54.0010000  0  8G 3G 6G16G23G 7G 9G10G 8
  21447567.025     1080812.892       -3232.125          49.000  
  25045232.610      579640.9303      -1815.962          26.000  
  21124073.056      454449.612       -1459.024          50.000  
  20748140.468      -14291.191         -31.827          39.000  
  22649333.175     -447920.266        1235.098          39.000  
  21745488.101     -461402.250        1289.226          38.000  
  23633694.269     -713558.6433       2043.944          26.000  
  24011627.490     1163993.441       -3393.958          39.000  
 15  4  3 19 57 55.0010000  0  8G 3G 6G16G23G 7G 9G10G 8
  21448182.075     1084045.396       -3232.822          49.000  
  25045578.700      581457.0793      -1818.114          26.000  
  21124350.358      455909.103       -1459.981          50.000  
  20748146.628      -14259.860         -30.920          40.000  
  22649098.051     -449155.639        1235.566          39.000  
  21745242.507     -462691.477        1289.802          39.000  
  23633304.972     -715601.5653       2041.698          26.000  
  24012273.148     1167386.497       -3393.212          39.000  
 15  4  3 19 57 56.0010000  0  8G 3G 6G16G23G 7G 9G10G 8
  21448797.614     1087278.515       -3233.904          49.000  
  25045929.240      583273.8743      -1817.516          26.000  
  21124627.677      457369.471       -1461.069          50.000  
  20748153.241      -14228.109         -31.918          40.000  
  22648863.502     -450390.631        1234.833          40.000  
  21744997.872     -463980.367        1288.920          39.000  
  23632916.024     -717643.2993       2042.071          25.000  
  24012919.155     1170779.738       -3394.040          40.000  
 15  4  3 19 57 57.0010000  0  9G 3G 6G16G23G 7G 9G10G30G 8
  21449413.084     1090512.279       -3233.979          49.000  
  25046275.853      585091.2563      -1818.068          27.000  
  21124905.641      458830.717       -1461.604          50.000  
  20748159.611      -14195.878         -32.010          40.000  
  22648629.303     -451625.223        1234.458          40.000  
  21744753.360     -465268.918        1288.836          39.000  
  23632526.692     -719685.1153       2041.790          23.000  
  25190715.494     -341158.4083       2087.973          20.000  
  24013564.481     1174173.109       -3393.813          39.000  
 15  4  3 19 57 58.0010000  0  9G 3G 6G16G23G 7G 9G10G30G 8
  21450028.361     1093746.576       -3234.225          48.000  
  25046621.804      586909.1333      -1817.159          25.000  
  21125184.531      460292.964       -1462.827          50.000  
  20748166.155      -14163.112         -33.440          39.000  
  22648393.969     -452859.497        1234.488          38.000  
  21744510.941     -466557.045        1287.958          44.000  
  23632136.261     -721726.7413       2044.366          22.000  
  25190301.627     -343241.2593       2076.044          22.000  
  24014208.953     1177567.014       -3394.625          39.000  
 15  4  3 19 57 59.0010000  0  9G 3G 6G16G23G 7G 9G10G30G 8
  21450643.865     1096980.103       -3232.204          48.000  
  25046970.965      588727.2633      -1812.134          23.000  
  21125461.919      461756.713       -1464.688          49.000  
  20748173.449      -14129.119         -34.604          40.000  
  22648161.428     -454094.415        1234.365          43.000  
  21744282.745     -467844.4883       1286.508          49.000  
  23631740.979     -723768.0203       2037.625          36.000  
  25189873.224     -345324.2193       2086.707          22.000  
  24014854.192     1180963.1063      -3397.857          36.000  
 15  4  3 19 58  0.0010000  0  9G 3G 6G16G23G 7G 9G10G30G 8
  21451259.264     1100211.119       -3228.694          49.000  
  25047319.289      590546.4563      -1821.854          24.000  
  21125740.826      463222.965       -1467.729          49.000  
  20748181.144      -14093.4063        -36.284          46.000  
  22647927.473     -455331.1933       1238.789          41.000  
  21744032.823     -469130.2153       1283.806          47.000  
  23631341.473     -725806.3183       2034.839          34.000  
  25189480.908     -347403.6773       2059.918          23.000  
  24015500.339     1184359.9633      -3402.594          31.000  
 15  4  3 19 58  1.0010000  0  9G 3G 6G16G23G 7G 9G10G30G 8
  21451873.460     1103438.793       -3224.809          49.000  
  25047667.037      592369.0343      -1825.121          24.000  
  21126020.169      464692.760       -1470.853          42.000  
  20748189.224      -14054.7362        -37.254          45.000  
  22647692.785     -456570.6653       1243.312          43.000  
  21743789.584     -470414.1132       1283.507          49.000  
  23630951.321     -727838.9703       2033.269          29.000  
  25189080.897     -349480.5973       2103.292          23.000  
  24016145.404     1187764.8113      -3407.000          37.000  
 15  4  3 19 58  2.0010000  0 10G 3G 6G16G23G 7G 9G10G30G 8G27
  21452487.376     1106663.517       -3224.619          49.000  
  25048015.623      594189.8233      -1804.773          24.000  
  21126300.524      466165.493       -1473.637          44.000  
  20748196.780      -14014.2092        -40.810          50.000  
  22647456.282     -457813.4073       1243.798          43.000  
  21743545.648     -471696.4372       1283.109          50.000  
  23630561.990     -729871.2043       2025.127          28.000  
  25188683.643     -351567.1493       2100.811          23.000  
  24016794.622     1191168.1523      -3392.891          34.000  
  24776105.667     -349348.0583       1649.500          21.000  
 15  4  3 19 58  3.0010000  0  9G 3G16G23G 7G 9G10G30G 8G27
  21453100.681     1109887.967       -3224.813          49.000  
  21126580.984      467640.6093      -1474.164          45.000  
  20748204.981      -13972.3492        -41.754          50.000  
  22647220.041     -459056.6773       1241.761          41.000  
  21743301.502     -472978.0282       1280.966          49.000  
  23630174.246     -731898.4983       2033.966          35.000  
  25188287.732     -353649.7983       2065.371          23.000  
  24017439.965     1194570.1013      -3412.817          39.000  
  24775789.975     -351003.6303       1646.078          20.000  
 15  4  3 19 58  4.0010000  0  9G 3G16G23G 7G 9G10G30G 8G27
  21453714.039     1113113.037       -3225.724          49.000  
  21126862.212      469116.0072      -1475.288          47.000  
  20748212.555      -13929.8752        -42.284          50.000  
  22646983.398     -460299.3393       1241.646          42.000  
  21743060.444     -474258.8212       1281.051          50.000  
  23629788.631     -733929.2693       2046.551          33.000  
  25187882.346     -355727.8523       2095.264          23.000  
  24018089.951     1197971.0963      -3396.365          34.000  
  24775474.998     -352653.4673       1646.567          21.000  
 15  4  3 19 58  5.0010000  0  9G 3G16G23G 7G 9G10G30G 8G27
  21454328.269     1116341.535       -3232.149          48.000  
  21127142.288      470590.5232      -1473.702          49.000  
  20748220.861      -13888.3952        -40.886          49.000  
  22646748.100     -461539.1833       1233.583          44.000  
  21742812.895     -475540.4692       1282.814          49.000  
  23629402.126     -735971.9693       2011.563          30.000  
  25187481.358     -357815.0583       2087.654          23.000  
  24018740.146     1201376.2693      -3405.143          34.000  
  24775156.672     -354298.0283       1641.291          24.000  
 15  4  3 19 58  6.0010000  0 11G 3G 6G16G23G 7G 9G32G10G30G 8G27
  21454944.052     1119577.804       -3239.819          48.000  
  25049409.389      601481.0613      -1821.691          21.000  
  21127422.015      472061.4672      -1468.322          48.000  
  20748228.609      -13850.2892        -35.823          50.000  
  22646512.766     -462772.7283       1231.117          42.000  
  21742569.605     -476824.7392       1286.561          49.000  
  24827905.015       73106.5263      -4226.398          32.000  
  23629016.511     -737996.5773       2037.893          34.000  
  25187099.320     -359894.0453       2081.240          30.000  
  24019392.017     1204773.3353      -3393.590          32.000  
  24774831.243     -355940.0343       1642.307          34.000  
 15  4  3 19 58  7.0010000  0 11G 3G 6G16G23G 7G 9G32G10G30G 8G27
  21455560.743     1122817.422       -3240.136          49.000  
  25049765.007      603316.7943      -1846.330          18.000  
  21127701.096      473530.9572      -1469.871          48.000  
  20748236.479      -13813.794         -36.847          51.000  
  22646276.612     -464003.7312       1230.777          41.000  
  21742324.062     -478110.4162       1285.291          49.000  
  24828715.386       77332.4213      -4225.845          33.000  
  23628627.179     -740033.3353       2036.090          34.000  
  25186705.975     -361974.9723       2080.585          32.000  
  24020043.608     1208167.7023      -3395.161          33.000  
  24774514.155     -357582.3653       1642.302          35.000  
 15  4  3 19 58  8.0010000  0 11G 3G 6G16G23G 7G 9G32G10G30G 8G27
  21456177.364     1126057.623       -3240.076          49.000  
  25050119.142      605163.1383      -1846.330          13.000  
  21127981.591      475001.2772      -1470.553          48.000  
  20748244.105      -13776.874         -37.179          51.000  
  22646040.389     -465234.4152       1229.353          41.000  
  21742078.957     -479395.8292       1285.341          49.000  
  24829519.126       81558.4303      -4225.587          33.000  
  23628242.437     -742069.3903       2035.729          34.000  
  25186314.828     -364055.4453       2081.039          32.000  
  24020695.112     1211562.2943      -3395.309          33.000  
  24774197.660     -359224.4653       1642.433          35.000  
 15  4  3 19 58  9.0010000  0 11G 3G 6G16G23G 7G 9G32G10G30G 8G27
  21456794.089     1129298.482       -3240.999          48.000  
  25050473.608      607009.4813      -1846.330          10.000  
  21128261.475      476472.4882      -1471.838          48.000  
  20748250.701      -13739.455         -37.742          51.000  
  22645805.229     -466464.6462       1230.089          40.000  
  21741834.549     -480680.8712       1284.848          49.000  
  24830323.005       85784.3873      -4226.504          33.000  
  23627852.110     -744104.9953       2035.115          34.000  
  25185919.790     -366135.5063       2079.478          32.000  
  24021339.182     1214957.2822      -3396.209          34.000  
  24773885.982     -360866.3332       1640.687          35.000  
 15  4  3 19 58 10.0010000  0 11G 3G 6G16G23G 7G 9G32G10G30G 8G27
  21457410.675     1132539.946       -3241.702          48.000  
  25050822.822      608838.8903      -1826.539          10.000  
  21128541.307      477944.5532      -1472.508          48.000  
  20748258.606      -13701.597         -37.974          51.000  
  22645570.280     -467694.4972       1230.568          40.000  
  21741589.757     -481965.5982       1284.493          49.000  
  24831123.027       90010.8092      -4227.034          32.000  
  23627466.408     -746139.8452       2035.938          34.000  
  25185526.096     -368215.0213       2079.825          32.000  
  24021989.761     1218352.4122      -3394.605          34.000  
  24773571.738     -362507.9222       1641.713          34.000  
 15  4  3 19 58 11.0010000  0 11G 3G 6G16G23G 7G 9G32G10G30G 8G27
  21458027.488     1135781.910       -3242.511          48.000  
  25051169.750      610664.4783      -1824.549           9.000  
  21128821.365      479417.3622      -1473.263          48.000  
  20748265.516      -13663.395         -38.446          51.000  
  22645335.365     -468924.0802       1229.966          40.000  
  21741345.646     -483250.1242       1284.476          49.000  
  24831927.168       94237.3572      -4227.028          32.000  
  23627078.699     -748174.3032       2034.200          34.000  
  25185127.393     -370294.5732       2080.100          31.000  
  24022633.046     1221747.5942      -3393.956          33.000  
  24773259.746     -364149.3692       1641.897          34.000  
 15  4  3 19 58 12.0010000  0 11G 3G 6G16G23G 7G 9G32G10G30G 8G27
  21458644.231     1139024.429       -3242.470          48.000  
  25051518.038      612488.0643      -1822.560           9.000  
  21129101.790      480890.9722      -1473.708          48.000  
  20748272.601      -13624.793         -38.667          51.000  
  22645100.851     -470153.3542       1229.347          40.000  
  21741101.186     -484534.3832       1284.346          49.000  
  24832732.199       98464.0102      -4229.512          32.000  
  23626690.886     -750208.2642       2034.943          34.000  
  25184736.177     -372373.9202       2078.812          31.000  
  24023280.553     1225142.8442      -3395.733          34.000  
  24772947.544     -365790.6432       1640.376          34.000  
 15  4  3 19 58 13.0010000  0 11G 3G 6G16G23G 7G 9G32G10G30G 8G27
  21459261.289     1142267.609       -3243.318          48.000  
  25051866.816      614315.3493      -1827.203           9.000  
  21129382.320      482364.955       -1474.987          48.000  
  20748280.227      -13585.699         -39.430          51.000  
  22644866.617     -471382.195        1228.944          40.000  
  21740856.848     -485818.3042       1283.473          49.000  
  24833537.335      102690.9452      -4227.442          32.000  
  23626305.149     -752241.6412       2033.256          33.000  
  25184340.929     -374452.9022       2076.092          30.000  
  24023926.735     1228538.2932      -3395.371          34.000  
  24772635.080     -367431.6152       1640.620          33.000  
 15  4  3 19 58 14.0010000  0 11G 3G 6G16G23G 7G 9G32G10G30G 8G27
  21459878.817     1145511.534       -3243.849          48.000  
  25052216.867      616141.9103      -1825.872          12.000  
  21129662.920      483840.439       -1475.888          48.000  
  20748287.783      -13546.014         -39.575          51.000  
  22644632.784     -472610.500        1227.961          40.000  
  21740612.283     -487101.7432       1283.530          49.000  
  24834345.001      106918.2372      -4226.112          32.000  
  23625918.120     -754274.3372       2032.425          33.000  
  25183943.605     -376531.4452       2079.504          30.000  
  24024571.974     1231934.0292      -3396.088          34.000  
  24772322.023     -369072.1472       1641.551          34.000  
 15  4  3 19 58 15.0010000  0 11G 3G 6G16G23G 7G 9G32G10G30G 8G27
  21460496.101     1148756.097       -3244.337          48.000  
  25052564.894      617967.1523      -1824.542          12.000  
  21129943.938      485316.809       -1476.245          48.000  
  20748295.286      -13505.844         -39.921          51.000  
  22644398.550     -473838.399        1228.781          40.000  
  21740367.858     -488384.8582       1283.427          49.000  
  24835149.124      111145.7272      -4227.729          31.000  
  23625530.917     -756306.4572       2031.956          33.000  
  25183553.610     -378609.7362       2075.652          29.000  
  24025218.592     1235329.9792      -3393.800          33.000  
  24772009.752     -370712.4162       1640.952          34.000  
 15  4  3 19 58 16.0010000  0 11G 3G 6G16G23G 7G 9G32G10G30G 8G27
  21461113.769     1152001.199       -3245.299          48.000  
  25052913.393      619789.1973      -1821.040          12.000  
  21130224.991      486793.938       -1477.384          48.000  
  20748303.174      -13465.290         -40.672          51.000  
  22644164.647     -475065.988        1227.835          40.000  
  21740123.538     -489667.7212       1282.689          49.000  
  24835953.562      115373.4132      -4226.459          31.000  
  23625144.535     -758338.0682       2030.428          33.000  
  25183156.932     -380687.6853       2079.159          29.000  
  24025865.000     1238725.9542      -3396.803          34.000  
  24771697.759     -372352.5022       1639.648          34.000  
 15  4  3 19 58 17.0010000  0 10G 3G 6G16G23G 7G 9G10G30G 8G27
  21461731.367     1155246.188       -3244.806          48.000  
  25053256.115      621609.4923      -1819.490          12.000  
  21130506.777      488272.250       -1479.481          49.000  
  20748309.526      -13424.055         -42.196          50.000  
  22643934.444     -476293.808        1229.278          40.000  
  21739881.695     -490950.1032       1281.619          50.000  
  23624758.798     -760368.7222       2031.439          30.000  
  25182760.219     -382764.8233       2076.578          29.000  
  24026510.641     1242123.0343      -3405.956          28.000  
  24771386.430     -373992.4232       1640.376          37.000  
 15  4  3 19 58 18.0010000  0 10G 3G 6G16G23G 7G 9G10G30G 8G27
  21462348.773     1158489.734       -3242.630          49.000  
  25053600.007      623434.7763      -1833.424          22.000  
  21130788.511      489752.469       -1483.185          49.000  
  20748317.448      -13381.384         -44.507          50.000  
  22643702.845     -477522.909        1234.926          43.000  
  21739637.863     -492231.4072       1279.109          49.000  
  23624374.108     -762400.0163       2036.749          23.000  
  25182364.518     -384841.9713       2079.523          22.000  
  24027151.867     1245522.2553      -3402.182          32.000  
  24771075.502     -375632.1642       1641.606          31.000  
 15  4  3 19 58 19.0010000  0 10G 3G 6G16G23G 7G 9G10G30G 8G27
  21462965.917     1161729.482       -3237.725          48.000  
  25053946.166      625267.9923      -1841.358          23.000  
  21131070.855      491235.916       -1485.003          50.000  
  20748326.313      -13336.066         -45.936          50.000  
  22643470.635     -478754.9403       1234.173          45.000  
  21739394.694     -493510.408        1278.029          49.000  
  23623993.291     -764425.8943       2029.011          29.000  
  25181965.867     -386912.2673       2068.057          24.000  
  24027797.786     1248926.5883      -3410.816          32.000  
  24770766.284     -377272.9043       1640.000          34.000  
 15  4  3 19 58 20.0010000  0 10G 3G 6G16G23G 7G 9G10G30G 8G27
  21463581.439     1164964.428       -3233.931          47.000  
  25054291.402      627102.2923      -1850.433          22.000  
  21131353.898      492722.482       -1487.705          49.000  
  20748335.614      -13287.719         -49.810          50.000  
  22643236.383     -479989.0383       1234.986          39.000  
  21739151.561     -494786.187        1273.945          48.000  
  23623611.306     -766464.3403       2032.864          29.000  
  25181567.357     -388988.5203       2070.750          25.000  
  24028448.034     1252337.1973      -3407.396          30.000  
  24770462.790     -378912.0883       1639.306          30.000  
 15  4  3 19 58 21.0010000  0 10G 3G 6G16G23G 7G 9G10G30G 8G27
  21464196.716     1168197.129       -3231.838          47.000  
  25054636.427      628929.7353      -1862.767          21.000  
  21131637.342      494211.617       -1491.369          50.000  
  20748345.089      -13237.099         -51.349          50.000  
  22643002.079     -481224.2783       1237.778          45.000  
  21738908.793     -496059.858        1273.312          49.000  
  23623228.693     -768480.7703       2013.018          29.000  
  25181168.043     -391066.4103       2078.928          24.000  
  24029098.229     1255750.9243      -3415.810          21.000  
  24770152.630     -380548.8603       1642.487          28.000  
 15  4  3 19 58 22.0010000  0  9G 3G16G23G 7G 9G10G30G 8G27
  21464811.191     1171427.887       -3229.568          49.000  
  21131921.222      495703.390       -1494.192          50.000  
  20748354.948      -13184.537         -54.215          50.000  
  22642766.379     -482462.1423       1239.118          46.000  
  21738666.916     -497332.010        1269.818          48.000  
  23622841.647     -770508.2553       2025.819          27.000  
  25180773.668     -393132.2213       2052.103          22.000  
  24029750.518     1259166.3383      -3400.479          23.000  
  24769841.859     -382177.9973       1617.080          19.000  
 15  4  3 19 58 23.0010000  0  9G 3G16G23G 7G 9G10G30G 8G27
  21465425.875     1174658.316       -3231.920          49.000  
  21132205.120      497197.065       -1493.316          51.000  
  20748365.314      -13130.740         -53.504          49.000  
  22642529.160     -483700.4053       1237.975          46.000  
  21738425.457     -498603.502        1273.318          50.000  
  23622452.891     -772537.3583       2038.137          27.000  
  25180382.365     -395181.3553       2054.115          22.000  
  24030400.940     1262579.4073      -3416.429          29.000  
  24769533.095     -383791.6853       1665.004          18.000  
 15  4  3 19 58 24.0010000  0 10G 3G 6G16G23G 7G 9G10G30G 8G27
  21466041.745     1177894.344       -3241.215          49.000  
  25055628.193      634407.4073      -1828.663          31.000  
  21132489.209      498690.0823      -1485.892          31.000  
  20748375.295      -13078.804         -49.493          50.000  
  22642294.036     -484935.0142       1229.232          46.000  
  21738183.004     -499876.860        1275.433          49.000  
  23622063.332     -774559.0123       2029.173          28.000  
  25179993.679     -397237.4743       2063.562          22.000  
  24031052.479     1265997.4453      -3409.377          30.000  
  24769219.898     -385438.7253       1653.161          19.000  
 15  4  3 19 58 25.0010000  0 10G 3G 6G16G23G 7G 9G10G30G 8G27
  21466659.116     1181140.559       -3249.582          48.000  
  25055956.850      636238.8253      -1831.414          26.000  
  21132772.147      500178.0973      -1486.227          30.000  
  20748383.672      -13031.734         -44.572          49.000  
  22642060.360     -486162.2452       1224.081          38.000  
  21737941.039     -501154.759        1280.289          49.000  
  23621674.018     -776582.9063       2027.441          35.000  
  25179598.152     -399310.7043       2075.793          22.000  
  24031699.812     1269400.6523      -3396.986          30.000  
  24768908.674     -387075.7973       1650.122          21.000  
 15  4  3 19 58 26.0010000  0 10G 3G 6G16G23G 7G 9G10G30G 8G27
  21467277.953     1184390.274       -3248.336          48.000  
  25056309.956      638073.4163      -1833.751          30.000  
  21133054.945      501664.0283      -1486.035          38.000  
  20748392.152      -12986.326         -46.084          50.000  
  22641826.178     -487387.1742       1225.632          47.000  
  21737697.190     -502434.214        1278.852          48.000  
  23621286.431     -778609.1743       2025.386          28.000  
  25179163.188     -401385.7823       2083.832          21.000  
  24032342.015     1272799.1493      -3396.271          30.000  
  24768596.856     -388714.2133       1647.004          23.000  
 15  4  3 19 58 27.0010000  0 10G 3G 6G16G23G 7G 9G10G30G 8G27
  21467895.517     1187635.778       -3243.600          48.000  
  25056660.408      639907.9073      -1833.190          27.000  
  21133340.780      503152.5063      -1497.424          34.000  
  20748401.610      -12937.987         -50.978          50.000  
  22641593.515     -488615.2943       1230.822          47.000  
  21737453.899     -503711.109        1274.696          51.000  
  23620899.315     -780637.3433       2049.222          28.000  
  25178750.019     -403466.9283       2091.958          22.000  
  24033060.022     1276192.1333      -3382.639          30.000  
  24768284.566     -390354.2643       1647.313          23.000  
 15  4  3 19 58 28.0010000  0 10G 3G 6G16G23G 7G 9G10G30G 8G27
  21468512.138     1190874.384       -3235.532          49.000  
  25057005.242      641750.3983      -1846.667          32.000  
  21133621.309      504644.8703      -1491.948          51.000  
  20748412.081      -12885.649         -53.824          50.000  
  22641359.629     -489845.6492       1228.073          46.000  
  21737211.637     -504982.6283       1265.143          49.000  
  23620512.531     -782677.5533       2041.849          28.000  
  25178352.067     -405540.8883       2057.735          22.000  
  24033685.211     1279577.2313      -3408.126          30.000  
  24767969.346     -392003.2013       1648.002          23.000  
 15  4  3 19 58 29.0010000  0  9G 3G 6G16G23G 7G 9G10G 8G27
  21469127.764     1194108.744       -3234.472          48.000  
  25057352.536      643597.5583      -1851.021          41.000  
  21133906.446      506135.3322      -1486.166          44.000  
  20748422.446      -12830.414         -55.865          50.000  
  22641126.721     -491069.8412       1217.827          50.000  
  21736971.418     -506245.7182       1259.618          49.000  
  23620124.578     -784710.1633       2030.721          32.000  
  24034322.737     1282989.7373      -3395.961          29.000  
  24767645.051     -393658.2663       1661.366          34.000  
 15  4  3 19 58 30.0010000  0  9G 3G 6G16G23G 7G 9G10G 8G27
  21469743.233     1197342.975       -3235.660          51.000  
  25057705.380      645456.2823      -1866.633          37.000  
  21134190.047      507618.3923      -1477.605          39.000  
  20748432.637      -12775.959         -53.124          49.000  
  22640895.244     -492282.3242       1206.871          48.000  
  21736732.367     -507501.8922       1252.800          49.000  
  23619733.746     -786711.7833       1988.252          45.000  
  24034986.508     1286390.8373      -3413.552          28.000  
  24767325.136     -395323.9973       1671.900          34.000  
 15  4  3 19 58 31.0010000  0  9G 3G 6G16G23G 7G 9G10G30G 8
  21470362.489     1200585.9003      -3243.721          40.000  
  25058063.004      647329.5913      -1874.852          24.000  
  21134469.460      509094.4062      -1473.771          47.000  
  20748442.985      -12722.901         -52.131          50.000  
  22640666.978     -493482.4642       1195.504          48.000  
  21736494.189     -508753.1662       1249.484          49.000  
  23619353.418     -788696.8713       1981.664          47.000  
  25177153.987     -411792.5293       2059.017          22.000  
  24035644.050     1289806.5293      -3414.401          26.000  
 15  4  3 19 58 32.0010000  0 10G 3G 6G16G23G 7G 9G10G30G 8G27
  21470977.173     1203825.9233      -3241.494          49.000  
  25058422.147      649210.2313      -1886.185          31.000  
  21134748.053      510565.3642      -1468.657          48.000  
  20748453.333      -12670.891         -51.598          50.000  
  22640440.300     -494673.7823       1187.950          50.000  
  21736256.639     -510000.6192       1246.872          49.000  
  23618976.511     -790675.5133       1976.022          46.000  
  25176765.598     -413864.3213       2073.638          21.000  
  24036290.755     1293239.0143      -3446.548          25.000  
  24766683.823       -1285.7443       1687.766          39.000  
 15  4  3 19 58 33.0010000  0 10G 3G 6G16G23G 7G 9G10G30G 8G27
  21471591.490     1207066.8072      -3242.379          45.000  
  25058783.314      651098.1803      -1892.636          29.000  
  21135029.053      512034.3202      -1468.461          49.000  
  20748462.896      -12618.922         -52.054          49.000  
  22640216.326     -495862.9933       1185.199          41.000  
  21736019.753     -511245.4662       1244.589          49.000  
  23618601.436     -792650.0403       1972.596          44.000  
  25176375.463     -415936.4323       2042.479          20.000  
  24036912.943     1296638.1953      -3380.768          29.000  
  24766362.652       -2975.1283       1688.081          39.000  
 15  4  3 19 58 34.0010000  0 10G 3G 6G16G23G 7G 9G10G30G 8G27
  21472209.559     1210308.0462      -3241.752          51.000  
  25059143.731      652976.4813      -1877.570          28.000  
  21135308.536      513502.9902      -1469.059          48.000  
  20748472.476      -12566.200         -53.270          48.000  
  22639994.359     -497046.4083       1183.372          41.000  
  21735783.546     -512488.1622       1241.599          49.000  
  23618226.326     -794621.3882       1968.779          44.000  
  25175992.064     -417978.9073       2038.887          20.000  
  24037543.838     1300017.6383      -3381.109          29.000  
  24766040.311       -4666.8412       1693.665          39.000  
 15  4  3 19 58 35.0010000  0 11G 3G 6G16G23G 7G 9G32G10G30G 8G27
  21472825.988     1213549.5382      -3242.768          47.000  
  25059502.996      654859.8653      -1890.954          27.000  
  21135587.792      514972.0082      -1469.822          48.000  
  20748483.225      -12512.692         -53.431          48.000  
  22639768.257     -498229.0703       1182.079          49.000  
  21735547.427     -513729.3482       1241.087          50.000  
  24851146.768      195632.5793      -4186.279          39.000  
  23617852.403     -796590.3912       1970.103          35.000  
  25175609.643     -420014.6303       2030.132          19.000  
  24038184.680     1303397.4423      -3374.488          29.000  
  24765719.542       -6359.7172       1690.918          35.000  
 15  4  3 19 58 36.0010000  0 11G 3G 6G16G23G 7G 9G32G10G30G 8G27
  21473442.295     1216792.1332      -3243.989          48.000  
  25059864.425      656750.3313      -1886.805          27.000  
  21135867.310      516441.9612      -1470.633          48.000  
  20748493.573      -12459.026         -53.571          49.000  
  22639543.707     -499411.3593       1182.359          50.000  
  21735311.588     -514970.8742       1241.644          49.000  
  24851942.394      199819.7733      -4188.071          38.000  
  23617480.765     -798558.8363       1965.726          28.000  
  25175230.502     -422058.7543       2037.348          20.000  
  24038832.449     1306778.6963      -3378.104          29.000  
  24765396.555       -8051.6682       1691.916          37.000  
 15  4  3 19 58 37.0010000  0 11G 3G 6G16G23G 7G 9G32G10G30G 8G27
  21474059.283     1220036.0392      -3243.942          46.000  
  25060225.383      658640.8473      -1893.906          33.000  
  21136147.717      517912.939       -1470.829          49.000  
  20748503.397      -12405.442         -53.237          48.000  
  22639316.209     -500594.0752       1183.719          47.000  
  21735074.858     -516213.307        1243.981          48.000  
  24852743.708      204008.7933      -4189.543          44.000  
  23617108.674     -800528.7453       1971.996          28.000  
  25174846.911     -424092.2123       2029.045          22.000  
  24039473.326     1310165.9973      -3391.471          28.000  
  24765074.686       -9742.0012       1690.096          38.000  
 15  4  3 19 58 38.0010000  0 11G 3G 6G16G23G 7G 9G32G10G30G 8G27
  21474676.916     1223281.0832      -3246.649          47.000  
  25060586.690      660532.1743      -1891.149          39.000  
  21136427.793      519385.5853      -1475.237          48.000  
  20748514.252      -12351.706         -54.152          48.000  
  22639089.775     -501778.0412       1185.186          46.000  
  21734838.617     -517456.989        1243.305          48.000  
  24853541.025      208199.5433      -4191.369          37.000  
  23616736.793     -802500.4433       1973.182          29.000  
  25174461.087     -426125.9553       2047.279          21.000  
  24040122.840     1313572.5433      -3428.667          27.000  
  24764754.492      -11429.8432       1686.287          38.000  
 15  4  3 19 58 39.0010000  0 11G 3G 6G16G23G 7G 9G32G10G30G 8G27
  21475294.706     1226527.4332      -3246.379          47.000  
  25060947.700      662421.3573      -1887.909          34.000  
  21136708.532      520860.4302      -1475.188          47.000  
  20748524.390      -12297.607         -53.532          48.000  
  22638862.713     -502963.5302       1185.993          46.000  
  21734601.608     -518702.049        1247.419          48.000  
  24854340.158      212392.6843      -4202.993          29.000  
  23616360.601     -804476.6603       1975.223          29.000  
  25174076.188     -428165.0803       2052.513          20.000  
  24040778.148     1316992.2783      -3408.105          25.000  
  24764433.967      -13114.8192       1682.180          40.000  
 15  4  3 19 58 40.0010000  0 10G 3G 6G16G23G 7G 9G10G30G 8G27
  21475912.251     1229775.0962      -3247.997          45.000  
  25061306.668      664306.4553      -1883.583          30.000  
  21136989.987      522337.9982      -1479.411          47.000  
  20748534.686      -12243.622         -53.503          49.000  
  22638636.418     -504152.0712       1189.250          47.000  
  21734363.448     -519949.843        1249.737          49.000  
  23615984.427     -806456.1893       1992.435          28.000  
  25173677.468     -430248.6663       2048.872          20.000  
  24041429.897     1320410.8873      -3415.353          24.000  
  24764114.052      -14794.7862       1675.450          36.000  
 15  4  3 19 58 41.0010000  0 10G 3G 6G16G23G 7G 9G10G30G 8G27
  21476530.774     1233024.7202      -3247.745          47.000  
  25061663.962      666181.1683      -1867.417          22.000  
  21137271.249      523818.9652      -1479.122          48.000  
  20748544.720      -12189.549         -51.416          49.000  
  22638410.089     -505344.3122       1195.785          47.000  
  21734125.793     -521200.921        1253.790          48.000  
  23615605.164     -808442.0673       1981.408          32.000  
  25173281.470     -432304.3203       2046.009          24.000  
  24042009.017     1323800.1243      -3385.497          37.000  
  24763795.690      -16468.7032       1674.885          34.000  
 15  4  3 19 58 42.0010000  0 10G 3G 6G16G23G 7G 9G10G30G 8G27
  21477149.559     1236275.6312      -3250.529          47.000  
  25062022.162      668058.3213      -1877.669          30.000  
  21137553.454      525302.2122      -1483.219          48.000  
  20748555.102      -12134.823         -54.081          50.000  
  22638182.974     -506537.7672       1194.229          48.000  
  21733887.284     -522452.951        1252.365          49.000  
  23615223.545     -810426.4683       1984.672          35.000  
  25172884.163     -434351.4903       2041.034          26.000  
  24042652.947     1327185.0883      -3377.092          31.000  
  24763477.520      -18139.1113       1671.650          32.000  
 15  4  3 19 58 43.0010000  0 10G 3G 6G16G23G 7G 9G10G30G 8G27
  21477768.396     1239526.623       -3252.295          47.000  
  25062379.263      669935.7713      -1876.481          23.000  
  21137836.130      526786.5942      -1485.760          48.000  
  20748565.346      -12080.046         -55.007          49.000  
  22637956.226     -507732.525        1195.267          48.000  
  21733648.338     -523705.677        1252.698          48.000  
  23614845.608     -812411.1413       1986.169          36.000  
  25172486.961     -436398.2753       2050.499          31.000  
  24043299.234     1330571.9883      -3391.030          34.000  
  24763161.252      -19808.7353       1670.142          32.000  
 15  4  3 19 58 44.0010000  0 10G 3G 6G16G23G 7G 9G10G30G 8G27
  21478387.129     1242778.734       -3253.771          48.000  
  25062735.335      671811.8483      -1876.610          26.000  
  21138118.754      528272.4202      -1488.298          49.000  
  20748575.868      -12025.153         -57.253          49.000  
  22637727.960     -508927.887        1196.062          47.000  
  21733410.055     -524959.394        1253.472          49.000  
  23614465.141     -814397.3373       1985.334          36.000  
  25172095.309     -438447.1543       2051.137          27.000  
  24043941.000     1333962.3113      -3391.380          33.000  
  24762843.414      -21473.8663       1667.523          28.000  
 15  4  3 19 58 45.0010000  0 10G 3G 6G16G23G 7G 9G10G30G 8G27
  21479006.524     1246031.615       -3253.289          42.000  
  25063092.000      673686.2463      -1867.056          27.000  
  21138401.971      529759.8252      -1487.801          45.000  
  20748586.705      -11969.874         -54.307          50.000  
  22637500.025     -510124.172        1196.110          46.000  
  21733171.388     -526213.762        1254.326          49.000  
  23614086.663     -816384.3863       1988.765          43.000  
  25171702.068     -440494.0993       2051.932          27.000  
  24044585.350     1337350.5563      -3386.413          36.000  
  24762525.052      -23139.9533       1665.495          33.000  
 15  4  3 19 58 46.0010000  0 11G 3G 6G16G23G 7G 9G32G10G30G 8G27
  21479625.762     1249285.353       -3253.995          42.000  
  25063450.079      675557.6413      -1870.760          32.000  
  21138685.485      531249.1143      -1490.561          47.000  
  20748597.541      -11914.046         -57.467          49.000  
  22637272.649     -511321.609        1199.062          47.000  
  21732932.373     -527468.870        1255.963          49.000  
  24859948.833      242023.6543      -4204.124          31.000  
  23613707.749     -818372.4992       1989.667          45.000  
  25171313.382     -442544.0813       2055.914          27.000  
  24045236.487     1340751.3033      -3394.008          23.000  
  24762207.214      -24803.5893       1660.610          29.000  
 15  4  3 19 58 47.0010000  0 11G 3G 6G16G23G 7G 9G32G10G30G 8G27
  21480245.280     1252541.0943      -3257.972          47.000  
  25063806.796      677426.8913      -1866.909          30.000  
  21138969.435      532741.2823      -1493.264          46.000  
  20748608.046      -11857.927         -54.941          50.000  
  22637044.191     -512521.627        1201.131          48.000  
  21732692.991     -528726.185        1258.687          48.000  
  24860745.016      246237.6623      -4210.138          27.000  
  23613325.799     -820363.7852       1993.163          46.000  
  25170945.147     -444603.0643       2059.685          25.000  
  24045895.425     1344146.1853      -3411.283          24.000  
  24761891.627      -26463.1123       1657.451          33.000  
 15  4  3 19 58 48.0010000  0  9G 3G16G23G 7G 9G32G30G 8G27
  21480865.234     1255797.7623      -3255.796          35.000  
  21139253.646      534235.6822      -1495.177          48.000  
  20748618.499      -11801.759         -54.185          46.000  
  22636815.680     -513724.196        1202.751          45.000  
  21732453.312     -529985.856        1260.225          49.000  
  24861541.392      250451.0003      -4215.512          31.000  
  25170588.622     -446657.6003       2053.796          25.000  
  24046553.123     1347552.8263      -3392.236          25.000  
  24761576.179      -28118.3973       1653.535          37.000  
 15  4  3 19 58 49.0010000  0 11G 3G 6G16G23G 7G 9G32G10G30G 8G27
  21481485.956     1259055.6953      -3256.727          37.000  
  25064513.600        1943.2923      -1859.791          31.000  
  21139538.172      535732.1472      -1497.758          50.000  
  20748628.638      -11745.825         -54.889          48.000  
  22636587.431     -514927.4343       1199.998          35.000  
  21732213.005     -531247.245        1262.248          47.000  
  24862344.154      254670.1893      -4217.000          34.000  
  23612568.686       -2097.8673       1997.572          45.000  
  25170211.331     -448718.7673       2057.848          25.000  
  24047200.178     1350949.6543      -3386.521          24.000  
  24761258.097      -29770.2983       1651.202          35.000  
 15  4  3 19 58 50.0010000  0 11G 3G 6G16G23G 7G 9G32G10G30G 8G27
  21482106.189     1262315.2823      -3252.198          36.000  
  25064864.872        3803.2583      -1853.846          30.000  
  21139823.728      537230.5242      -1498.489          47.000  
  20748640.085      -11689.630         -56.466          49.000  
  22636358.554     -516133.3443       1206.557          35.000  
  21731972.733     -532510.186        1264.407          49.000  
  24863145.259      258889.1033      -4220.114          42.000  
  23612188.289       -4097.1123       1999.449          45.000  
  25169811.442     -450777.7893       2058.003          26.000  
  24047835.592     1354345.0703      -3391.756          25.000  
  24760946.523      -31419.1163       1651.929          33.000  
 15  4  3 19 58 51.0010000  0 11G 3G 6G16G23G 7G 9G32G10G30G 8G27
  21482726.212     1265575.0693      -3260.793          46.000  
  25065217.280        5662.9373      -1857.905          30.000  
  21140109.475      538730.3692      -1499.159          50.000  
  20748650.468      -11633.142         -56.268          49.000  
  22636129.520     -517341.3113       1205.532          32.000  
  21731732.705     -533773.739        1263.501          49.000  
  24863947.568      263110.0103      -4220.506          40.000  
  23611808.485       -6097.0142       1998.043          45.000  
  25169411.814     -452838.0213       2069.505          26.000  
  24048480.901     1357740.4583      -3395.695          26.000  
  24760635.490      -33066.4483       1646.643          39.000  
 15  4  3 19 58 52.0010000  0 11G 3G 6G16G23G 7G 9G32G10G30G 8G27
  21483346.637     1268835.9663      -3261.556          51.000  
  25065579.755        7520.9073      -1852.429          29.000  
  21140394.681      540231.5023      -1501.291          37.000  
  20748661.095      -11576.172         -57.601          51.000  
  22635897.275     -518547.7503       1206.716          37.000  
  21731492.049     -535037.003        1265.493          46.000  
  24864749.911      267331.1853      -4219.700          30.000  
  23611428.053       -8096.3522       1999.028          46.000  
  25169018.591     -454899.0253       2049.297          27.000  
  24049121.464     1361133.7673      -3391.950          28.000  
  24760321.299      -34713.4353       1648.924          35.000  
 15  4  3 19 58 53.0010000  0 11G 3G 6G16G23G 7G 9G32G10G30G 8G27
  21483967.586     1272098.8322      -3266.067          48.000  
  25065929.353        9365.8363      -1852.623          28.000  
  21140680.743      541734.7043      -1506.390          37.000  
  20748672.385      -11519.160         -56.234          49.000  
  22635678.484     -519755.4653       1207.318          35.000  
  21731250.660     -536302.782        1268.002          43.000  
  24865555.884      271555.6223      -4228.828          43.000  
  23611047.045      -10099.2162       2006.967          47.000  
  25168633.098     -456969.5393       2071.590          25.000  
  24049763.004     1364530.9663      -3394.883          32.000  
  24760010.249      -36355.8923       1636.746          36.000  
 15  4  3 19 58 54.0010000  0 10G 3G 6G16G23G 7G 9G32G10G 8G27
  21484589.424     1275364.7232      -3267.530          48.000  
  25066273.122       11216.2823      -1840.632          19.000  
  21140968.532      543241.8003      -1508.529          40.000  
  20748683.833      -11462.610         -56.453          50.000  
  22635451.387     -520967.5223       1214.825          41.000  
  21731008.870     -537573.306        1271.586          43.000  
  24866358.001      275787.0963      -4233.531          42.000  
  23610661.133      -12108.7312       2012.713          44.000  
  24050411.820     1367928.7193      -3399.330          30.000  
  24759699.670      -37990.0523       1631.253          35.000  
 15  4  3 19 58 55.0010000  0 10G 3G 6G16G23G 7G 9G32G10G 8G27
  21485211.036     1278632.1752      -3267.339          48.000  
  25066625.058       13064.2503      -1848.875          24.000  
  21141256.862      544750.7812      -1509.293          40.000  
  20748694.512      -11405.846         -57.083          50.000  
  22635220.486     -522181.5992       1214.402          41.000  
  21730765.719     -538845.310        1271.613          43.000  
  24867162.107      280021.2602      -4233.687          41.000  
  23610279.724      -14120.3862       2011.400          43.000  
  24051058.613     1371329.0093      -3401.128          29.000  
  24759388.952      -39621.2902       1630.976          36.000  
 15  4  3 19 58 56.0010000  0 11G 3G 6G16G23G 7G 9G32G10G30G 8G27
  21485833.503     1281900.2842      -3268.271          48.000  
  25066976.750       14912.9773      -1848.836          26.000  
  21141545.506      546260.6642      -1510.596          40.000  
  20748705.523      -11348.541         -57.418          50.000  
  22634989.270     -523395.1722       1213.223          40.000  
  21730523.231     -540116.872        1271.340          43.000  
  24867969.598      284255.6802      -4233.558          41.000  
  23609896.848      -16131.3362       2010.311          43.000  
  25167492.953     -463161.7613       2067.601          26.000  
  24051705.771     1374729.6033      -3401.732          28.000  
  24759078.634      -41252.2542       1630.963          36.000  
 15  4  3 19 58 57.0010000  0 11G 3G 6G16G23G 7G 9G32G10G30G 8G27
  21486453.963     1285168.1622      -3267.397          48.000  
  25067334.131       16762.6583      -1850.573          30.000  
  21141831.044      547770.5282      -1509.865          40.000  
  20748716.412      -11290.841         -58.302          49.000  
  22634756.676     -524607.3742       1210.518          42.000  
  21730282.365     -541387.309        1268.172          44.000  
  24868776.165      288488.5112      -4228.423          42.000  
  23609515.439      -18140.3572       2006.979          48.000  
  25167022.653     -465229.3193       2070.261          24.000  
  24052354.152     1378131.0093      -3400.554          32.000  
  24758767.794      -42884.9143       1636.331          32.000  
 15  4  3 19 58 58.0010000  0 11G 3G 6G16G23G 7G 9G32G10G30G 8G27
  21487075.714     1288433.7872      -3264.358          50.000  
  25067690.080       18618.1313      -1859.093          27.000  
  21142118.501      549278.8563      -1505.423          35.000  
  20748727.284      -11232.006         -59.120          50.000  
  22634530.347     -525814.3113       1201.538          36.000  
  21730042.460     -542652.525        1262.999          43.000  
  24869588.455      292714.8163      -4223.583          41.000  
  23609135.059      -20141.8492       1997.537          44.000  
  25166650.806     -467295.0773       2066.858          25.000  
  24052996.704     1381529.2573      -3397.613          33.000  
  24758457.058      -44524.5933       1645.163          33.000  
 15  4  3 19 58 59.0010000  0 11G 3G 6G16G23G 7G 9G32G10G30G 8G27
  21487696.226     1291695.5272      -3258.440          48.000  
  25068047.810       20480.7953      -1869.655          26.000  
  21142405.487      550787.1473      -1505.919          40.000  
  20748738.155      -11170.689         -61.952          44.000  
  22634302.186     -527013.0393       1200.365          38.000  
  21729803.147     -543911.676        1255.628          47.000  
  24870384.168      296932.8183      -4213.113          40.000  
  23608756.145      -22134.5412       1989.235          45.000  
  25166241.179     -469353.5573       2048.326          27.000  
  24053643.531     1384930.6443      -3402.863          30.000  
  24758143.495      -46172.3493       1644.032          29.000  
 15  4  3 19 59  0.0010000  0 11G 3G 6G16G23G 7G 9G32G10G30G 8G27
  21488316.983     1294952.6432      -3257.163          47.000  
  25068404.928       22351.0213      -1868.834          35.000  
  21142689.402      552297.6733      -1514.150          48.000  
  20748750.615      -11105.858         -66.339          50.000  
  22634074.390     -528211.1583       1192.625          37.000  
  21729564.498     -545167.387        1255.908          48.000  
  24871186.057      301145.1503      -4211.921          41.000  
  23608377.301      -24123.4803       1992.049          47.000  
  25165868.687     -471408.6953       2067.525          25.000  
  24054283.605     1388337.0563      -3411.866          42.000  
  24757833.160      -47814.9413       1637.324          25.000  
 15  4  3 19 59  1.0010000  0 11G 3G 6G16G23G 7G 9G32G10G30G 8G27
  21488936.169     1298208.349       -3254.599          46.000  
  25068761.227       24218.9243      -1864.133          28.000  
  21142980.402      553814.4213      -1519.087          49.000  
  20748763.510      -11039.370         -66.493          50.000  
  22633846.787     -529404.4863       1201.026          27.000  
  21729324.593     -546425.776        1257.634          49.000  
  24871987.633      305360.7733      -4219.900          36.000  
  23607997.410      -26116.4463       1997.121          43.000  
  25165463.301     -473467.7083       2047.066          26.000  
  24054931.148     1391751.7653      -3416.980          42.000  
  24757522.406      -49451.1743       1630.817          31.000  
 15  4  3 19 59  2.0010000  0 11G 3G 6G16G23G 7G 9G32G10G30G 8G27
  21489555.983     1301464.0883      -3256.789          50.000  
  25069116.653       26080.8493      -1874.482          26.000  
  21143269.936      555334.9902      -1522.732          49.000  
  20748775.865      -10972.320         -67.025          50.000  
  22633607.667     -530621.5733       1218.929          32.000  
  21729084.286     -547686.683        1262.688          48.000  
  24872791.477      309579.0763      -4221.352          36.000  
  23607617.100      -28113.2842       1998.812          42.000  
  25165059.555     -475523.0713       2072.283          25.000  
  24055583.315     1395170.7843      -3420.514          45.000  
  24757215.911      -51081.4803       1630.567          35.000  
 15  4  3 19 59  3.0010000  0 11G 3G 6G16G23G 7G 9G32G10G30G 8G27
  21490175.100     1304719.0253      -3255.188          45.000  
  25069471.538       27941.6293      -1862.691          24.000  
  21143558.720      556859.2062      -1525.846          49.000  
  20748788.778      -10903.981         -67.809          50.000  
  22633363.364     -531846.3633       1223.482          43.000  
  21728844.171     -548948.7203       1270.501          39.000  
  24873596.229      313799.2463      -4219.167          30.000  
  23607239.198      -30107.5343       2001.635          29.000  
  25164654.204     -477587.7593       2069.162          26.000  
  24056235.883     1398593.8253      -3422.585          46.000  
  24756903.604      -52713.8143       1630.713          31.000  
 15  4  3 19 59  4.0010000  0 11G 3G 6G16G23G 7G 9G32G10G30G 8G27
  21490794.687     1307974.7343      -3254.192          45.000  
  25069827.313       29802.5743      -1877.461          21.000  
  21143849.545      558385.2833      -1525.919          48.000  
  20748802.232      -10835.446         -69.026          49.000  
  22633127.472     -533070.6903       1225.199          50.000  
  21728604.178     -550211.9173       1253.888          38.000  
  24874402.796      318015.7953      -4218.674          37.000  
  23606862.622      -32102.8263       1995.581          27.000  
  25164244.421     -479665.8813       2070.931          26.000  
  24056885.485     1402018.2762      -3426.357          45.000  
  24756592.048      -54343.2323       1632.046          30.000  
 15  4  3 19 59  5.0010000  0 11G 3G 6G16G23G 7G 9G32G10G30G 8G27
  21491414.065     1311229.1383      -3254.923          49.000  
  25070181.901       31658.7833      -1848.274          20.000  
  21144138.922      559913.3852      -1528.954          49.000  
  20748815.303      -10765.414         -71.321          50.000  
  22632893.778     -534296.2353       1226.069          49.000  
  21728363.714     -551474.2243       1261.657          47.000  
  24875205.087      322232.8503      -4216.013          41.000  
  23606481.125      -34109.3193       2007.866          25.000  
  25163855.892     -481724.9713       2065.833          26.000  
  24057540.618     1405445.9212      -3430.882          44.000  
  24756275.902      -55971.4913       1636.462          31.000  
 15  4  3 19 59  6.0010000  0 11G 3G 6G16G23G 7G 9G32G10G30G 8G27
  21492032.501     1314481.5492      -3253.268          49.000  
  25070538.148       33519.9173      -1858.548          19.000  
  21144431.353      561444.2353      -1530.755          48.000  
  20748829.036      -10693.378         -69.394          47.000  
  22632660.713     -535523.7772       1227.372          49.000  
  21728123.372     -552735.0812       1259.942          49.000  
  24875999.421      326447.3803      -4214.832          41.000  
  23606101.356      -36106.7513       1999.576          35.000  
  25163431.817     -483800.9203       2092.104          39.000  
  24058192.349     1408877.3103      -3431.831          48.000  
  24755974.782      -57600.9483       1628.764          32.000  
 15  4  3 19 59  7.0010000  0 11G 3G 6G16G23G 7G 9G32G10G30G 8G27
  21492651.443     1317734.5192      -3253.463          48.000  
  25070890.293       35375.5593      -1880.849          18.000  
  21144722.667      562975.9813      -1531.512          49.000  
  20748842.246      -10621.119         -71.910          49.000  
  22632427.421     -536751.1922       1227.164          48.000  
  21727883.746     -553995.6312       1261.344          49.000  
  24876801.241      330662.2223      -4215.040          41.000  
  23605717.260      -38103.6223       1997.310          38.000  
  25163032.381     -485893.2333       2091.778          38.000  
  24058847.430     1412309.1862      -3430.687          50.000  
  24755670.624      -59217.5203       1614.359          33.000  
 15  4  3 19 59  8.0010000  0 11G 3G 6G16G23G 7G 9G32G10G30G 8G27
  21493271.327     1320989.2592      -3257.359          48.000  
  25071249.087       37252.8783      -1839.811          19.000  
  21145014.347      564506.8213      -1530.238          49.000  
  20748855.840      -10549.240         -71.398          49.000  
  22632192.943     -537976.7592       1223.024          48.000  
  21727643.857     -555256.3272       1260.252          49.000  
  24877602.677      334877.9853      -4216.414          38.000  
  23605334.611      -40099.9313       1997.046          41.000  
  25162632.893     -487983.0783       2087.885          39.000  
  24059497.486     1415738.2952      -3426.322          46.000  
  24755365.926      -60846.8913       1639.253          31.000  
 15  4  3 19 59  9.0010000  0 11G 3G 6G16G23G 7G 9G32G10G30G 8G27
  21493891.856     1324250.2522      -3264.742          49.000  
  25071597.044       39094.5823      -1854.285          21.000  
  21145304.544      566034.7332      -1524.563          49.000  
  20748868.735      -10479.939         -67.045          48.000  
  22631960.715     -539196.6742       1216.520          47.000  
  21727404.109     -556518.5912       1265.498          49.000  
  24878406.382      339098.9533      -4225.509          38.000  
  23604956.203      -42097.7393       1999.868          44.000  
  25162239.705     -490064.7693       2077.047          42.000  
  24060149.147     1419158.9842      -3414.038          42.000  
  24755048.716      -62476.5793       1629.679          43.000  
 15  4  3 19 59 10.0010000  0 11G 3G 6G16G23G 7G 9G32G10G30G 8G27
  21494513.573     1327520.4762      -3273.428          48.000  
  25071948.893       40947.6293      -1851.313          23.000  
  21145594.811      567557.9582      -1521.207          50.000  
  20748880.340      -10415.067         -63.010          47.000  
  22631731.158     -540409.7292       1209.685          46.000  
  21727162.964     -557784.7422       1267.985          48.000  
  24879211.290      343329.3043      -4233.873          39.000  
  23604577.237      -44099.8703       2003.764          46.000  
  25161845.156     -492135.6563       2065.427          41.000  
  24060796.986     1422567.0272      -3402.377          47.000  
  24754728.173      -64105.6813       1629.296          42.000  
 15  4  3 19 59 11.0010000  0 11G 3G 6G16G23G 7G 9G32G10G30G 8G27
  21495139.128     1330795.6412      -3275.535          49.000  
  25072303.237       42802.1733      -1855.546          26.000  
  21145884.642      569078.8222      -1521.186          49.000  
  20748893.549      -10352.738         -62.512          49.000  
  22631497.046     -541619.4752       1209.492          45.000  
  21726921.401     -559053.3682       1268.595          48.000  
  24880011.051      347565.0013      -4235.301          37.000  
  23604194.554      -46104.3642       2004.649          44.000  
  25161444.411     -494200.7673       2064.929          39.000  
  24061445.104     1425968.2652      -3400.910          46.000  
  24754421.119      -65734.4063       1628.617          42.000  
 15  4  3 19 59 12.0010000  0 11G 3G 6G16G23G 7G 9G32G10G30G 8G27
  21495763.322     1334071.2672      -3275.446          49.000  
  25072657.634       44657.5363      -1855.268          27.000  
  21146174.001      570600.1642      -1521.590          49.000  
  20748905.922      -10290.328         -62.447          49.000  
  22631267.191     -542829.0852       1209.477          45.000  
  21726680.117     -560322.0382       1268.753          48.000  
  24880817.234      351800.4622      -4233.857          36.000  
  23603812.184      -48108.7092       2004.182          44.000  
  25161054.294     -496265.8582       2064.646          38.000  
  24062092.089     1429369.1462      -3400.836          46.000  
  24754112.983      -67363.2602       1628.961          42.000  
 15  4  3 19 59 13.0010000  0 11G 3G 6G16G23G 7G 9G32G10G30G 8G27
  21496387.185     1337347.401       -3276.214          50.000  
  25073007.353       46513.3133      -1856.613          27.000  
  21146463.884      572122.2392      -1522.003          50.000  
  20748917.910      -10227.564         -62.867          49.000  
  22631037.285     -544038.408        1209.495          45.000  
  21726438.396     -561590.500        1268.333          48.000  
  24881623.085      356036.0142      -4234.825          36.000  
  23603429.868      -50112.6242       2003.940          44.000  
  25160662.101     -498330.7652       2064.688          38.000  
  24062739.247     1432769.555       -3400.760          46.000  
  24753803.643      -68991.9792       1628.937          42.000  
 15  4  3 19 59 14.0010000  0 11G 3G 6G16G23G 7G 9G32G10G30G 8G27
  21497010.961     1340623.989       -3277.027          50.000  
  25073359.412       48369.6113      -1856.349          28.000  
  21146753.576      573645.0112      -1523.124          50.000  
  20748929.619      -10164.491         -63.471          48.000  
  22630807.657     -545247.508        1208.563          46.000  
  21726197.496     -562858.781        1268.086          48.000  
  24882428.430      360271.6012      -4236.258          36.000  
  23603049.662      -52116.1202       2003.321          44.000  
  25160267.569     -500395.5612       2064.337          38.000  
  24063386.651     1436170.469       -3400.918          46.000  
  24753497.165      -70620.5422       1628.899          43.000  
 15  4  3 19 59 15.0010000  0 11G 3G 6G16G23G 7G 9G32G10G30G 8G27
  21497634.597     1343901.097       -3277.375          50.000  
  25073712.203       50226.2833      -1856.657          28.000  
  21147043.441      575168.5462      -1523.729          50.000  
  20748941.921      -10101.046         -63.537          48.000  
  22630577.978     -546456.308        1208.424          46.000  
  21725956.020     -564126.846        1268.515          48.000  
  24883233.670      364507.2972      -4236.509          35.000  
  23602668.741      -54119.1522       2002.764          44.000  
  25159874.380     -502460.1032       2064.131          38.000  
  24064033.774     1439571.436       -3401.235          46.000  
  24753183.392      -72248.9632       1628.614          41.000  
 15  4  3 19 59 16.0010000  0 11G 3G 6G16G23G 7G 9G32G10G30G 8G27
  21498258.738     1347178.686       -3277.766          50.000  
  25074064.872       52083.4853      -1858.857          27.000  
  21147334.144      576692.8012      -1524.779          50.000  
  20748953.840      -10037.280         -64.194          48.000  
  22630348.176     -547664.840        1208.132          46.000  
  21725714.457     -565394.699        1267.293          48.000  
  24884040.813      368743.0322      -4236.119          36.000  
  23602287.594      -56121.7502       2001.912          44.000  
  25159480.965     -504524.4862       2063.482          38.000  
  24064680.602     1442972.431       -3401.209          46.000  
  24752874.907      -73877.2222       1627.715          42.000  
 15  4  3 19 59 17.0010000  0 11G 3G 6G16G23G 7G 9G32G10G30G 8G27
  21498882.479     1350456.790       -3278.726          50.000  
  25074417.663       53941.0683      -1858.368          27.000  
  21147624.621      578217.8232      -1525.622          50.000  
  20748965.793       -9973.148         -64.627          48.000  
  22630118.827     -548873.074        1207.973          46.000  
  21725473.330     -566662.326        1267.332          48.000  
  24884846.891      372978.9872      -4236.206          36.000  
  23601906.289      -58123.9052       2001.670          44.000  
  25159088.911     -506588.7002       2063.103          38.000  
  24065327.883     1446373.503       -3401.136          46.000  
  24752567.051      -75505.2912       1627.530          42.000  
 15  4  3 19 59 18.0010000  0 11G 3G 6G16G23G 7G 9G32G10G30G 8G27
  21499506.673     1353735.338       -3278.772          49.000  
  25074769.250       55799.1763      -1857.154          27.000  
  21147915.010      579743.5132      -1526.062          50.000  
  20748978.096       -9908.711         -64.578          48.000  
  22629889.776     -550081.106        1207.989          46.000  
  21725231.923     -567929.800        1267.581          48.000  
  24885652.393      377214.8332      -4236.726          35.000  
  23601525.246      -60125.6712       2001.422          44.000  
  25158695.897     -508652.7322       2064.893          38.000  
  24065975.408     1449774.555       -3400.763          46.000  
  24752256.035      -77133.2772       1628.169          41.000  
 15  4  3 19 59 19.0010000  0 11G 3G 6G16G23G 7G 9G32G10G30G 8G27
  21500130.257     1357014.315       -3279.202          49.000  
  25075119.824       57657.5543      -1859.095          27.000  
  21148205.399      581269.880       -1526.606          50.000  
  20748989.805       -9844.002         -64.783          48.000  
  22629660.271     -551288.942        1208.032          47.000  
  21724990.918     -569197.127        1267.145          48.000  
  24886458.034      381450.8062      -4237.678          35.000  
  23601144.639      -62127.530        2001.319          44.000  
  25158302.814     -510716.7062       2064.567          38.000  
  24066622.235     1453175.551       -3400.983          46.000  
  24751945.369      -78761.651        1627.641          41.000  
 15  4  3 19 59 20.0010000  0 11G 3G 6G16G23G 7G 9G32G10G30G 8G27
  21500753.666     1360293.692       -3279.709          49.000  
  25075469.248       59516.3243      -1858.396          26.000  
  21148495.927      582796.887       -1527.254          50.000  
  20749002.229       -9779.050         -64.976          48.000  
  22629430.521     -552496.607        1207.256          46.000  
  21724749.913     -570464.349        1266.987          48.000  
  24887264.461      385686.7462      -4237.264          35.000  
  23600764.626      -64128.579        2000.356          45.000  
  25157910.166     -512780.5632       2063.931          38.000  
  24067269.341     1456576.503       -3401.274          46.000  
  24751634.773      -80389.490        1627.837          41.000  
 15  4  3 19 59 21.0010000  0 11G 3G 6G16G23G 7G 9G32G10G30G 8G27
  21501377.529     1363573.513       -3280.429          49.000  
  25075820.049       61375.1733      -1860.669          25.000  
  21148786.526      584324.579       -1528.030          50.000  
  20749014.497       -9713.797         -65.907          48.000  
  22629200.771     -553704.028        1207.185          46.000  
  21724508.873     -571731.414        1266.640          48.000  
  24888071.377      389922.7232      -4236.686          36.000  
  23600384.770      -66129.199        2000.628          45.000  
  25157517.763     -514844.3142       2063.275          38.000  
  24067916.204     1459977.455       -3401.261          46.000  
  24751324.124      -82017.210        1627.315          41.000  
 15  4  3 19 59 22.0010000  0 11G 3G 6G16G23G 7G 9G32G10G30G 8G27
  21502002.107     1366853.887       -3280.640          49.000  
  25076172.247       63232.6753      -1860.520          24.000  
  21149077.735      585853.059       -1528.523          50.000  
  20749026.695       -9648.149         -65.611          48.000  
  22628971.057     -554911.139        1206.678          46.000  
  21724268.357     -572998.220        1266.768          48.000  
  24888877.926      394158.8262      -4237.334          36.000  
  23600003.971      -68129.357        2000.499          45.000  
  25157125.482     -516907.8062       2062.730          39.000  
  24068563.572     1463378.479       -3400.811          46.000  
  24751012.568      -83644.741        1627.230          40.000  
 15  4  3 19 59 23.0010000  0 11G 3G 6G16G23G 7G 9G32G10G30G 8G27
  21502626.702     1370134.805       -3281.051          49.000  
  25076521.670       65091.7443      -1856.844          22.000  
  21149368.909      587382.330       -1529.408          50.000  
  20749039.067       -9582.100         -65.906          48.000  
  22628740.749     -556117.907        1206.240          46.000  
  21724027.108     -574264.746        1266.594          48.000  
  24889684.824      398395.1132      -4235.547          36.000  
  23599623.713      -70128.999        1999.586          45.000  
  25156732.800     -518971.1072       2062.966          38.000  
  24069211.010     1466779.603       -3401.063          46.000  
  24750702.059      -85272.041        1627.852          40.000  
 15  4  3 19 59 24.0010000  0 11G 3G 6G16G23G 7G 9G32G10G30G 8G27
  21503251.141     1373416.276       -3282.014          49.000  
  25076870.430       66950.2463      -1860.440          22.000  
  21149659.543      588912.402       -1530.493          50.000  
  20749051.823       -9515.645         -66.437          48.000  
  22628511.348     -557324.351        1206.236          46.000  
  21723786.365     -575531.033        1265.937          48.000  
  24890490.727      402631.5402      -4236.170          36.000  
  23599243.368      -72128.149        1998.726          45.000  
  25156340.397     -521034.1052       2062.657          38.000  
  24069858.605     1470180.823       -3401.197          47.000  
  24750391.218      -86899.157        1626.937          40.000  
 15  4  3 19 59 25.0010000  0 11G 3G 6G16G23G 7G 9G32G10G30G 8G27
  21503875.423     1376698.162       -3282.015          49.000  
  25077225.054       68810.7973      -1861.905          24.000  
  21149950.857      590443.123       -1530.823          49.000  
  20749064.701       -9448.934         -66.855          48.000  
  22628282.157     -558530.626        1206.378          46.000  
  21723545.360     -576797.187        1266.067          48.000  
  24891297.032      406867.414       -4236.255          36.000  
  23598863.163      -74126.945        1998.637          45.000  
  25155948.797     -523097.558        2062.286          39.000  
  24070505.432     1473581.980       -3401.207          47.000  
  24750080.726      -88526.198        1626.868          39.000  
 15  4  3 19 59 26.0010000  0 11G 3G 6G16G23G 7G 9G32G10G30G 8G27
  21504499.530     1379980.486       -3282.347          49.000  
  25077580.218       70672.2093      -1860.661          25.000  
  21150242.101      591974.516       -1531.630          49.000  
  20749077.614       -9381.922         -66.979          48.000  
  22628053.158     -559736.666        1206.117          47.000  
  21723304.651     -578063.187        1266.151          48.000  
  24892103.494      411103.857       -4235.778          36.000  
  23598483.202      -76125.348        1998.159          45.000  
  25155557.249     -525160.385        2062.196          40.000  
  24071152.486     1476983.147       -3400.751          47.000  
  24749769.833      -90153.112        1627.224          39.000  
 15  4  3 19 59 27.0010000  0 11G 3G 6G16G23G 7G 9G32G10G30G 8G27
  21505124.457     1383263.325       -3283.260          49.000  
  25077935.661       72534.0143      -1862.777          26.000  
  21150533.450      593506.691       -1532.353          50.000  
  20749090.388       -9314.547         -67.436          48.000  
  22627823.426     -560942.402        1205.995          46.000  
  21723063.612     -579328.941        1265.868          48.000  
  24892909.136      415340.462       -4236.425          36.000  
  23598102.560      -78123.258        1998.054          45.000  
  25155165.073     -527222.965        2062.535          39.000  
  24071799.505     1480384.352       -3401.042          46.000  
  24749459.202      -91779.869        1627.462          39.000  
 15  4  3 19 59 28.0010000  0 11G 3G 6G16G23G 7G 9G32G10G30G 8G27
  21505748.512     1386546.465       -3283.337          49.000  
  25078290.756       74396.1733      -1861.398          25.000  
  21150824.362      595039.386       -1533.104          50.000  
  20749102.987       -9247.010         -67.464          48.000  
  22627594.147     -562148.092        1205.983          47.000  
  21722822.572     -580594.698        1266.526          48.000  
  24893716.330      419576.931       -4236.175          37.000  
  23597722.303      -80120.942        1998.074          45.000  
  25154772.984     -529285.635        2062.778          40.000  
  24072446.647     1483785.409       -3401.077          46.000  
  24749148.885      -93406.664        1626.839          39.000  
 15  4  3 19 59 29.0010000  0 11G 3G 6G16G23G 7G 9G32G10G30G 8G27
  21506372.845     1389830.043       -3283.866          49.000  
  25078644.437       76258.6073      -1861.395          26.000  
  21151116.322      596572.772       -1533.847          49.000  
  20749115.464       -9179.183         -68.138          48.000  
  22627365.707     -563353.547        1205.530          47.000  
  21722581.654     -581860.300        1265.048          48.000  
  24894524.886      423813.379       -4237.049          37.000  
  23597342.760      -82118.227        1997.040          45.000  
  25154380.807     -531348.096        2063.001          40.000  
  24073093.386     1487186.457       -3401.106          46.000  
  24748838.026      -95033.359        1626.514          39.000  
 15  4  3 19 59 30.0010000  0 11G 3G 6G16G23G 7G 9G32G10G30G 8G27
  21506997.406     1393114.141       -3284.792          49.000  
  25078999.845       78121.5233      -1863.379          26.000  
  21151408.090      598106.907       -1534.559          49.000  
  20749128.866       -9110.993         -68.694          48.000  
  22627136.847     -564558.734        1204.763          47.000  
  21722341.103     -583125.657        1264.915          48.000  
  24895331.243      428050.009       -4235.933          37.000  
  23596962.328      -84115.067        1996.553          45.000  
  25153989.242     -533410.417        2062.420          40.000  
  24073740.441     1490587.548       -3401.394          46.000  
  24748528.041      -96659.863        1626.261          39.000  
 15  4  3 19 59 31.0010000  0 11G 3G 6G16G23G 7G 9G32G10G30G 8G27
  21507621.705     1396398.697       -3284.915          48.000  
  25079355.202       79984.8793      -1864.648          27.000  
  21151699.979      599641.743       -1535.381          49.000  
  20749141.901       -9042.488         -68.850          48.000  
  22626907.970     -565763.671        1204.659          47.000  
  21722100.778     -584390.857        1264.664          48.000  
  24896139.345      432286.656       -4236.237          38.000  
  23596582.001      -86111.495        1995.841          45.000  
  25153596.996     -535472.566        2061.787          40.000  
  24074387.058     1493988.638       -3401.161          46.000  
  24748217.811      -98286.277        1625.988          38.000  
 15  4  3 19 59 32.0010000  0 11G 3G 6G16G23G 7G 9G32G10G30G 8G27
  21508246.632     1399683.811       -3284.850          48.000  
  25079710.034       81848.8253      -1863.682          26.000  
  21151991.887      601177.380       -1535.854          49.000  
  20749155.146       -8973.574         -69.111          48.000  
  22626679.198     -566968.284        1204.390          48.000  
  21721860.140     -585655.776        1265.021          48.000  
  24896945.650      436523.480       -4237.308          38.000  
  23596201.900      -88107.399        1995.698          45.000  
  25153204.366     -537534.469        2062.369          40.000  
  24075034.165     1497389.843       -3400.626          46.000  
  24747909.343      -99912.475        1626.648          39.000  
 15  4  3 19 59 33.0010000  0 11G 3G 6G16G23G 7G 9G32G10G30G 8G27
  21508871.490     1402969.378       -3285.487          48.000  
  25080061.953       83712.0073      -1859.238          22.000  
  21152284.090      602713.708       -1536.324          49.000  
  20749167.919       -8904.359         -69.161          48.000  
  22626449.431     -568172.661        1204.948          47.000  
  21721619.623     -586920.528        1264.740          49.000  
  24897751.711      440760.301       -4236.394          38.000  
  23595822.271      -90102.908        1995.439          45.000  
  25152812.574     -539596.260        2062.111          40.000  
  24075681.289     1500791.029       -3400.882          46.000  
  24747600.195     -101538.516        1626.603          39.000  
 15  4  3 19 59 34.0010000  0 11G 3G 6G16G23G 7G 9G32G10G30G 8G27
  21509496.399     1406255.369       -3286.367          48.000  
  25080416.035       85564.4863      -1839.076          20.000  
  21152575.771      604250.713       -1537.625          49.000  
  20749181.146       -8834.862         -69.710          48.000  
  22626219.925     -569376.837        1203.828          47.000  
  21721378.828     -588185.136        1264.116          48.000  
  24898559.202      444997.175       -4237.022          38.000  
  23595443.601      -92098.043        1994.826          46.000  
  25152421.026     -541657.903        2060.921          41.000  
  24076328.849     1504192.196       -3401.457          46.000  
  24747290.157     -103164.483        1625.931          39.000  
 15  4  3 19 59 35.0010000  0 11G 3G 6G16G23G 7G 9G32G10G30G 8G27
  21510121.274     1409541.837       -3287.105          48.000  
  25080767.046       87417.6253      -1872.716          17.000  
  21152868.167      605788.434       -1538.337          49.000  
  20749194.897       -8765.022         -69.872          48.000  
  22625990.786     -570580.742        1203.796          47.000  
  21721138.224     -589449.550        1264.206          48.000  
  24899366.519      449234.134       -4236.876          39.000  
  23595064.233      -94092.741        1994.720          46.000  
  25152029.199     -543719.381        2061.388          41.000  
  24076975.903     1507593.373       -3401.204          46.000  
  24746979.822     -104790.323        1625.555          39.000  
 15  4  3 19 59 36.0010000  0 11G 3G 6G16G23G 7G 9G32G10G30G 8G27
  21510746.446     1412828.787       -3286.652          48.000  
  25081120.117       89282.7223      -1868.425          19.000  
  21153160.667      607326.861       -1538.732          49.000  
  20749208.020       -8694.872         -70.098          48.000  
  22625761.194     -571784.417        1203.727          47.000  
  21720897.673     -590713.782        1264.180          49.000  
  24900173.469      453471.152       -4237.637          38.000  
  23594685.040      -96087.030        1994.212          46.000  
  25151637.284     -545780.727        2061.562          41.000  
  24077623.062     1510994.578       -3400.852          46.000  
  24746669.715     -106415.994        1625.681          38.000  
 15  4  3 19 59 37.0010000  0 11G 3G 6G16G23G 7G 9G32G10G30G 8G27
  21511372.315     1416116.156       -3287.438          48.000  
  25081474.461       91148.2343      -1869.340          21.000  
  21153453.395      608865.974       -1539.357          49.000  
  20749221.247       -8624.432         -70.327          48.000  
  22625532.125     -572987.883        1203.421          47.000  
  21720656.982     -591977.870        1264.059          48.000  
  24900981.222      457708.170       -4236.725          40.000  
  23594305.986      -98080.926        1993.804          46.000  
  25151245.771     -547841.928        2060.911          42.000  
  24078269.749     1514395.749       -3400.822          46.000  
  24746360.148     -108041.605        1625.993          39.000  
 15  4  3 19 59 38.0010000  0 11G 3G 6G16G23G 7G 9G32G10G30G 8G27
  21511997.871     1419403.969       -3288.153          48.000  
  25081831.876       93014.5543      -1866.941          23.000  
  21153746.436      610405.778       -1540.268          49.000  
  20749235.137       -8553.696         -70.954          48.000  
  22625302.375     -574191.139        1202.956          47.000  
  21720416.920     -593241.803        1263.643          49.000  
  24901788.277      461945.216       -4236.613          39.000  
  23593926.619     -100074.422        1993.314          45.000  
  25150854.188     -549903.028        2061.084          42.000  
  24078916.838     1517796.897       -3401.017          46.000  
  24746051.070     -109667.101        1625.323          39.000  
 15  4  3 19 59 39.0010000  0 11G 3G 6G16G23G 7G 9G32G10G30G 8G27
  21512624.002     1422691.358       -3287.071          49.000  
  25082189.606       94881.6573      -1859.757          25.000  
  21154040.752      611946.741       -1541.639          49.000  
  20749248.836       -8482.229         -72.159          49.000  
  22625073.237     -575394.760        1204.852          48.000  
  21720176.107     -594505.188        1262.573          49.000  
  24902593.867      466181.9033      -4231.374          35.000  
  23593546.396     -102067.119        1991.946          44.000  
  25150461.419     -551964.992        2062.542          38.000  
  24079565.166     1521199.180       -3404.379          45.000  
  24745743.387     -111292.553        1626.243          40.000  
 15  4  3 19 59 40.0010000  0 11G 3G 6G16G23G 7G 9G32G10G30G 8G27
  21513249.872     1425977.604       -3286.266          48.000  
  25082547.963       96748.3983      -1871.100          23.000  
  21154335.189      613489.593       -1543.938          49.000  
  20749263.005       -8409.332         -73.406          50.000  
  22624844.133     -576599.144        1205.010          46.000  
  21719935.259     -595767.289        1262.034          48.000  
  24903398.775      470416.4963      -4233.547          37.000  
  23593166.505     -104058.107        1990.939          41.000  
  25150068.736     -554028.0453       2064.248          38.000  
  24080212.971     1524604.014       -3406.404          45.000  
  24745434.571     -112917.919        1625.304          42.000  
 15  4  3 19 59 41.0010000  0 11G 3G 6G16G23G 7G 9G32G10G30G 8G27
  21513874.938     1429263.443       -3286.443          49.000  
  25082902.168       98611.9553      -1864.924          23.000  
  21154628.702      615033.827       -1545.082          49.000  
  20749277.332       -8335.404         -74.583          49.000  
  22624614.209     -577803.800        1204.966          43.000  
  21719695.056     -597028.537        1260.670          48.000  
  24904202.829      474650.0483      -4230.710          39.000  
  23592786.753     -106047.4693       1987.903          41.000  
  25149674.955     -556092.4853       2064.994          42.000  
  24080861.735     1528010.402       -3407.271          45.000  
  24745127.360     -114542.3513       1624.937          42.000  
 15  4  3 19 59 42.0010000  0 11G 3G 6G16G23G 7G 9G32G10G30G 8G27
  21514500.040     1432549.747       -3287.446          48.000  
  25083257.925      100478.8733      -1867.114          22.000  
  21154923.122      616578.743       -1545.548          48.000  
  20749290.996       -8261.227         -74.029          50.000  
  22624384.721     -579008.234        1203.440          47.000  
  21719454.854     -598289.597        1261.510          49.000  
  24905007.598      478883.6673      -4234.180          39.000  
  23592407.926     -108036.9992       1990.283          42.000  
  25149281.575     -558156.8103       2060.009          32.000  
  24081509.871     1531416.585       -3407.697          44.000  
  24744816.606     -116167.4553       1623.605          40.000  
 15  4  3 19 59 43.0010000  0 11G 3G 6G16G23G 7G 9G32G10G30G 8G27
  21515125.770     1435837.698       -3289.318          47.000  
  25083614.905      102343.2663      -1865.196          23.000  
  21155216.861      618123.655       -1545.124          48.000  
  20749305.444       -8187.396         -73.353          50.000  
  22624156.315     -580211.483        1203.862          45.000  
  21719214.495     -599551.172        1261.918          48.000  
  24905812.525      483118.6913      -4236.454          40.000  
  23592029.082     -110026.7302       1990.421          40.000  
  25148888.351     -560219.2473       2062.240          35.000  
  24082159.368     1534821.176       -3403.544          43.000  
  24744507.458     -117792.2653       1623.959          39.000  
 15  4  3 19 59 44.0010000  0 11G 3G 6G16G23G 7G 9G32G10G30G 8G27
  21515751.936     1439127.898       -3290.666          47.000  
  25083972.041      104211.0213      -1870.422          24.000  
  21155509.833      619668.203       -1544.601          49.000  
  20749319.282       -8114.224         -73.073          49.000  
  22623927.333     -581413.509        1201.369          45.000  
  21718975.043     -600813.462        1262.435          46.000  
  24906618.393      487355.5063      -4236.939          40.000  
  23591649.086     -112017.1932       1991.110          41.000  
  25148495.774     -562279.8522       2060.407          32.000  
  24082806.108     1538223.468       -3401.753          43.000  
  24744198.642     -119416.9422       1623.800          41.000  
 15  4  3 19 59 45.0010000  0 11G 3G 6G16G23G 7G 9G32G10G30G 8G27
  21516377.352     1442418.940       -3290.957          47.000  
  25084326.908      106079.2433      -1864.992          22.000  
  21155804.969      621213.210       -1546.023          49.000  
  20749333.243       -8041.003         -73.676          49.000  
  22623699.974     -582614.903        1200.957          46.000  
  21718734.684     -602075.825        1261.440          46.000  
  24907425.064      491592.8912      -4237.484          41.000  
  23591270.015     -114007.5282       1989.959          43.000  
  25148102.620     -564339.8802       2059.447          34.000  
  24083454.279     1541625.035       -3402.524          46.000  
  24743889.319     -121041.4042       1624.810          41.000  
 15  4  3 19 59 46.0010000  0 11G 3G 6G16G23G 7G 9G32G10G30G 8G27
  21517003.518     1445708.368       -3287.752          47.000  
  25084683.259      107944.4663      -1869.694          23.000  
  21156099.197      622760.205       -1548.514          49.000  
  20749347.517       -7966.264         -76.507          50.000  
  22623470.155     -583817.417        1204.932          48.000  
  21718494.150     -603336.784        1260.294          48.000  
  24908230.915      495828.0832      -4233.233          40.000  
  23590892.706     -115996.1012       1985.258          40.000  
  25147710.793     -566401.8973       2058.134          29.000  
  24084101.438     1545029.569       -3407.548          44.000  
  24743580.380     -122665.9212       1624.411          42.000  
 15  4  3 19 59 47.0010000  0 11G 3G 6G16G23G 7G 9G32G10G30G 8G27
  21517629.091     1448992.456       -3283.580          48.000  
  25085039.505      109813.2523      -1856.370          23.000  
  21156394.123      624312.012       -1554.647          49.000  
  20749362.594       -7887.890         -79.436          49.000  
  22623240.423     -585024.7913       1210.184          45.000  
  21718254.942     -604595.430        1258.373          48.000  
  24909035.353      500057.6683      -4230.692          36.000  
  23590514.996     -117981.9752       1985.635          43.000  
  25147317.588     -568470.9023       2074.922          42.000  
  24084751.161     1548442.948       -3418.972          47.000  
  24743270.674     -124289.0363       1618.986          39.000  
 15  4  3 19 59 48.0010000  0 10G 3G16G23G 7G 9G32G10G30G 8G27
  21518253.704     1452275.175       -3284.976          46.000  
  21156690.689      625871.638       -1563.730          48.000  
  20749378.055       -7807.522         -79.827          50.000  
  22623008.928     -586242.1522       1221.827          46.000  
  21718014.845     -605858.028        1268.804          49.000  
  24909840.995      504290.8803      -4238.193          37.000  
  23590135.786     -119974.3163       2001.148          37.000  
  25146922.218     -570552.8363       2080.196          38.000  
  24085402.107     1551866.688       -3427.461          47.000  
  24742963.341     -125905.0723       1609.134          39.000  
 15  4  3 19 59 49.0010000  0 11G 3G 6G16G23G 7G 9G32G10G30G 8G27
  21518878.684     1455561.782       -3289.598          47.000  
  25085730.220      113551.8103      -1853.557          33.000  
  21156988.774      627437.5213      -1574.764          42.000  
  20749393.533       -7728.3243        -78.981          44.000  
  22622775.462     -587469.2792       1231.792          45.000  
  21717773.229     -607130.0643       1275.534          50.000  
  24910648.067      508535.3433      -4248.242          38.000  
  23589754.743     -121978.5093       2010.512          32.000  
  25146524.527     -572643.8753       2095.425          40.000  
  24086054.414     1555295.321       -3430.367          44.000  
  24742659.498     -127503.7453       1592.900          43.000  
 15  4  3 19 59 50.0010000  0 11G 3G 6G16G23G 7G 9G32G10G30G 8G27
  21519505.007     1458851.949       -3291.521          47.000  
  25086081.789      115401.6613      -1844.829          36.000  
  21157287.696      629009.3073      -1573.720          47.000  
  20749408.383       -7649.2392        -78.580          49.000  
  22622541.454     -588703.3622       1237.528          48.000  
  21717529.851     -608408.1922       1278.961          49.000  
  24911457.583      512789.3083      -4253.947          36.000  
  23589371.082     -123990.8393       2014.773          26.000  
  25146125.546     -574742.2983       2101.121          42.000  
  24086707.610     1558728.9553      -3434.913          42.000  
  24742357.574     -129091.1023       1583.495          46.000  
 15  4  3 19 59 51.0010000  0 11G 3G 6G16G23G 7G 9G32G10G30G 8G27
  21520131.452     1462143.314       -3291.340          47.000  
  25086427.513      117243.3283      -1838.314          36.000  
  21157587.683      630586.1052      -1579.774          49.000  
  20749423.565       -7569.4832        -80.082          49.000  
  22622305.161     -589943.7642       1242.518          47.000  
  21717286.385     -609690.5722       1283.897          49.000  
  24912268.547      517047.5933      -4261.821          35.000  
  23588990.336     -126005.6623       1996.550          25.000  
  25145725.133     -576847.7512       2109.605          41.000  
  24087361.452     1562166.6433      -3440.708          42.000  
  24742057.325     -130670.0022       1575.402          45.000  
 15  4  3 19 59 52.0010000  0 10G 3G 6G16G23G 7G 9G10G30G 8G27
  21520757.496     1465434.970       -3292.037          46.000  
  25086772.155      119066.9923      -1815.565          38.000  
  21157888.577      632167.4992      -1583.652          48.000  
  20749438.904       -7488.6142        -81.646          49.000  
  22622068.379     -591189.2943       1247.196          47.000  
  21717041.524     -610975.5182       1285.873          50.000  
  23588606.187     -128028.7703       2026.810          23.000  
  25145323.429     -578959.3092       2113.137          39.000  
  24088016.656     1565609.7523      -3444.868          44.000  
  24741757.775     -132242.4062       1569.631          45.000  
 15  4  3 19 59 53.0010000  0 11G 3G 6G16G23G 7G 9G32G10G30G 8G27
  21521384.133     1468727.152       -3292.097          46.000  
  25087118.158      120882.1633      -1813.173          37.000  
  21158189.942      633751.4492      -1585.322          48.000  
  20749454.452       -7406.9662        -83.451          49.000  
  22621830.724     -592436.7822       1248.660          47.000  
  21716796.313     -612261.4052       1285.925          49.000  
  24913916.685      525543.2933      -4230.751          29.000  
  23588222.596     -130058.1693       2022.715          29.000  
  25144921.516     -581073.3813       2117.314          39.000  
  24088671.737     1569055.5653      -3456.656          35.000  
  24741459.498     -133811.8722       1569.871          43.000  
 15  4  3 19 59 54.0010000  0 10G 3G16G23G 7G 9G32G10G30G 8G27
  21522011.102     1472019.670       -3292.699          47.000  
  21158491.744      635337.3972      -1585.677          48.000  
  20749470.262       -7324.6112        -82.376          49.000  
  22621593.262     -593685.7022       1249.044          47.000  
  21716551.818     -613547.7412       1288.000          48.000  
  24914700.496      529787.8403      -4262.029          40.000  
  23587831.013     -132085.8013       2026.775          44.000  
  25144519.114     -583189.0213       2116.132          42.000  
  24089320.937     1572506.3293      -3449.563          29.000  
  24741161.065     -135379.3392       1567.516          46.000  
 15  4  3 19 59 55.0010000  0  7G 3G 6G16G23G 7G 9G10
  21522637.111     1475312.553       -3292.281          46.000  
  25087808.977        2380.6913      -1815.052          38.000  
  21158793.737      636923.9792      -1587.511          49.000  
  20749486.194       -7241.8403        -82.108          49.000  
  22621355.834     -594934.2342       1249.167          48.000  
  21716307.201     -614833.6392       1286.177          50.000  
  23587444.753     -134112.7973       2026.966          44.000  
 15  4  3 19 59 56.0010000  0 10G 3G 6G16G23G 7G 9G32G10G30G27
  21523264.220     1478606.272       -3294.726          47.000  
  25088154.579        4196.0983      -1819.282          45.000  
  21159095.888      638510.9952      -1587.912          49.000  
  20749501.934       -7158.4512        -84.572          49.000  
  22621118.302     -596181.0182       1244.721          47.000  
  21716062.532     -616118.3992       1282.333          49.000  
  24916327.973      538317.1323      -4262.667          34.000  
  23587058.021     -136138.2023       2023.706          43.000  
  25143714.467       -1826.3913       2112.678          40.000  
  24740565.175       -1358.3843       1568.522          41.000  
 15  4  3 19 59 57.0010000  0  7G 3G16G23G 7G 9G10G30
  21523890.683     1481900.941       -3295.609          47.000  
  21159398.003      640096.4762      -1584.369          49.000  
  20749518.145       -7074.9502        -83.562          48.000  
  22620881.694     -597423.9212       1240.005          47.000  
  21715818.665     -617401.3083       1282.046          49.000  
  23586674.186     -138160.5443       2020.304          44.000  
  25143315.171       -3935.3503       2101.564          38.000  
 15  4  3 19 59 58.0010000  0 10G 3G 6G16G23G 7G 9G32G10G30G27
  21524517.948     1485196.521       -3296.210          47.000  
  25088849.062        1541.2463      -1828.924          41.000  
  21159699.002      641679.6912      -1582.799          50.000  
  20749533.920       -6991.7452        -83.372          49.000  
  22620645.889     -598662.1032       1234.828          44.000  
  21715575.217     -618681.4573       1279.218          50.000  
  24917945.120        3607.3203      -4260.172          42.000  
  23586289.810     -140178.2683       2016.447          45.000  
  25142911.425       -6037.4843       2100.821          41.000  
  24739965.114       -1330.4533       1578.141          36.000  
 15  4  3 19 59 59.0010000  0 11G 3G 6G16G23G 7G 9G32G10G30G 8G27
  21525145.371     1488493.1013      -3297.253          47.000  
  25089194.088        3369.9693      -1826.963          37.000  
  21160000.263      643262.7072      -1585.297          45.000  
  20749549.398       -6908.2122        -83.015          49.000  
  22620411.132     -599898.2352       1235.160          48.000  
  21715332.066     -619960.8633       1278.927          50.000  
  24918756.084        7866.8343      -4260.898          39.000  
  23585906.254     -142194.6193       2015.766          45.000  
  25142512.932       -8139.2843       2100.841          39.000  
  24092601.404     1589514.0703      -3437.582          36.000  
  24739663.888       -2908.0903       1577.365          39.000  
 15  4  3 20  0  0.0010000  0 11G 3G 6G16G23G 7G 9G32G10G30G 8G27
  21525772.724     1491790.5762      -3297.347          47.000  
  25089543.913        5200.0313      -1832.655          41.000  
  21160301.768      644845.8222      -1583.129          49.000  
  20749565.173       -6824.7012        -83.346          49.000  
  22620176.077     -601133.2622       1233.583          48.000  
  21715088.251     -621239.7392       1277.774          50.000  
  24919566.245       12127.2213      -4259.820          39.000  
  23585523.344     -144209.8933       2013.832          39.000  
  25142111.053      -10239.6313       2097.597          39.000  
  24093254.426     1592952.1543      -3436.686          39.000  
  24739362.192       -4485.7923       1579.605          40.000  
 15  4  3 20  0  1.0010000  0 11G 3G 6G16G23G 7G 9G32G10G30G 8G27
  21526400.233     1495089.1262      -3299.257          47.000  
  25089893.109        7032.2893      -1833.415          40.000  
  21160602.505      646428.623       -1582.091          50.000  
  20749581.210       -6740.9042        -84.310          49.000  
  22619941.389     -602366.025        1229.645          48.000  
  21714845.309     -622517.4322       1277.374          49.000  
  24920377.070       16386.8063      -4257.733          41.000  
  23585138.270     -146223.2863       2012.249          41.000  
  25141711.792      -12337.5252       2098.349          38.000  
  24093908.931     1596388.0923      -3434.976          43.000  
  24739064.840       -6065.0962       1579.964          39.000  
 15  4  3 20  0  2.0010000  0 11G 3G 6G16G23G 7G 9G32G10G30G 8G27
  21527027.813     1498388.7932      -3300.067          47.000  
  25090240.368        8868.8543      -1838.349          42.000  
  21160903.730      648010.413       -1580.639          50.000  
  20749597.195       -6657.0412        -83.551          49.000  
  22619707.138     -603595.617        1228.016          48.000  
  21714602.420     -623793.5912       1275.084          50.000  
  24921187.196       20645.7663      -4259.316          41.000  
  23584757.105     -148234.3493       2015.473          38.000  
  25141313.125      -14431.9682       2088.814          41.000  
  24094565.740     1599821.5983      -3431.141          41.000  
  24738763.859       -7646.8992       1585.532          39.000  
 15  4  3 20  0  3.0010000  0 11G 3G 6G16G23G 7G 9G32G10G30G 8G27
  21527656.370     1501689.6882      -3301.727          47.000  
  25090591.711       10710.2353      -1845.487          40.000  
  21161204.048      649590.754       -1578.696          49.000  
  20749613.458       -6572.8102        -84.183          49.000  
  22619474.404     -604820.674        1223.180          47.000  
  21714359.774     -625067.1912       1273.020          49.000  
  24921997.828       24903.2063      -4252.095          40.000  
  23584375.539     -150241.5023       2004.856          42.000  
  25140915.661      -16521.4882       2088.005          39.000  
  24095216.005     1603251.6903      -3429.553          39.000  
  24738462.807       -9232.5832       1587.878          39.000  
 15  4  3 20  0  4.0010000  0 11G 3G 6G16G23G 7G 9G32G10G30G 8G27
  21528284.630     1504991.1692      -3300.413          46.000  
  25090942.286       12557.9642      -1850.588          39.000  
  21161504.786      651168.338       -1575.673          50.000  
  20749629.146       -6489.1102        -82.787          50.000  
  22619242.264     -606040.875        1217.354          48.000  
  21714117.810     -626338.3342       1268.362          50.000  
  24922807.536       29158.1963      -4253.354          41.000  
  23583993.257     -152244.5012       2000.388          42.000  
  25140520.169      -18605.2973       2080.959          39.000  
  24095869.515     1606677.4333      -3422.032          41.000  
  24738159.209      -10823.4122       1592.423          43.000  
 15  4  3 20  0  5.0010000  0 11G 3G 6G16G23G 7G 9G32G10G30G 8G27
  21528912.698     1508293.2422      -3302.603          47.000  
  25091295.757       14413.3683      -1859.825          31.000  
  21161804.109      652742.584       -1572.033          50.000  
  20749645.357       -6405.5472        -83.373          49.000  
  22619011.101     -607254.852        1210.484          48.000  
  21713876.421     -627605.8712       1266.406          49.000  
  24923616.580       33409.9632      -4249.370          43.000  
  23583613.871     -154241.6972       1994.300          46.000  
  25140125.306      -20682.0753       2074.436          41.000  
  24096520.374     1610097.9213      -3418.184          41.000  
  24737854.650      -12420.8642       1600.546          44.000  
 15  4  3 20  0  6.0010000  0 11G 3G 6G16G23G 7G 9G32G10G30G 8G27
  21529541.116     1511596.1242      -3302.324          47.000  
  25091652.475       16279.8463      -1868.965          32.000  
  21162103.014      654312.487       -1567.681          50.000  
  20749660.975       -6322.2082        -83.462          49.000  
  22618781.944     -608460.471        1200.660          48.000  
  21713636.428     -628868.5822       1259.584          49.000  
  24924424.700       37657.2983      -4250.453          40.000  
  23583235.167     -156231.1172       1985.430          45.000  
  25139731.786      -22749.9573       2062.765          41.000  
  24097169.853     1613512.0583      -3410.621          44.000  
  24737548.678      -14027.1042       1610.340          45.000  
 15  4  3 20  0  7.0010000  0 11G 3G 6G16G23G 7G 9G32G10G30G 8G27
  21530170.545     1514899.694       -3304.088          48.000  
  25092011.234       18157.3813      -1881.311          32.000  
  21162401.133      655877.359       -1563.021          49.000  
  20749677.134       -6239.380         -82.923          49.000  
  22618553.992     -609657.366        1193.569          47.000  
  21713396.470     -630126.926        1256.005          49.000  
  24925231.232       41900.2373      -4241.420          41.000  
  23582858.103     -158212.8682       1979.567          38.000  
  25139340.988      -24807.6883       2053.769          43.000  
  24097814.761     1616918.4693      -3403.967          41.000  
  24737241.414      -15642.8102       1619.209          46.000  
 15  4  3 20  0  8.0010000  0 11G 3G 6G16G23G 7G 9G32G10G30G 8G27
  21530800.672     1518203.587       -3303.652          48.000  
  25092373.396       20038.2483      -1881.070          31.000  
  21162699.044      657440.547       -1563.366          49.000  
  20749693.572       -6156.824         -82.450          49.000  
  22618325.534     -610851.124        1194.004          47.000  
  21713157.175     -631383.146        1256.809          49.000  
  24926038.182       46141.1772      -4240.912          41.000  
  23582480.480     -160191.6872       1979.073          38.000  
  25138952.285      -26862.0202       2054.149          43.000  
  24098462.408     1620322.0492      -3403.239          41.000  
  24736933.418      -17262.2142       1619.297          47.000  
 15  4  3 20  0  9.0010000  0 11G 3G 6G16G23G 7G 9G32G10G30G 8G27
  21531430.171     1521507.903       -3304.135          48.000  
  25092734.388       21919.5283      -1883.276          31.000  
  21162996.587      659004.394       -1563.986          49.000  
  20749709.801       -6073.990         -82.660          49.000  
  22618098.507     -612044.703        1193.554          47.000  
  21712918.317     -632639.258        1255.996          49.000  
  24926845.795       50382.1582      -4240.792          41.000  
  23582103.555     -162170.1912       1978.213          37.000  
  25138562.307      -28916.2802       2054.209          43.000  
  24099110.649     1623725.6192      -3403.840          41.000  
  24736625.055      -18881.5172       1619.583          46.000  
 15  4  3 20  0 10.0010000  0 11G 3G 6G16G23G 7G 9G32G10G30G 8G27
  21532058.850     1524812.805       -3305.426          48.000  
  25093091.699       23801.1952      -1884.467          32.000  
  21163294.270      660569.075       -1565.422          49.000  
  20749725.925       -5990.708         -83.550          50.000  
  22617871.444     -613237.919        1192.771          47.000  
  21712679.284     -633895.026        1255.503          49.000  
  24927652.641       54623.2892      -4241.115          41.000  
  23581726.648     -164148.1162       1977.237          37.000  
  25138172.609      -30970.2432       2053.389          43.000  
  24099759.221     1627129.3472      -3403.754          41.000  
  24736316.832      -20500.5792       1618.731          46.000  
 15  4  3 20  0 11.0010000  0  9G 3G16G23G 7G 9G32G30G 8G27
  21532687.739     1528118.218       -3305.519          48.000  
  21163591.936      662134.524       -1565.212          49.000  
  20749741.525       -5907.060         -83.552          50.000  
  22617644.626     -614430.842        1192.934          47.000  
  21712440.285     -635150.589        1255.759          49.000  
  24928459.312       58864.5402      -4241.443          41.000  
  25137782.317      -33024.0042       2053.653          43.000  
  24100408.701     1630533.1082      -3403.773          42.000  
  24736009.377      -22119.4492       1618.932          47.000  
 15  4  3 20  0 12.0010000  0 11G 3G 6G16G23G 7G 9G32G10G30G 8G27
  21533316.749     1531424.041       -3306.286          48.000  
  25093807.926        1656.8613      -1883.006          32.000  
  21163889.899      663700.587       -1566.485          49.000  
  20749757.719       -5823.157         -84.355          50.000  
  22617417.407     -615623.594        1192.354          47.000  
  21712200.991     -636406.025        1254.932          49.000  
  24929266.420       63105.7722      -4241.458          41.000  
  23580972.764       -1762.2853       1976.722          37.000  
  25137391.956      -35077.6642       2053.753          43.000  
  24101056.436     1633936.8302      -3403.582          42.000  
  24735701.991      -23738.2622       1618.496          47.000  
 15  4  3 20  0 13.0010000  0  9G 3G16G23G 7G 9G32G30G 8G27
  21533946.004     1534730.426       -3306.966          48.000  
  21164188.402      665267.476       -1566.940          49.000  
  20749773.616       -5738.831         -84.558          50.000  
  22617190.485     -616815.994        1192.197          47.000  
  21711962.324     -637661.173        1255.073          49.000  
  24930073.737       67347.1812      -4241.008          41.000  
  25137001.176      -37131.0962       2053.295          43.000  
  24101704.467     1637340.6532      -3403.424          42.000  
  24735394.152      -25356.8362       1618.466          47.000  
 15  4  3 20  0 14.0010000  0 10G 3G16G23G 7G 9G32G10G30G 8G27
  21534574.701     1538037.279       -3306.707          48.000  
  21164486.469      666835.071       -1567.605          49.000  
  20749789.548       -5654.171         -84.570          50.000  
  22616963.440     -618008.147        1192.175          47.000  
  21711723.605     -638916.120        1255.264          49.000  
  24930880.670       71588.6702      -4241.432          40.000  
  23580222.090       -1642.1083       1976.162          36.000  
  25136610.710      -39184.3402       2053.418          43.000  
  24102352.306     1640744.4862      -3404.171          42.000  
  24735086.312      -26975.2532       1618.572          47.000  
 15  4  3 20  0 15.0010000  0 10G 3G16G23G 7G 9G32G10G30G 8G27
  21535204.025     1541344.585       -3307.634          47.000  
  21164784.955      668403.476       -1569.332          49.000  
  20749805.463       -5569.177         -85.227          49.000  
  22616736.587     -619200.250        1193.195          48.000  
  21711484.834     -640171.020        1255.536          49.000  
  24931687.638       75830.3122      -4242.483          40.000  
  23579846.073       -1126.6243       1976.288          38.000  
  25136219.441      -41237.6312       2053.992          43.000  
  24102999.378     1644148.5372      -3405.157          42.000  
  24734778.456      -28593.3962       1617.566          47.000  
 15  4  3 20  0 16.0010000  0 11G 3G 6G16G23G 7G 9G32G10G30G 8G27
  21535832.512     1544652.291       -3308.145          46.000  
  25095220.852        5189.0863      -1879.363          33.000  
  21165083.302      669974.094       -1571.667          50.000  
  20749820.941       -5483.583         -85.694          49.000  
  22616510.345     -620394.122        1196.539          47.000  
  21711246.394     -641426.822        1257.015          49.000  
  24932496.141       80073.1342      -4244.406          40.000  
  23579474.750       -1243.8563       1978.101          44.000  
  25135825.677      -43293.1452       2058.958          41.000  
  24103647.217     1647554.4872      -3407.468          41.000  
  24734470.477      -30208.9272       1614.895          46.000  
 15  4  3 20  0 17.0010000  0 11G 3G 6G16G23G 7G 9G32G10G30G 8G27
  21536462.046     1547960.236       -3308.757          47.000  
  25095597.777        7072.2653      -1877.971          30.000  
  21165382.939      671547.653       -1575.414          50.000  
  20749837.327       -5397.505         -87.947          49.000  
  22616282.846     -621591.599        1199.356          47.000  
  21711007.413     -642684.551        1258.368          49.000  
  24933304.051       84317.8832      -4247.488          39.000  
  23579094.265       -3223.9343       1982.371          41.000  
  25135432.471      -45352.8593       2057.201          43.000  
  24104296.278     1650963.3983      -3410.960          44.000  
  24734163.597      -31820.3752       1609.401          45.000  
 15  4  3 20  0 18.0010000  0 11G 3G 6G16G23G 7G 9G32G10G30G 8G27
  21537091.005     1551268.582       -3308.159          46.000  
  25095946.555        8944.9163      -1871.342          34.000  
  21165682.839      673124.789       -1577.891          50.000  
  20749853.381       -5310.496         -87.233          49.000  
  22616054.091     -622792.683        1203.497          47.000  
  21710768.031     -643944.116        1260.820          50.000  
  24934112.118       88564.9522      -4248.119          41.000  
  23578718.091       -5206.8293       1985.293          44.000  
  25135038.777      -47416.7543       2066.322          41.000  
  24104945.723     1654375.9132      -3416.532          36.000  
  24733857.660      -33427.0442       1606.190          45.000  
 15  4  3 20  0 19.0010000  0 11G 3G 6G16G23G 7G 9G32G10G30G 8G27
  21537720.294     1554577.247       -3307.880          46.000  
  25096302.260       10815.2533      -1867.114          30.000  
  21165983.698      674704.982       -1582.189          49.000  
  20749870.674       -5222.768         -88.090          49.000  
  22615825.145     -623996.936        1206.318          48.000  
  21710528.108     -645205.385        1260.950          50.000  
  24934920.587       92813.848       -4251.423          42.000  
  23578339.596       -7192.2552       1986.170          41.000  
  25134645.309      -49484.5213       2066.757          42.000  
  24105595.220     1657791.2383      -3417.604          41.000  
  24733552.438      -35029.775        1600.462          46.000  
 15  4  3 20  0 20.0010000  0 11G 3G 6G16G23G 7G 9G32G10G30G 8G27
  21538349.916     1557886.084       -3309.184          47.000  
  25096656.796       12679.7743      -1861.791          37.000  
  21166285.046      676288.913       -1585.699          49.000  
  20749887.374       -5134.193         -88.913          49.000  
  22615595.308     -625205.325        1211.291          47.000  
  21710287.365     -646468.656        1264.126          49.000  
  24935729.352       97064.998       -4250.934          42.000  
  23577962.741       -9181.1182       1988.835          42.000  
  25134249.992      -51557.0693       2075.073          39.000  
  24106246.008     1661210.9343      -3421.921          42.000  
  24733248.054      -36627.418        1593.616          45.000  
 15  4  3 20  0 21.0010000  0 11G 3G 6G16G23G 7G 9G32G10G30G 8G27
  21538979.851     1561194.969       -3308.632          46.000  
  25097010.268       14543.9993      -1856.766          29.000  
  21166587.318      677876.563       -1589.336          50.000  
  20749904.266       -5044.803         -90.299          48.000  
  22615364.372     -626418.187        1213.443          47.000  
  21710046.866     -647734.167        1265.987          50.000  
  24936538.571      101318.507       -4252.658          40.000  
  23577582.082      -11173.2342       1992.641          44.000  
  25133854.361      -53634.9242       2079.032          41.000  
  24106896.919     1664634.4803      -3424.488          42.000  
  24732945.153      -38219.898        1589.770          46.000  
 15  4  3 20  0 22.0010000  0 11G 3G 6G16G23G 7G 9G32G10G30G 8G27
  21539609.752     1564504.053       -3309.165          47.000  
  25097365.484       16400.9863      -1857.298          38.000  
  21166889.818      679466.378       -1590.206          49.000  
  20749921.402       -4954.592         -90.115          49.000  
  22615133.401     -627632.439        1213.913          47.000  
  21709806.315     -649000.045        1265.375          50.000  
  24937348.610      105572.6723      -4255.041          38.000  
  23577202.417      -13165.9433       1992.305          43.000  
  25133458.694      -55714.7292       2077.670          42.000  
  24107553.902     1668060.4522      -3422.712          40.000  
  24732642.741      -39810.295        1590.467          46.000  
 15  4  3 20  0 23.0010000  0 11G 3G 6G16G23G 7G 9G32G10G30G 8G27
  21540239.443     1567813.396       -3309.736          47.000  
  25097717.909       18258.7903      -1857.791          38.000  
  21167191.951      681057.209       -1591.636          48.000  
  20749938.277       -4863.829         -90.857          48.000  
  22614902.046     -628846.727        1214.911          47.000  
  21709565.467     -650265.610        1266.235          50.000  
  24938157.847      109826.6633      -4255.756          41.000  
  23576823.468      -15158.2553       1989.415          37.000  
  25133062.958      -57794.7292       2080.472          41.000  
  24108205.947     1671486.8153      -3427.339          41.000  
  24732340.137      -41400.398        1589.015          46.000  
 15  4  3 20  0 24.0010000  0 11G 3G 6G16G23G 7G 9G32G10G30G 8G27
  21540869.465     1571123.009       -3309.302          47.000  
  25098074.155       20115.6173      -1859.420          38.000  
  21167495.323      682649.194       -1592.962          49.000  
  20749955.866       -4772.827         -90.854          48.000  
  22614671.144     -630061.866        1215.165          46.000  
  21709324.287     -651531.567        1267.341          47.000  
  24938967.101      114081.1003      -4255.352          43.000  
  23576445.025      -17152.1373       1993.640          37.000  
  25132666.699      -59875.8062       2081.566          40.000  
  24108852.722     1674913.9503      -3428.252          36.000  
  24732037.829      -42989.397        1588.475          45.000  
 15  4  3 20  0 25.0010000  0 11G 3G 6G16G23G 7G 9G32G10G30G 8G27
  21541499.593     1574433.074       -3312.179          46.000  
  25098425.341       21971.3613      -1854.279          35.000  
  21167798.556      684242.576       -1593.704          49.000  
  20749973.421       -4681.562         -92.073          47.000  
  22614439.510     -631277.975        1214.092          46.000  
  21709083.300     -652798.349        1265.858          49.000  
  24939776.826      118336.4772      -4257.246          41.000  
  23576063.546      -19146.0083       1992.071          43.000  
  25132270.876      -61957.9202       2081.780          38.000  
  24109506.354     1678341.9113      -3430.336          39.000  
  24731735.417      -44576.906        1586.396          43.000  
 15  4  3 20  0 26.0010000  0 11G 3G 6G16G23G 7G 9G32G10G30G 8G27
  21542129.528     1577745.322       -3314.941          46.000  
  25098777.154       23826.1503      -1853.498          31.000  
  21168102.154      685837.073       -1592.799          47.000  
  20749990.261       -4590.383         -89.260          47.000  
  22614208.417     -632494.325        1215.806          46.000  
  21708841.859     -654066.317        1270.120          47.000  
  24940587.318      122594.4852      -4262.879          40.000  
  23575686.430      -21141.0103       1997.776          42.000  
  25131874.232      -64040.0003       2080.020          35.000  
  24110161.122     1681770.6773      -3427.579          27.000  
  24731433.703      -46162.2413       1584.296          39.000  
 15  4  3 20  0 27.0010000  0 11G 3G 6G16G23G 7G 9G32G10G30G 8G27
  21542761.784     1581066.329       -3327.439          48.000  
  25099134.186       25680.3163      -1859.139          30.000  
  21168404.322      687429.349       -1589.376          47.000  
  20750006.943       -4502.885         -85.761          48.000  
  22613977.254     -633707.612        1208.794          46.000  
  21708600.068     -655339.692        1275.883          47.000  
  24941400.708      126863.0533      -4274.318          45.000  
  23575303.886      -23142.7763       2005.187          38.000  
  25131478.897      -66115.7482       2069.113          35.000  
  24110809.292     1685189.4973      -3410.609          44.000  
  24731132.460      -47743.4302       1579.931          42.000  
 15  4  3 20  0 28.0010000  0 11G 3G 6G16G23G 7G 9G32G10G30G 8G27
  21543396.676     1584398.745       -3339.249          49.000  
  25099484.464       27542.3483      -1866.058          34.000  
  21168705.949      689013.690       -1579.935          48.000  
  20750022.666       -4421.4413        -74.180          49.000  
  22613746.998     -634910.920        1195.325          44.000  
  21708357.214     -656617.286        1278.379          49.000  
  24942215.441      131141.8922      -4281.864          44.000  
  23574921.709      -25148.2742       2005.374          44.000  
  25131085.430      -68176.1733       2052.820          40.000  
  24111456.451     1688591.0933      -3390.471          37.000  
  24730830.518      -49326.9582       1588.543          42.000  
 15  4  3 20  0 29.0010000  0 11G 3G 6G16G23G 7G 9G32G10G30G 8G27
  21544031.916     1587740.6463      -3343.277          46.000  
  25099837.308       29413.0173      -1874.164          35.000  
  21169006.442      690589.634       -1572.738          46.000  
  20750037.062       -4345.3212        -74.726          47.000  
  22613519.761     -636102.320        1188.134          44.000  
  21708113.766     -657896.121        1279.973          47.000  
  24943031.501      135427.2423      -4291.323          42.000  
  23574538.903      -27153.4192       2006.501          41.000  
  25130696.953      -70219.5993       2038.978          33.000  
  24112103.366     1691976.0183      -3376.040          28.000  
  24730528.089      -50916.0313       1590.641          37.000  
 15  4  3 20  0 30.0010000  0 10G 3G 6G16G23G 7G 9G32G10G30G27
  21544669.652     1591089.9132      -3352.853          49.000  
  25100193.414       31285.8623      -1869.294          34.000  
  21169305.085      692161.573       -1573.218          45.000  
  20750051.179       -4272.3602        -71.589          49.000  
  22613293.781     -637287.778        1184.365          47.000  
  21707869.969     -659177.325        1283.686          48.000  
  24943847.857      139719.0452      -4295.572          43.000  
  23574159.466      -29160.7592       2010.506          43.000  
  25130309.087      -72254.0983       2031.737          41.000  
  24730225.275      -52507.0833       1588.962          40.000  
 15  4  3 20  0 31.0010000  0 10G 3G 6G16G23G 7G 9G32G10G30G27
  21545308.016     1594445.1222      -3358.233          48.000  
  25100550.742       33160.5413      -1873.511          38.000  
  21169603.414      693732.5003      -1571.560          48.000  
  20750064.546       -4201.9122        -69.780          48.000  
  22613068.185     -638471.341        1181.729          46.000  
  21707625.177     -660462.343        1285.855          49.000  
  24944665.871      144018.0062      -4299.196          45.000  
  23573776.329      -31172.6502       2012.286          44.000  
  25129922.635      -74285.1323       2030.621          38.000  
  24729922.427      -54094.9523       1584.991          39.000  
 15  4  3 20  0 32.0010000  0 10G 3G 6G16G23G 7G 9G32G10G30G27
  21545947.147     1597804.2052      -3360.769          48.000  
  25100908.681       35034.4583      -1884.238          26.000  
  21169902.319      695302.9562      -1571.291          48.000  
  20750077.198       -4132.6472        -68.219          48.000  
  22612842.798     -639653.979        1182.734          46.000  
  21707380.211     -661749.613        1288.703          48.000  
  24945485.158      148320.8503      -4304.454          43.000  
  23573393.820      -33187.2632       2014.705          43.000  
  25129538.067      -76311.4223       2044.891          31.000  
  24729620.503      -55680.3653       1586.982          35.000  
 15  4  3 20  0 33.0010000  0 10G 3G 6G16G23G 7G 9G32G10G30G27
  21546587.588     1601167.5742      -3365.990          48.000  
  25101265.957       36909.5673      -1870.227          27.000  
  21170201.293      696873.5313      -1574.475          44.000  
  20750090.093       -4064.5352        -67.102          48.000  
  22612618.789     -640835.655        1181.611          47.000  
  21707134.477     -663039.327        1290.877          47.000  
  24946305.004      152629.5803      -4312.304          43.000  
  23573010.090      -35204.5883       2019.767          40.000  
  25129145.768      -78375.9653       2075.626          31.000  
  24729319.923      -57262.6663       1573.214          22.000  
 15  4  3 20  0 34.0010000  0 10G 3G 6G16G23G 7G 9G32G10G 8G27
  21547228.342     1604535.3952      -3370.812          48.000  
  25101621.069       38777.1163      -1871.523          28.000  
  21170500.495      698443.6713      -1569.876          47.000  
  20750102.867       -3998.3652        -64.607          48.000  
  22612393.769     -642017.289        1180.689          47.000  
  21706888.848     -664332.747        1295.122          47.000  
  24947126.037      156944.4693      -4317.272          42.000  
  23572625.661      -37226.5933       2024.764          40.000  
  24115469.879     1709188.1513      -3473.732          16.000  
  24729024.386      -58825.5533       1537.323          20.000  
 15  4  3 20  0 35.0010000  0 10G 3G 6G16G23G 7G 9G32G10G 8G27
  21547870.161     1607908.5052      -3375.651          49.000  
  25101976.879       40646.5343      -1873.612          32.000  
  21170798.719      700013.9842      -1570.863          47.000  
  20750114.995       -3933.6332        -64.145          48.000  
  22612169.080     -643197.798        1180.047          47.000  
  21706642.485     -665629.286        1297.775          48.000  
  24947948.431      161265.7683      -4324.923          38.000  
  23572240.151      -39252.4273       2021.787          39.000  
  24115941.803     1712550.8243      -3351.002          44.000  
  24728733.212      -60365.2203       1542.257          18.000  
 15  4  3 20  0 36.0010000  0 10G 3G 6G16G23G 7G 9G32G10G30G 8
  21548512.975     1611285.7412      -3379.044          49.000  
  25102335.533       42531.2323      -1889.441          27.000  
  21171097.432      701583.6812      -1569.385          48.000  
  20750126.896       -3870.2892        -63.214          49.000  
  22611944.740     -644376.771        1177.781          47.000  
  21706394.954     -666927.947        1299.031          48.000  
  24948774.228      165591.5563      -4330.984          30.000  
  23571854.240      -41280.6433       2031.918          40.000  
  25128000.301       -3916.5043       2009.041          31.000  
  24116578.125     1715902.0423      -3354.356          29.000  
 15  4  3 20  0 37.0010000  0  9G 3G 6G16G23G 7G 9G32G10G30
  21549156.312     1614666.883       -3381.852          48.000  
  25102712.196       44454.4543      -1958.572          24.000  
  21171396.075      703152.7782      -1567.847          48.000  
  20750138.919       -3808.153         -60.290          49.000  
  22611721.656     -645553.6963       1169.190          36.000  
  21706146.899     -668228.521        1302.062          49.000  
  24949597.686      169920.9063      -4326.632          30.000  
  23571467.717      -43312.5453       2033.122          37.000  
  25127621.666       -5934.6513       2014.536          25.000  
 15  4  3 20  0 38.0010000  0  8G 3G16G23G 7G 9G32G10G 8
  21549800.417     1618051.041       -3385.527          49.000  
  21171694.352      704720.9302      -1567.842          49.000  
  20750150.506       -3747.369         -59.944          49.000  
  22611496.828     -646730.1903       1174.752          45.000  
  21705899.769     -669530.570        1302.795          48.000  
  24950420.324      174253.2213      -4334.806          39.000  
  23571080.340      -45343.0253       2032.698          43.000  
  24117851.066     1722566.5203      -3342.524          40.000  
 15  4  3 20  0 39.0010000  0  8G 3G16G23G 7G 9G32G10G 8
  21550444.662     1621438.186       -3388.219          49.000  
  21171992.785      706288.7972      -1567.686          49.000  
  20750161.622       -3687.209         -59.908          49.000  
  22611273.028     -647904.5923       1173.476          48.000  
  21705651.365     -670833.623        1303.594          48.000  
  24951242.945      178588.9953      -4337.421          35.000  
  23570692.945      -47376.1552       2035.227          43.000  
  24118484.649     1725906.1463      -3332.362          33.000  
 15  4  3 20  0 40.0010000  0  9G 3G16G23G 7G 9G32G10G30G 8
  21551089.971     1624828.392       -3392.387          49.000  
  21172291.166      707856.1342      -1568.134          48.000  
  20750173.331       -3628.505         -59.353          49.000  
  22611049.927     -649078.1582       1173.021          47.000  
  21705403.154     -672138.935        1305.583          48.000  
  24952070.713      182928.4983      -4340.353          40.000  
  23570305.655      -49411.8743       2037.081          36.000  
  25126465.223      -11964.5853       2006.909          32.000  
  24119120.657     1729241.9733      -3328.260          37.000  
 15  4  3 20  0 41.0010000  0  8G 3G16G23G 7G 9G10G30G 8
  21551735.192     1628221.808       -3394.589          48.000  
  21172589.234      709423.9572      -1567.244          48.000  
  20750184.115       -3570.331         -57.187          49.000  
  22610826.634     -650251.1162       1173.920          45.000  
  21705154.261     -673445.946        1306.641          47.000  
  23569918.016      -51448.6773       2034.844          31.000  
  25126082.330      -13973.5603       2002.360          26.000  
  24119755.722     1732576.6553      -3332.914          45.000  
 15  4  3 20  0 42.0010000  0  9G 3G16G23G 7G 9G10G30G 8G27
  21552381.077     1631617.552       -3395.918          48.000  
  21172887.894      710991.8192      -1567.589          48.000  
  20750195.022       -3513.079         -53.672          47.000  
  22610603.516     -651425.1583       1171.943          44.000  
  21704905.002     -674754.915        1306.941          41.000  
  23569529.260      -53488.2203       2035.661          36.000  
  25125698.740      -15980.0493       2025.563          26.000  
  24120386.391     1735912.0133      -3344.298          28.000  
  24726632.834      -71471.0583       1559.211          30.000  
 15  4  3 20  0 43.0010000  0 10G 3G 6G16G23G 7G 9G32G10G30G 8
  21553028.027     1635015.249       -3398.930          49.000  
  25104863.564        9461.4523      -1878.187          20.000  
  21173186.188      712559.495       -1569.279          48.000  
  20750205.544       -3456.464         -57.092          49.000  
  22610380.223     -652599.0463       1173.893          41.000  
  21704655.237     -676065.121        1310.438          48.000  
  24954551.052      195965.7413      -4348.490          43.000  
  23569140.294      -55528.9443       2040.056          39.000  
  25125318.447      -17980.9853       2019.671          26.000  
  24121025.557     1739245.7363      -3337.188          28.000  
 15  4  3 20  0 44.0010000  0 10G 3G 6G16G23G 7G 9G32G10G 8G27
  21553674.610     1638412.3773      -3395.306          48.000  
  25105179.395       11331.7743      -1870.204          32.000  
  21173484.674      714129.187       -1570.908          48.000  
  20750216.869       -3398.213         -59.592          49.000  
  22610157.523     -653771.9963       1172.028          46.000  
  21704406.641     -677372.8693       1306.124          47.000  
  24955379.397      200312.8043      -4348.535          34.000  
  23568752.394      -57567.7953       2037.670          39.000  
  24121663.014     1742583.2173      -3320.036          26.000  
  24726038.078      -74685.3103       1567.317          35.000  
 15  4  3 20  0 45.0010000  0  9G 3G 6G16G23G 7G 9G32G10G 8
  21554319.936     1641803.9462      -3389.910          49.000  
  25105527.021       13207.5793      -1875.116          31.000  
  21173784.207      715701.007       -1573.273          48.000  
  20750228.299       -3336.624         -64.063          49.000  
  22609934.195     -654944.9303       1173.108          47.000  
  21704158.621     -678676.0512       1298.021          46.000  
  24956207.078      204651.7023      -4333.394          31.000  
  23568370.147      -59604.0813       2053.630          34.000  
  24122298.533     1745914.1073      -3341.251          27.000  
 15  4  3 20  0 46.0010000  0 10G 3G 6G16G23G 7G 9G32G10G30G27
  21554964.216     1645188.8902      -3380.043          48.000  
  25105893.947       15083.3253      -1887.256          30.000  
  21174083.967      717275.530       -1575.622          48.000  
  20750241.073       -3271.110         -67.392          49.000  
  22609711.094     -656119.7433       1175.665          44.000  
  21703911.683     -679973.3923       1294.165          48.000  
  24957032.770      208980.0973      -4314.012          29.000  
  23567989.627      -61648.1153       2043.860          34.000  
  25124174.899      -24012.9263       2038.160          25.000  
  24725453.548      -77792.5403       1543.092          21.000  
 15  4  3 20  0 47.0010000  0  8G 3G16G23G 7G 9G32G10G30
  21555607.117     1648566.9262      -3374.020          49.000  
  21174383.831      718852.632       -1578.690          48.000  
  20750254.370       -3201.844         -71.064          49.000  
  22609488.255     -657292.7673       1176.480          37.000  
  21703666.019     -681264.9812       1288.583          49.000  
  24957852.512      213299.1193      -4314.181          38.000  
  23567605.129      -63671.4193       2016.393          38.000  
  25123794.502      -26034.9103       2014.061          26.000  
 15  4  3 20  0 48.0010000  0  9G 3G 6G16G23G 7G 9G32G10G30
  21556248.761     1651938.4532      -3369.032          49.000  
  25106611.011       18841.9373      -1881.635          37.000  
  21174684.220      720432.362       -1582.113          49.000  
  20750268.417       -3128.872         -75.644          49.000  
  22609263.845     -658468.4103       1171.089          36.000  
  21703421.699     -682551.1912       1283.217          48.000  
  24958672.218      217609.4403      -4306.791          32.000  
  23567213.127      -65681.9313       2006.445          43.000  
  25123407.491      -28055.4453       2019.485          30.000  
 15  4  3 20  0 49.0010000  0  9G 3G 6G16G23G 7G 9G32G10G30
  21556888.504     1655304.1982      -3362.338          49.000  
  25106966.140       20724.2263      -1887.642          36.000  
  21174984.991      722014.171       -1583.114          48.000  
  20750282.849       -3052.656         -77.582          49.000  
  22609039.889     -659645.3423       1177.071          47.000  
  21703177.692     -683832.2932       1278.978          48.000  
  24959493.216      221912.1813      -4296.059          32.000  
  23566833.079      -67685.1763       1999.714          42.000  
  25123024.494      -30068.9383       2027.467          28.000  
 15  4  3 20  0 50.0010000  0 10G 3G 6G16G23G 7G 9G32G10G30G 8
  21557528.019     1658663.8622      -3356.653          48.000  
  25107323.050       22610.9103      -1889.603          35.000  
  21175286.915      723598.069       -1587.022          47.000  
  20750298.240       -2972.946         -81.931          49.000  
  22608814.938     -660822.3823       1176.148          47.000  
  21702934.942     -685107.7282       1271.892          48.000  
  24960307.269      226205.0033      -4284.368          31.000  
  23566452.926      -69680.9483       1990.733          39.000  
  25122638.024      -32097.1733       2040.137          28.000  
  24125486.199     1762870.7153      -3372.526          39.000  
 15  4  3 20  0 51.0010000  0 11G 3G 6G16G23G 7G 9G32G10G30G 8G20
  21558165.755     1662014.9102      -3345.621          49.000  
  25107695.856       24507.2493      -1890.100          25.000  
  21175588.874      725184.813       -1589.908          48.000  
  20750314.050       -2888.562         -87.168          49.000  
  22608590.860     -662000.7762       1179.630          47.000  
  21702693.222     -686375.8712       1263.136          48.000  
  24961124.532      230485.6513      -4272.546          28.000  
  23566075.809      -71667.0113       1981.299          43.000  
  25122250.036      -34143.7323       2036.526          36.000  
  24126129.659     1766250.1623      -3389.296          33.000  
  25583229.611     -344771.4763       2528.846          17.000  
 15  4  3 20  0 52.0010000  0 11G 3G 6G16G23G 7G 9G32G10G30G 8G20
  21558801.431     1665353.8542      -3331.912          49.000  
  25108069.256       26405.3973      -1901.896          26.000  
  21175891.670      726775.759       -1593.882          48.000  
  20750331.517       -2797.705         -94.387          49.000  
  22608366.730     -663181.1562       1180.781          47.000  
  21702454.660     -687634.0812       1252.288          49.000  
  24961937.276      234736.7353      -4231.420          32.000  
  23565695.621      -73640.3652       1968.310          41.000  
  25121856.969      -36182.4823       2043.006          44.000  
  24126781.843     1769644.5293      -3398.137          33.000  
  25582742.540     -347305.7943       2518.380          21.000  
 15  4  3 20  0 53.0010000  0 11G 3G 6G16G23G 7G 9G32G10G30G 8G20
  21559434.560     1668681.3372      -3325.701          48.000  
  25108445.500       28305.1233      -1898.786          27.000  
  21176193.524      728370.447       -1595.089          48.000  
  20750348.933       -2700.869         -97.661          49.000  
  22608140.208     -664363.3052       1182.547          47.000  
  21702216.883     -688882.9162       1247.450          49.000  
  24962751.433      238978.3823      -4243.620          34.000  
  23565324.351      -75601.5722       1959.076          43.000  
  25121470.499      -38228.2783       2047.305          42.000  
  24127433.591     1773046.8343      -3404.703          36.000  
  25582261.281     -349829.5483       2516.254          24.000  
 15  4  3 20  0 54.0010000  0 11G 3G 6G16G23G 7G 9G32G10G30G 8G20
  21560066.241     1672007.0972      -3325.719          48.000  
  25108820.156       30205.3553      -1901.155          26.000  
  21176496.791      729966.170       -1595.853          48.000  
  20750367.552       -2602.930         -98.033          49.000  
  22607914.298     -665545.7422       1182.602          46.000  
  21701980.538     -690130.2312       1246.838          49.000  
  24963557.389      243222.1953      -4244.152          34.000  
  23564954.912      -77560.5352       1958.729          42.000  
  25121077.329      -40275.4483       2047.365          42.000  
  24128081.396     1776451.2252      -3403.533          37.000  
  25581782.796     -352353.7603       2520.055          25.000  
 15  4  3 20  0 55.0010000  0 11G 3G 6G16G23G 7G 9G32G10G30G 8G20
  21560699.108     1675333.295       -3326.906          48.000  
  25109186.436       32106.0423      -1902.108          25.000  
  21176800.774      731562.628       -1596.517          48.000  
  20750386.363       -2504.627         -98.507          49.000  
  22607688.736     -666727.9442       1181.729          46.000  
  21701743.511     -691377.816        1246.959          49.000  
  24964366.678      247465.9893      -4243.518          34.000  
  23564578.406      -79519.0402       1958.132          43.000  
  25120691.522      -42322.3532       2046.472          42.000  
  24128730.998     1779855.6822      -3404.650          37.000  
  25581304.136     -354875.7643       2522.213          25.000  
 15  4  3 20  0 56.0010000  0 12G 3G 6G16G23G 7G 9G32G10G30G 8G27G20
  21561331.992     1678660.089       -3326.945          48.000  
  25109553.885       34007.3263      -1899.366          24.000  
  21177104.460      733159.891       -1597.425          48.000  
  20750405.384       -2405.881         -98.768          49.000  
  22607463.873     -667909.7972       1181.843          46.000  
  21701505.647     -692624.611        1246.427          49.000  
  24965172.564      251710.1662      -4242.472          34.000  
  23564207.764      -81477.0162       1957.908          43.000  
  25120300.899      -44368.9872       2047.175          42.000  
  24129378.174     1783260.2202      -3402.851          37.000  
  24722402.116       -6645.2343       1612.406          29.000  
  25580824.953     -357397.6163       2520.791          24.000  
 15  4  3 20  0 57.0010000  0 12G 3G 6G16G23G 7G 9G32G10G30G 8G27G20
  21561964.929     1681987.274       -3327.493          48.000  
  25109918.246       35907.9983      -1898.838          22.000  
  21177408.530      734757.831       -1598.485          47.000  
  20750423.358       -2306.883         -99.494          49.000  
  22607239.323     -669091.4192       1181.539          47.000  
  21701268.464     -693871.238        1246.278          49.000  
  24965980.614      255954.3682      -4243.480          34.000  
  23563834.817      -83434.6222       1957.576          43.000  
  25119909.839      -46415.5142       2046.436          42.000  
  24130026.921     1786664.7102      -3405.021          37.000  
  24722101.344       -8257.7933       1611.260          29.000  
  25580381.735     -359919.1243       2521.659          24.000  
 15  4  3 20  0 58.0010000  0 12G 3G 6G16G23G 7G 9G32G10G30G 8G27G20
  21562598.407     1685314.775       -3327.818          48.000  
  25110281.926       37810.4563      -1893.025          20.000  
  21177712.670      736356.306       -1598.695          47.000  
  20750442.693       -2207.689         -99.242          49.000  
  22607015.088     -670272.9742       1181.644          47.000  
  21701031.438     -695117.868        1246.873          49.000  
  24966788.751      260198.4492      -4244.127          33.000  
  23563462.220      -85391.9362       1957.789          43.000  
  25119519.722      -48462.0532       2046.980          42.000  
  24130675.161     1790069.1012      -3403.781          37.000  
  24721791.306       -9870.3183       1611.996          29.000  
  25579896.200     -362440.5203       2521.602          24.000  
 15  4  3 20  0 59.0010000  0 12G 3G 6G16G23G 7G 9G32G10G30G 8G27G20
  21563231.780     1688642.593       -3328.007          48.000  
  25110644.646       39708.1583      -1907.682          17.000  
  21178017.106      737955.338       -1599.642          47.000  
  20750461.521       -2108.314         -99.709          49.000  
  22606790.190     -671454.4152       1181.826          47.000  
  21700793.556     -696364.420        1246.452          49.000  
  24967595.335      264442.4452      -4244.114          33.000  
  23563090.601      -87348.9822       1956.634          44.000  
  25119131.158      -50508.5772       2046.194          42.000  
  24131322.966     1793473.3292      -3404.380          37.000  
  24721489.818      -11482.8563       1612.384          29.000  
  25579405.273     -364961.8763       2521.262          24.000  
 15  4  3 20  1  0.0010000  0 12G 3G 6G16G23G 7G 9G32G10G30G 8G27G20
  21563865.642     1691970.999       -3328.518          48.000  
  25111003.562       41611.4903      -1898.264          18.000  
  21178320.827      739555.220       -1599.914          47.000  
  20750480.525       -2008.481         -99.998          49.000  
  22606565.728     -672635.4772       1181.480          47.000  
  21700556.705     -697610.666        1245.539          49.000  
  24968401.412      268686.6012      -4244.859          33.000  
  23562718.195      -89305.4602       1956.260          43.000  
  25118741.530      -52554.7922       2046.097          42.000  
  24131970.735     1796877.7002      -3403.910          37.000  
  24721180.269      -13095.2553       1612.705          31.000  
  25578920.175     -367482.8593       2521.014          23.000  
 15  4  3 20  1  1.0010000  0 12G 3G 6G16G23G 7G 9G32G10G30G 8G27G20
  21564498.892     1695299.820       -3329.242          48.000  
  25111358.011       43514.8023      -1902.402          21.000  
  21178624.863      741155.763       -1600.722          47.000  
  20750499.999       -1908.372        -100.307          49.000  
  22606341.213     -673816.346        1180.778          47.000  
  21700319.190     -698856.763        1245.959          48.000  
  24969210.823      272930.8132      -4244.376          32.000  
  23562345.494      -91261.558        1955.994          43.000  
  25118352.372      -54600.8932       2046.208          42.000  
  24132618.627     1800282.0522      -3404.316          37.000  
  24720882.271      -14707.4652       1611.049          31.000  
  25578428.201     -370003.6263       2518.732          23.000  
 15  4  3 20  1  2.0010000  0 12G 3G 6G16G23G 7G 9G32G10G30G 8G27G20
  21565132.475     1698628.988       -3329.465          48.000  
  25111716.020       45417.9243      -1904.734          23.000  
  21178929.997      742756.875       -1601.304          47.000  
  20750518.915       -1808.067        -100.442          49.000  
  22606116.297     -674997.128        1180.376          47.000  
  21700081.902     -700102.790        1245.994          48.000  
  24970018.489      277174.9282      -4243.725          32.000  
  23561973.211      -93217.361        1955.711          44.000  
  25117962.657      -56647.0152       2045.896          42.000  
  24133265.821     1803686.2852      -3404.474          37.000  
  24720576.404      -16319.6302       1612.324          31.000  
  25577941.479     -372524.3503       2521.794          23.000  
 15  4  3 20  1  3.0010000  0 12G 3G 6G16G23G 7G 9G32G10G30G 8G27G20
  21565766.581     1701958.621       -3330.235          48.000  
  25112073.976       47321.8833      -1903.899          24.000  
  21179235.167      744358.754       -1601.932          47.000  
  20750537.761       -1707.400        -100.547          49.000  
  22605891.887     -676177.587        1180.354          47.000  
  21699844.474     -701348.606        1245.952          48.000  
  24970826.225      281419.1282      -4244.237          33.000  
  23561601.259      -95172.697        1955.256          44.000  
  25117573.430      -58692.8902       2046.464          42.000  
  24133913.573     1807090.5332      -3404.523          37.000  
  24720267.064      -17931.5772       1612.132          31.000  
  25577458.265     -375044.9313       2519.588          22.000  
 15  4  3 20  1  4.0010000  0 12G 3G 6G16G23G 7G 9G32G10G30G 8G27G20
  21566400.268     1705288.881       -3330.315          48.000  
  25112433.276       49226.2103      -1905.406          26.000  
  21179540.127      745961.482       -1603.151          47.000  
  20750556.922       -1606.250        -101.193          49.000  
  22605667.739     -677357.671        1180.182          47.000  
  21699607.919     -702594.085        1245.286          48.000  
  24971633.280      285663.5742      -4245.570          32.000  
  23561229.570      -97127.477        1954.565          44.000  
  25117184.272      -60738.4822       2045.145          42.000  
  24134561.813     1810494.9562      -3405.495          38.000  
  24719965.716      -19543.2612       1610.588          31.000  
  25576980.409     -377562.6623       2519.510          22.000  
 15  4  3 20  1  5.0010000  0 12G 3G 6G16G23G 7G 9G32G10G30G 8G27G20
  21567033.798     1708619.747       -3331.511          48.000  
  25112794.286       51131.1543      -1904.156          26.000  
  21179845.610      747565.030       -1603.802          48.000  
  20750576.257       -1504.649        -101.484          49.000  
  22605443.504     -678537.374        1180.223          47.000  
  21699371.119     -703839.243        1245.238          48.000  
  24972440.754      289908.2152      -4246.181          32.000  
  23560857.357      -99081.679        1954.134          44.000  
  25116794.783      -62783.7652       2045.157          42.000  
  24135210.037     1813899.5382      -3404.575          37.000  
  24719654.509      -21154.6722       1611.488          31.000  
  25576488.365     -380088.9583       2512.604          19.000  
 15  4  3 20  1  6.0010000  0 12G 3G 6G16G23G 7G 9G32G10G30G 8G27G20
  21567667.503     1711951.172       -3330.907          49.000  
  25113155.192       53036.4833      -1906.550          27.000  
  21180151.425      749169.427       -1603.818          48.000  
  20750595.958       -1402.623        -102.038          49.000  
  22605219.548     -679716.726        1179.811          47.000  
  21699133.936     -705084.096        1245.185          48.000  
  24973248.402      294152.9742      -4244.819          33.000  
  23560485.772     -101035.348        1953.942          44.000  
  25116405.033      -64828.7992       2045.238          42.000  
  24135857.422     1817304.1952      -3404.495          37.000  
  24719347.263      -22765.8712       1611.172          31.000  
  25576006.268     -382601.2783       2501.846          17.000  
 15  4  3 20  1  7.0010000  0 12G 3G 6G16G23G 7G 9G32G10G30G 8G27G20
  21568301.487     1715282.867       -3331.917          48.000  
  25113520.791       54942.0763      -1905.667          27.000  
  21180456.874      750774.310       -1604.613          48.000  
  20750615.275       -1300.449        -101.731          49.000  
  22604995.278     -680896.040        1179.390          48.000  
  21698897.014     -706328.969        1244.956          48.000  
  24974055.702      298397.099       -4244.495          32.000  
  23560113.244     -102988.799        1953.486          43.000  
  25116015.596      -66873.8902       2045.347          41.000  
  24136505.523     1820708.6712      -3404.676          38.000  
  24719040.558      -24377.1362       1611.307          32.000  
  25575524.485     -385116.0483       2520.754          16.000  
 15  4  3 20  1  8.0010000  0 12G 3G 6G16G23G 7G 9G32G10G30G 8G27G20
  21568935.279     1718615.074       -3332.249          46.000  
  25113885.675       56848.1303      -1905.767          28.000  
  21180762.584      752379.913       -1605.754          48.000  
  20750634.610       -1197.940        -102.420          49.000  
  22604771.374     -682075.078        1179.076          48.000  
  21698660.058     -707573.627        1244.679          48.000  
  24974863.595      302641.812       -4246.094          32.000  
  23559741.677     -104941.784        1953.431          43.000  
  25115625.985      -68918.7642       2045.180          42.000  
  24137153.398     1824113.2002      -3405.134          38.000  
  24718734.167      -25988.2122       1610.174          31.000  
  25575038.670     -387634.9053       2518.035          16.000  
 15  4  3 20  1  9.0010000  0 12G 3G 6G16G23G 7G 9G32G10G30G 8G27G20
  21569569.507     1721947.804       -3333.492          47.000  
  25114248.029       58754.6383      -1907.329          28.000  
  21181068.713      753986.365       -1607.045          48.000  
  20750654.433       -1094.965        -103.352          49.000  
  22604547.104     -683253.751        1178.514          48.000  
  21698423.328     -708817.974        1244.254          48.000  
  24975671.993      306886.689       -4245.044          32.000  
  23559369.673     -106894.251        1951.832          43.000  
  25115236.479      -70963.3742       2044.728          41.000  
  24137802.109     1827517.8522      -3404.206          38.000  
  24718427.218      -27599.0292       1609.254          31.000  
  25574560.796     -390151.5333       2508.991          16.000  
 15  4  3 20  1 10.0010000  0 12G 3G 6G16G23G 7G 9G32G10G30G 8G27G20
  21570203.979     1725280.998       -3333.219          48.000  
  25114612.564       60661.5983      -1906.374          28.000  
  21181374.877      755593.470       -1607.501          48.000  
  20750673.803        -991.718        -103.397          49.000  
  22604323.305     -684432.211        1178.411          48.000  
  21698186.180     -710062.161        1244.292          48.000  
  24976480.113      311131.582       -4245.190          32.000  
  23558998.350     -108846.307        1952.167          43.000  
  25114847.374      -73007.8882       2044.536          41.000  
  24138450.228     1830922.4672      -3403.889          38.000  
  24718119.588      -29209.6323       1611.570          31.000  
  25574079.537     -392667.2553       2524.640          17.000  
 15  4  3 20  1 11.0010000  0 12G 3G 6G16G23G 7G 9G32G10G30G 8G27G20
  21570838.766     1728614.563       -3333.663          48.000  
  25114973.958       62568.8233      -1908.412          26.000  
  21181680.867      757201.196       -1607.981          48.000  
  20750693.260        -888.228        -103.396          49.000  
  22604099.436     -685610.529        1178.412          48.000  
  21697948.700     -711306.276        1244.279          48.000  
  24977288.983      315376.469       -4242.893          32.000  
  23558626.503     -110798.037        1952.087          43.000  
  25114458.060      -75052.3052       2044.676          41.000  
  24139098.975     1834326.9862      -3404.122          38.000  
  24717812.185      -30820.2422       1611.006          32.000  
  25573600.336     -395185.1873       2523.849          19.000  
 15  4  3 20  1 12.0010000  0 12G 3G 6G16G23G 7G 9G32G10G30G 8G27G20
  21571473.413     1731948.543       -3334.051          49.000  
  25115334.497       64479.0223      -1908.572          23.000  
  21181986.856      758809.612       -1608.509          48.000  
  20750712.700        -784.428        -103.615          49.000  
  22603875.550     -686788.603        1178.265          48.000  
  21697711.377     -712550.194        1244.581          48.000  
  24978096.945      319621.297       -4244.309          32.000  
  23558255.477     -112749.351        1950.704          43.000  
  25114068.396      -77096.5902       2044.463          41.000  
  24139746.465     1837731.5242      -3404.645          38.000  
  24717504.991      -32430.7773       1610.352          30.000  
  25573122.340     -397704.7143       2518.400          19.000  
 15  4  3 20  1 13.0010000  0 12G 3G 6G16G23G 7G 9G32G10G30G 8G27G20
  21572108.165     1735282.819       -3334.484          49.000  
  25115698.386       66386.2193      -1915.565          22.000  
  21182293.649      760418.553       -1609.330          49.000  
  20750732.907        -680.470        -103.931          49.000  
  22603651.087     -687966.620        1178.259          48.000  
  21697474.647     -713794.112        1243.882          48.000  
  24978905.065      323866.118       -4246.899          31.000  
  23557884.887     -114700.400        1950.794          43.000  
  25113679.169      -79141.417        2043.972          41.000  
  24140394.287     1841135.362       -3404.879          38.000  
  24717197.867      -34041.3463       1610.255          30.000  
  25572644.431     -400223.0173       2521.387          19.000  
 15  4  3 20  1 14.0010000  0 12G 3G 6G16G23G 7G 9G32G10G30G 8G27G20
  21572742.393     1738617.520       -3334.754          49.000  
  25116062.154       68294.6023      -1904.329          20.000  
  21182599.638      762028.176       -1609.437          49.000  
  20750752.626        -576.222        -103.858          49.000  
  22603426.713     -689144.418        1178.157          48.000  
  21697238.266     -715037.863        1244.033          48.000  
  24979713.307      328110.923       -4244.806          32.000  
  23557513.930     -116651.067        1950.846          43.000  
  25113289.768      -81185.599        2044.875          41.000  
  24141042.720     1844539.705       -3403.273          38.000  
  24716891.529      -35651.7772       1609.203          30.000  
  25572161.705     -402744.3973       2521.387          16.000  
 15  4  3 20  1 15.0010000  0 12G 3G 6G16G23G 7G 9G32G10G30G 8G27G20
  21573377.354     1741952.534       -3334.966          49.000  
  25116428.137       70203.9033      -1912.792          20.000  
  21182906.256      763638.338       -1610.515          49.000  
  20750772.938        -471.817        -104.561          49.000  
  22603202.756     -690322.140        1177.460          48.000  
  21697001.484     -716281.579        1243.295          48.000  
  24980521.060      332355.630       -4243.882          31.000  
  23557142.467     -118601.469        1949.853          43.000  
  25112900.785      -83229.780        2043.670          41.000  
  24141690.751     1847943.875       -3404.349          38.000  
  24716585.225      -37262.2322       1610.004          30.000  
  25571681.824     -405265.7673       2521.387          14.000  
 15  4  3 20  1 16.0010000  0 11G 3G 6G16G23G 7G 9G32G10G30G 8G27
  21574012.228     1745288.031       -3335.531          49.000  
  25116797.855       72113.1393      -1910.486          20.000  
  21183213.362      765249.258       -1611.084          49.000  
  20750792.517        -367.034        -104.897          49.000  
  22602978.277     -691499.573        1177.465          48.000  
  21696764.947     -717525.076        1243.665          48.000  
  24981329.267      336600.9393      -4243.338          31.000  
  23556770.777     -120551.394        1949.757          43.000  
  25112511.261      -85273.769        2043.320          41.000  
  24142338.485     1851348.104       -3404.630          38.000  
  24716279.375      -38872.5243       1612.147          30.000  
 15  4  3 20  1 17.0010000  0 11G 3G 6G16G23G 7G 9G32G10G30G 8G27
  21574648.271     1748623.941       -3336.368          49.000  
  25117165.862       74020.6783      -1911.488          21.000  
  21183520.033      766860.807       -1611.942          49.000  
  20750812.724        -261.999        -105.263          49.000  
  22602753.867     -692676.822        1177.191          48.000  
  21696527.955     -718768.439        1243.230          48.000  
  24982137.072      340845.6902      -4244.863          31.000  
  23556399.227     -122500.949        1948.936          43.000  
  25112121.633      -87317.669        2043.752          41.000  
  24142986.133     1854752.294       -3403.897          38.000  
  24715973.019      -40482.6853       1607.602          30.000  
 15  4  3 20  1 18.0010000  0 11G 3G 6G16G23G 7G 9G32G10G30G 8G27
  21575283.005     1751960.097       -3336.194          49.000  
  25117531.846       75936.4013      -1933.606          20.000  
  21183826.912      768472.876       -1612.223          49.000  
  20750832.740        -156.836        -105.004          49.000  
  22602529.736     -693854.026        1177.412          48.000  
  21696291.470     -720011.812        1243.490          48.000  
  24982945.366      345090.2942      -4244.119          30.000  
  23556028.410     -124450.277        1949.271          43.000  
  25111733.348      -89361.605        2043.870          41.000  
  24143633.361     1858156.269       -3404.021          38.000  
  24715667.134      -42092.9612       1607.809          30.000  
 15  4  3 20  1 19.0010000  0 11G 3G 6G16G23G 7G 9G32G10G30G 8G27
  21575917.791     1755296.452       -3336.377          49.000  
  25117899.906       77851.8503      -1904.608          19.000  
  21184133.669      770085.375       -1612.490          49.000  
  20750852.982         -51.615        -105.258          49.000  
  22602305.501     -695031.249        1177.167          48.000  
  21696055.212     -721255.259        1243.587          48.000  
  24983753.259      349334.7993      -4243.339          29.000  
  23555657.785     -126399.436        1949.046          43.000  
  25111345.220      -91405.645        2044.481          42.000  
  24144280.904     1861560.016       -3402.573          38.000  
  24715361.965      -43703.2883       1611.103          30.000  
 15  4  3 20  1 20.0010000  0 11G 3G 6G16G23G 7G 9G32G10G30G 8G27
  21576552.229     1758633.083       -3336.459          49.000  
  25118267.268       79761.2643      -1913.045          19.000  
  21184440.601      771698.412       -1613.016          49.000  
  20750872.579          53.759        -104.964          49.000  
  22602081.004     -696208.420        1177.475          48.000  
  21695818.430     -722498.704        1243.955          48.000  
  24984560.366      353579.1243      -4244.897          28.000  
  23555286.741     -128348.353        1948.552          43.000  
  25110956.324      -93449.721        2044.499          42.000  
  24144929.075     1864963.562       -3403.905          38.000  
  24715055.888      -45313.7182       1610.643          30.000  
 15  4  3 20  1 21.0010000  0 11G 3G 6G16G23G 7G 9G32G10G30G 8G27
  21577186.771     1761970.096       -3337.693          49.000  
  25118628.592       81666.0173      -1910.559          19.000  
  21184747.359      773312.069       -1614.531          48.000  
  20750892.891         159.381        -106.000          49.000  
  22601857.118     -697385.403        1176.530          48.000  
  21695581.613     -723742.028        1243.199          48.000  
  24985367.317      357823.3812      -4243.773          28.000  
  23554916.029     -130296.901        1948.083          43.000  
  25110567.185      -95493.691        2043.691          42.000  
  24145576.722     1868367.061       -3403.704          38.000  
  24714749.445      -46924.0122       1610.248          30.000  
 15  4  3 20  1 22.0010000  0 12G 3G 6G16G23G 7G 9G32G10G30G 8G27G20
  21577822.046     1765307.704       -3337.832          49.000  
  25118998.606       83581.7013      -1911.163          19.000  
  21185054.448      774926.579       -1614.694          49.000  
  20750913.028         265.474        -106.012          49.000  
  22601633.319     -698561.999        1176.563          48.000  
  21695344.935     -724985.040        1243.087          47.000  
  24986174.250      362067.7883      -4243.755          27.000  
  23554545.264     -132244.918        1947.514          43.000  
  25110178.865      -97537.388        2044.314          42.000  
  24146224.213     1871770.674       -3404.186          38.000  
  24714442.844      -48534.0342       1611.049          30.000  
  25568387.345     -422922.7163       2520.362          22.000  
 15  4  3 20  1 23.0010000  0 12G 3G 6G16G23G 7G 9G32G10G30G 8G27G20
  21578456.938     1768645.714       -3338.654          49.000  
  25119360.524       85489.7243      -1913.584          21.000  
  21185361.851      776541.724       -1615.428          49.000  
  20750933.218         371.825        -106.106          49.000  
  22601409.555     -699738.433        1176.715          48.000  
  21695108.153     -726227.920        1242.696          47.000  
  24986981.846      366312.3963      -4237.766          26.000  
  23554174.639     -134192.538        1947.305          43.000  
  25109789.987      -99580.989        2043.611          42.000  
  24146871.354     1875174.225       -3402.954          38.000  
  24714136.907      -50144.0873       1608.679          29.000  
  25567903.974     -425439.9783       2513.484          22.000  
 15  4  3 20  1 24.0010000  0 12G 3G 6G16G23G 7G 9G32G10G30G 8G27G20
  21579091.777     1771984.062       -3338.584          48.000  
  25119725.495       87401.6223      -1910.641          21.000  
  21185669.254      778157.446       -1615.974          49.000  
  20750952.919         478.373        -106.775          49.000  
  22601185.354     -700914.740        1175.684          48.000  
  21694871.563     -727470.733        1242.103          48.000  
  24987790.175      370556.6303      -4246.976          27.000  
  23553803.856     -136139.880        1946.736          43.000  
  25109400.934     -101624.549        2043.422          42.000  
  24147518.827     1878577.700       -3402.855          38.000  
  24713830.778      -51753.9823       1611.067          27.000  
  25567416.520     -427958.4513       2519.559          23.000  
 15  4  3 20  1 25.0010000  0 12G 3G 6G16G23G 7G 9G32G10G30G 8G27G20
  21579727.034     1775322.697       -3338.746          48.000  
  25120087.395       89313.4213      -1905.808          22.000  
  21185977.337      779773.730       -1616.184          49.000  
  20750973.406         585.115        -106.591          49.000  
  22600961.520     -702090.955        1176.278          48.000  
  21694634.380     -728713.496        1243.384          48.000  
  24988596.532      374801.1103      -4243.640          26.000  
  23553433.458     -138086.933        1946.542          43.000  
  25109011.829     -103668.092        2043.070          42.000  
  24148165.567     1881981.017       -3403.667          37.000  
  24713530.634      -53364.4013       1610.606          25.000  
  25566932.329     -430473.4623       2513.160          24.000  
 15  4  3 20  1 26.0010000  0 12G 3G 6G16G23G 7G 9G32G10G30G 8G27G20
  21580361.699     1778661.702       -3339.063          46.000  
  25120396.875       91227.3523      -1915.242          22.000  
  21186284.636      781390.572       -1616.861          49.000  
  20750993.125         692.019        -106.992          49.000  
  22600737.704     -703267.094        1175.555          48.000  
  21694398.278     -729956.242        1243.401          48.000  
  24989402.924      379045.2783      -4243.683          26.000  
  23553062.414     -140033.696        1947.248          43.000  
  25108624.051     -105711.695        2044.585          41.000  
  24148812.708     1885384.206       -3402.753          37.000  
  24713207.055      -54982.0933       1609.803          21.000  
  25566451.418     -432989.4993       2517.588          24.000  
 15  4  3 20  1 27.0010000  0 12G 3G 6G16G23G 7G 9G32G10G30G 8G27G20
  21580997.847     1782000.919       -3339.094          48.000  
  25120759.613       93143.2953      -1915.561          22.000  
  21186592.388      783007.911       -1617.322          49.000  
  20751013.646         799.070        -107.024          49.000  
  22600513.381     -704443.137        1176.121          47.000  
  21694161.811     -731198.963        1242.874          48.000  
  24990212.195      383289.1403      -4243.676          25.000  
  23552691.684     -141980.226        1946.075          43.000  
  25108235.277     -107755.242        2043.703          41.000  
  24149460.513     1888787.166       -3402.371          38.000  
  24712863.704      -56594.7723       1622.936          15.000  
  25565968.065     -435506.2673       2518.368          25.000  
 15  4  3 20  1 28.0010000  0 11G 3G 6G16G23G 7G 9G32G10G30G 8G20
  21581633.593     1785340.620       -3340.229          48.000  
  25121110.222       95056.8523      -1912.858          21.000  
  21186899.442      784625.997       -1618.297          48.000  
  20751034.115         906.452        -107.816          49.000  
  22600289.181     -705618.941        1175.654          47.000  
  21693925.709     -732441.500        1242.512          48.000  
  24991022.985      387533.3753      -4245.476          25.000  
  23552321.652     -143926.306        1945.988          44.000  
  25107847.306     -109798.627        2043.565          41.000  
  24150107.427     1892190.183       -3402.799          38.000  
  25565488.219     -438022.3993       2516.351          25.000  
 15  4  3 20  1 29.0010000  0 11G 3G 6G16G23G 7G 9G32G10G30G 8G20
  21582270.090     1788681.298       -3342.562          49.000  
  25121515.277       96970.7993      -1914.102          21.000  
  21187208.031      786244.470       -1618.710          50.000  
  20751055.160        1013.784        -106.295          49.000  
  22600065.521     -706794.519        1174.970          48.000  
  21693689.590     -733684.414        1244.053          48.000  
  24991826.672      391778.5553      -4242.827          25.000  
  23551951.917     -145872.739        1948.348          43.000  
  25107457.940     -111841.685        2042.705          42.000  
  24150753.678     1895592.9513      -3402.759          33.000  
  25565008.896     -440538.8203       2513.245          25.000  
 15  4  3 20  1 30.0010000  0 11G 3G 6G16G23G 7G 9G32G10G30G 8G20
  21582906.865     1792029.234       -3354.025          48.000  
  25121872.204       98889.4013      -1924.782          26.000  
  21187515.783      787861.375       -1615.527          49.000  
  20751076.659        1117.516        -101.258          49.000  
  22599842.735     -707969.156        1174.236          48.000  
  21693453.436     -734933.235        1252.409          48.000  
  24992634.425      396024.4783      -4248.562          30.000  
  23551580.891     -147826.2503       1959.417          40.000  
  25107070.266     -113881.028        2034.990          39.000  
  24151398.220     1898988.3913      -3389.493          35.000  
  25564525.089     -443059.2213       2517.672          25.000  
 15  4  3 20  1 31.0010000  0 10G 3G 6G16G23G 7G 9G32G10G30G20
  21583545.386     1795387.066       -3361.792          48.000  
  25122202.414      100799.2073      -1904.471          31.000  
  21187823.012      789476.586       -1614.330          48.000  
  20751095.435        1217.217         -98.088          49.000  
  22599620.209     -709142.300        1171.577          48.000  
  21693214.264     -736189.205        1258.972          49.000  
  24993449.507      400278.1253      -4270.860          28.000  
  23551208.678     -149788.8802       1966.969          43.000  
  25106684.249     -115914.8683       2033.402          36.000  
  25564044.649     -445574.6143       2542.308          24.000  
 15  4  3 20  1 32.0010000  0 11G 3G 6G16G23G 7G 9G32G10G30G 8G20
  21584185.897     1798753.171       -3368.839          48.000  
  25122562.464      102705.8643      -1904.368          30.000  
  21188130.101      791090.105       -1612.899          49.000  
  20751113.828        1313.040         -94.441          49.000  
  22599397.178     -710314.354        1171.894          47.000  
  21692974.288     -737451.609        1265.354          48.000  
  24994261.082      404548.1893      -4253.893          28.000  
  23550834.248     -151759.4242       1973.171          43.000  
  25106298.094     -117950.5663       2046.092          23.000  
  24152701.908     1905786.9883      -3409.372          31.000  
  25563563.093     -448095.4123       2555.661          21.000  
 15  4  3 20  1 33.0010000  0 11G 3G 6G16G23G 7G 9G32G10G30G 8G27
  21584827.820     1802125.524       -3376.155          49.000  
  25122934.765      104608.8623      -1903.919          29.000  
  21188437.155      792702.565       -1612.140          48.000  
  20751131.627        1406.391         -92.105          49.000  
  22599174.269     -711485.035        1170.033          47.000  
  21692733.266     -738718.231        1268.390          48.000  
  24995073.459      408825.7723      -4290.717          33.000  
  23550458.353     -153734.9742       1978.999          43.000  
  25105913.177     -119979.7353       2023.185          35.000  
  24153364.877     1909205.2253      -3417.570          26.000  
  24711061.254      -66226.7163       1588.874          36.000  
 15  4  3 20  1 34.0010000  0 10G 3G 6G16G23G 7G 9G10G30G 8G27
  21585471.123     1805504.252       -3383.188          48.000  
  25123284.362      106511.9363      -1901.972          38.000  
  21188743.773      794314.052       -1611.689          47.000  
  20751149.095        1497.356         -89.347          49.000  
  22598951.447     -712654.443        1168.645          47.000  
  21692491.022     -739989.098        1272.298          48.000  
  23550081.219     -155715.8032       1983.716          43.000  
  25105528.050     -122006.7103       2018.523          30.000  
  24154000.955     1912627.8313      -3422.933          24.000  
  24710758.214      -67813.1373       1580.287          38.000  
 15  4  3 20  1 35.0010000  0  9G 3G 6G16G23G 7G 9G32G10G30
  21586114.966     1808888.526       -3387.505          47.000  
  25123652.667      108414.3223      -1906.136          27.000  
  21189050.425      795924.586       -1610.492          47.000  
  20751165.428        1585.952         -87.329          48.000  
  22598729.184     -713822.754        1167.754          46.000  
  21692248.848     -741263.846        1276.549          47.000  
  24996702.053        3126.3803      -4303.632          41.000  
  23549702.776     -157701.4313       1990.467          41.000  
  25105143.936     -124026.5843       2016.781          36.000  
 15  4  3 20  1 36.0010000  0  7G 3G 6G16G23G 7G 9G10
  21586759.943     1812278.084       -3391.096          48.000  
  25124005.021      110315.7253      -1899.392          35.000  
  21189356.589      797534.605       -1612.260          46.000  
  20751181.692        1672.680         -86.273          48.000  
  22598507.304     -714990.078        1167.715          45.000  
  21692005.592     -742542.056        1280.178          47.000  
  23549324.612     -159691.1362       1992.900          40.000  
 15  4  3 20  1 37.0010000  0  9G 3G 6G16G23G 7G 9G32G10G30
  21587405.287     1815670.331       -3393.339          47.000  
  25124368.754      112215.3333      -1905.692          29.000  
  21189662.963      799144.447       -1610.076          47.000  
  20751198.444        1758.374         -85.680          48.000  
  22598285.285     -716157.102        1167.000          47.000  
  21691761.865     -743822.237        1281.365          47.000  
  24998345.637        4025.6823      -4312.270          36.000  
  23548945.472     -161683.1312       1992.738          42.000  
  25104376.074       -1884.4233       2013.685          34.000  
 15  4  3 20  1 38.0010000  0  7G 6G16G23G 7G 9G10G 8
  25124731.998      114115.2573      -1902.352          34.000  
  21189968.830      800754.056       -1610.025          49.000  
  20751214.551        1843.634         -85.359          49.000  
  22598063.196     -717322.719        1164.072          47.000  
  21691518.120     -745102.846        1279.415          48.000  
  23548565.964     -163675.3683       1986.029          39.000  
  24156520.574     1926156.8063      -3371.874          30.000  
 15  4  3 20  1 39.0010000  0  8G 3G 6G16G23G 7G 9G10G30
  21588697.144        3071.4113      -3394.464          49.000  
  25125092.624      116018.2313      -1903.595          35.000  
  21190275.588      802363.436       -1609.568          43.000  
  20751230.552        1929.271         -85.802          49.000  
  22597842.468     -718486.164        1162.784          48.000  
  21691275.004     -746381.970        1278.897          48.000  
  23548187.155     -165665.1002       1988.236          42.000  
  25103610.516       -1823.3723       2011.915          43.000  
 15  4  3 20  1 40.0010000  0 10G 3G 6G16G23G 7G 9G32G10G30G 8
  21589345.315        2190.0983      -3394.465          49.000  
  25125452.290      117923.0483      -1909.304          27.000  
  21190581.926      803972.863       -1610.753          49.000  
  20751246.694        2015.344         -86.994          49.000  
  22597620.798     -719649.144        1162.890          48.000  
  21691031.346     -747660.312        1278.844          47.000  
  25000804.634        8201.3873      -4309.760          29.000  
  23547808.852     -167653.6152       1987.443          40.000  
  25103225.285       -1303.7203       2011.385          38.000  
  24157793.515     1932867.9633      -3352.865          39.000  
 15  4  3 20  1 41.0010000  0 10G 3G 6G16G23G 7G 9G10G30G 8G27
  21589991.165        1999.0033      -3394.154          49.000  
  25125814.539      119825.3203      -1904.083          33.000  
  21190888.230      805583.969       -1612.308          49.000  
  20751264.004        2102.078         -86.960          49.000  
  22597399.006     -720813.433        1164.349          48.000  
  21690787.567     -748938.730        1277.958          48.000  
  23547430.234     -169642.2353       1992.351          42.000  
  25102846.981       -1192.0973       2016.258          37.000  
  24158430.937     1936221.8573      -3354.622          45.000  
  24708652.007      -79151.3573       1580.543          42.000  
 15  4  3 20  1 42.0010000  0  7G 6G16G23G 7G 9G10G 8
  25126175.008      121728.4453      -1902.716          34.000  
  21191194.987      807197.1773      -1614.504          40.000  
  20751280.198        2189.818         -88.083          49.000  
  22597177.284     -721978.766        1166.385          48.000  
  21690544.642     -750216.979        1278.228          48.000  
  23547051.879     -171630.7823       1988.226          42.000  
  24159068.498     1939577.5053      -3356.848          46.000  
 15  4  3 20  1 43.0010000  0 11G 3G 6G16G23G 7G 9G32G10G30G 8G27
  21591279.794        2877.8523      -3392.656          48.000  
  25126538.793      123626.9723      -1903.101          23.000  
  21191502.338      808811.1443      -1614.302          48.000  
  20751297.282        2277.741         -88.220          49.000  
  22596955.282     -723145.241        1166.597          47.000  
  21690301.665     -751495.423        1278.269          48.000  
  25003270.420       10971.5643      -4308.458          31.000  
  23546673.645     -173619.1622       1988.194          41.000  
  25102076.519       -1710.3203       2017.027          42.000  
  24159706.495     1942934.3923      -3358.072          43.000  
  24708051.074       -1340.4653       1577.605          42.000  
 15  4  3 20  1 44.0010000  0  7G 6G16G23G 7G 9G10G 8
  25126901.060      125530.0433      -1902.225          25.000  
  21191809.567      810425.8623      -1615.907          48.000  
  20751314.261        2366.396         -89.061          49.000  
  22596733.385     -724311.1593       1168.211          45.000  
  21690058.654     -752773.188        1276.982          48.000  
  23546295.988     -175607.3923       1991.060          31.000  
  24160351.246     1946299.7773      -3360.401          31.000  
 15  4  3 20  1 45.0010000  0 11G 3G 6G16G23G 7G 9G32G10G30G 8G27
  21592572.471        3097.5033      -3391.496          47.000  
  25127263.693      127432.3503      -1898.363          24.000  
  21192116.760      812041.1163      -1615.603          47.000  
  20751331.380        2455.332         -87.973          48.000  
  22596511.453     -725478.2943       1167.482          46.000  
  21689815.485     -754050.553        1277.801          47.000  
  25004903.289        3912.0733      -4305.641          43.000  
  23545917.737     -177594.2573       1984.672          39.000  
  25101323.438       -1817.0463       2020.354          31.000  
  24160989.645     1949658.7063      -3362.593          31.000  
  24707450.507       -1434.1213       1579.367          31.000  
 15  4  3 20  1 46.0010000  0 10G 3G 6G16G23G 7G 9G32G10G30G 8
  21593218.234        1546.8613      -3392.388          48.000  
  25127626.134      129323.7943      -1895.638          31.000  
  21192424.617      813657.5103      -1617.432          44.000  
  20751348.062        2545.062         -90.123          48.000  
  22596289.329     -726645.1813       1166.834          44.000  
  21689572.752     -755326.968        1276.633          48.000  
  25005720.849        1953.2963      -4305.124          36.000  
  23545540.463     -179579.3293       1985.071          36.000  
  25100922.624        -917.2413       2049.996          31.000  
  24161626.892     1953017.2633      -3358.870          42.000  
 15  4  3 20  1 47.0010000  0 10G 3G 6G16G23G 7G 9G32G10G30G27
  21593862.234        1519.5173      -3391.419          48.000  
  25127989.604      131223.2593      -1910.637          25.000  
  21192732.421      815274.5943      -1616.882          42.000  
  20751365.303        2635.392         -90.300          49.000  
  22596067.729     -727811.5583       1167.470          47.000  
  21689329.706     -756602.680        1275.330          47.000  
  25006543.400        1958.0113      -4304.212          36.000  
  23545162.561     -181563.4623       1982.588          40.000  
  25100531.948        -917.6353       2020.665          33.000  
  24706849.696       -1409.6133       1580.436          43.000  
 15  4  3 20  1 48.0010000  0 10G 3G 6G16G23G 7G 9G32G10G30G27
  21594509.358        1984.8813      -3390.905          47.000  
  25128353.877      133145.3583      -1917.232          26.000  
  21193040.330      816892.1763      -1618.470          48.000  
  20751382.544        2726.242         -91.679          49.000  
  22595844.279        -663.2783       1165.683          47.000  
  21689087.200     -757877.691        1273.655          48.000  
  25007361.100        2500.2733      -4300.304          38.000  
  23544785.252     -183546.4273       1983.563          33.000  
  25100165.319       -1181.5913       2022.170          30.000  
  24706554.002        -906.8403       1573.800          35.000  
 15  4  3 20  1 49.0010000  0 10G 3G 6G16G23G 7G 9G32G10G 8G27
  21595153.864        5375.9033      -3390.550          48.000  
  25128711.537      135051.5443      -1905.564          35.000  
  21193348.222      818511.2053      -1618.535          48.000  
  20751400.169        2817.993         -92.113          49.000  
  22595623.185       -1829.1503       1166.454          44.000  
  21688844.607     -759151.714        1273.544          48.000  
  25008183.930        6805.6703      -4322.921          36.000  
  23544407.525     -185528.0883       1980.587          42.000  
  24163544.374     1963097.1293      -3361.436          42.000  
  24706246.582       -2489.5893       1582.724          42.000  
 15  4  3 20  1 50.0010000  0 10G 3G 6G16G23G 7G 9G32G10G30G27
  21595800.064        8766.5713      -3389.914          48.000  
  25129073.856      136957.8023      -1904.494          35.000  
  21193656.515      820130.7272      -1621.570          48.000  
  20751417.566        2910.340         -93.849          49.000  
  22595402.195       -2995.2573       1165.088          47.000  
  21688602.206     -760424.979        1271.716          47.000  
  25009000.025       11116.7093      -4296.384          34.000  
  23544031.787     -187508.4543       1978.504          41.000  
  25099388.436       -5214.1523       2018.620          39.000  
  24705945.060       -4071.7533       1586.661          40.000  
 15  4  3 20  1 51.0010000  0 10G 3G 6G16G23G 7G 9G32G10G30G27
  21596444.954       12156.6162      -3389.074          48.000  
  25129437.135      138865.9423      -1914.701          27.000  
  21193965.105      821750.8692      -1618.829          47.000  
  20751435.052        3003.167         -92.495          49.000  
  22595178.431       -4161.1052       1166.566          47.000  
  21688360.084     -761697.601        1272.352          48.000  
  25009814.112       15416.3603      -4299.705          39.000  
  23543653.798     -189487.0883       1979.689          36.000  
  25099000.744       -7233.1063       2018.965          38.000  
  24705641.967       -5654.4933       1586.462          36.000  
 15  4  3 20  1 52.0010000  0 10G 3G 6G16G23G 7G 9G32G10G30G27
  21597088.902       15546.2052      -3388.527          48.000  
  25129800.972      140773.2033      -1908.171          36.000  
  21194273.659      823372.4853      -1620.973          49.000  
  20751453.339        3096.697         -93.512          49.000  
  22594958.279       -5327.3852       1166.191          47.000  
  21688118.154     -762969.650        1271.408          48.000  
  25010632.161       19715.1523      -4301.818          34.000  
  23543278.758     -191466.0183       1979.178          36.000  
  25098619.038       -9252.8853       2018.151          36.000  
  24705343.812       -7237.5493       1583.134          40.000  
 15  4  3 20  1 53.0010000  0 10G 3G 6G16G23G 7G 9G32G10G30G27
  21597733.373       18934.9352      -3388.074          48.000  
  25130163.343      142677.6053      -1880.335          29.000  
  21194582.371      824994.1173      -1622.903          47.000  
  20751470.877        3190.789         -93.927          49.000  
  22594737.307       -6494.0962       1167.061          41.000  
  21687876.277     -764241.137        1270.984          48.000  
  25011453.979       24013.6903      -4299.399          29.000  
  23542901.763     -193443.4833       1977.068          41.000  
  25098234.994      -11273.0593       2020.744          41.000  
  24705042.534       -8820.3603       1583.152          32.000  
 15  4  3 20  1 54.0010000  0 11G 3G 6G16G23G 7G 9G32G10G30G 8G27
  21598378.333       22323.0362      -3387.512          48.000  
  25130526.569      144580.2293      -1914.196          22.000  
  21194890.978      826617.1062      -1622.703          47.000  
  20751489.200        3285.534         -94.717          49.000  
  22594514.380       -7660.9453       1166.444          47.000  
  21687634.103     -765511.867        1271.345          48.000  
  25012268.241       28308.4133      -4290.745          36.000  
  23542526.095     -195419.7883       1974.768          41.000  
  25097850.565      -13294.4273       2022.242          41.000  
  24166744.761     1979929.4493      -3364.650          44.000  
  24704740.960      -10404.7923       1583.858          35.000  
 15  4  3 20  1 55.0010000  0 11G 3G 6G16G23G 7G 9G32G10G30G 8G27
  21599023.084       25710.3532      -3387.164          48.000  
  25130888.120      146488.6213      -1906.846          35.000  
  21195200.214      828240.9673      -1624.642          48.000  
  20751506.702        3380.861         -95.356          49.000  
  22594291.960       -8828.1432       1167.917          47.000  
  21687392.697     -766781.966        1269.446          48.000  
  25013086.604       32603.1703      -4290.642          28.000  
  23542150.357     -197395.0903       1973.921          42.000  
  25097465.718      -15315.7553       2025.053          30.000  
  24167385.847     1983295.1803      -3363.339          45.000  
  24704438.966      -11993.5793       1584.903          39.000  
 15  4  3 20  1 56.0010000  0 11G 3G 6G16G23G 7G 9G32G10G30G 8G27
  21599667.520       29096.9732      -3385.509          48.000  
  25131248.694      148386.7683      -1899.618          32.000  
  21195509.083      829865.3533      -1624.988          46.000  
  20751525.618        3476.926         -95.251          49.000  
  22594069.923       -9994.6422       1165.913          47.000  
  21687151.098     -768050.684        1268.159          47.000  
  25013904.496       36894.8333      -4288.902          29.000  
  23541775.997     -199368.1723       1972.519          41.000  
  25097080.871      -17339.0423       2021.010          40.000  
  24168025.607     1986661.2043      -3365.388          44.000  
  24704136.013      -13579.2013       1586.509          42.000  
 15  4  3 20  1 57.0010000  0 11G 3G 6G16G23G 7G 9G32G10G30G 8G27
  21600311.852       32482.6212      -3385.443          49.000  
  25131615.759      150293.5303      -1914.132          27.000  
  21195818.126      831489.7993      -1623.851          46.000  
  20751543.731        3573.593         -97.440          49.000  
  22593848.306      -11160.5292       1164.924          47.000  
  21686910.163     -769318.037        1265.752          48.000  
  25014720.799       41182.9603      -4287.738          40.000  
  23541400.818     -201339.1493       1969.609          42.000  
  25096694.750      -19360.6773       2021.294          33.000  
  24168667.357     1990027.3333      -3363.024          41.000  
  24703835.136      -15167.7623       1587.470          40.000  
 15  4  3 20  1 58.0010000  0 11G 3G 6G16G23G 7G 9G32G10G30G 8G27
  21600955.922       35866.8712      -3382.555          49.000  
  25131982.964      152209.7613      -1911.794          27.000  
  21196127.588      833115.5923      -1625.864          46.000  
  20751562.525        3671.831         -98.362          48.000  
  22593625.937      -12325.8952       1165.165          47.000  
  21686669.472     -770583.226        1263.792          47.000  
  25015536.353       45470.3663      -4285.321          44.000  
  23541025.062     -203307.2122       1966.563          40.000  
  25096311.020      -21382.8353       2022.483          39.000  
  24169306.645     1993396.5523      -3370.173          40.000  
  24703531.223      -16756.8953       1590.823          39.000  
 15  4  3 20  1 59.0010000  0 11G 3G 6G16G23G 7G 9G32G10G30G 8G27
  21601599.242       39248.6172      -3379.604          49.000  
  25132349.628      154134.4583      -1926.340          26.000  
  21196437.050      834742.4813      -1627.410          49.000  
  20751581.372        3771.813        -100.192          49.000  
  22593404.599      -13490.7802       1163.655          49.000  
  21686429.235     -771845.377        1259.687          47.000  
  25016349.603       49753.4113      -4282.385          40.000  
  23540651.523     -205271.1153       1960.237          40.000  
  25095928.703      -23407.4153       2018.812          32.000  
  24169947.906     1996767.2693      -3373.415          41.000  
  24703231.254      -18348.0193       1593.348          37.000  
 15  4  3 20  2  0.0010000  0 11G 3G 6G16G23G 7G 9G32G10G30G 8G27
  21602242.248       42626.5542      -3375.779          48.000  
  25132715.263      156059.8283      -1929.676          26.000  
  21196746.757      836370.1813      -1627.957          49.000  
  20751601.178        3873.523        -103.264          49.000  
  22593182.545      -14655.4532       1166.013          47.000  
  21686189.522     -773104.107        1258.468          47.000  
  25017164.126       54030.8993      -4273.902          33.000  
  23540278.524     -207230.2272       1957.030          39.000  
  25095543.158      -25431.8103       2026.847          32.000  
  24170590.946     2000142.7963      -3383.935          32.000  
  24702926.887      -19943.2503       1597.519          42.000  
 15  4  3 20  2  1.0010000  0 10G 3G 6G16G23G 7G 9G32G10G30G27
  21602884.311       45999.6272      -3371.206          49.000  
  25133081.438      157980.8033      -1912.445          31.000  
  21197057.196      838000.6793      -1633.168          48.000  
  20751620.879        3978.278        -105.273          49.000  
  22592960.979      -15821.7042       1167.705          48.000  
  21685950.593     -774359.151        1253.741          47.000  
  25017979.086       58301.0923      -4269.081          33.000  
  23539906.974     -209184.4743       1954.767          38.000  
  25095155.623      -27459.5833       2030.600          35.000  
  24702622.660      -21540.5123       1598.409          39.000  
 15  4  3 20  2  2.0010000  0 10G 3G 6G16G23G 7G 9G32G10G30G27
  21603524.821       49366.8542      -3362.919          49.000  
  25133447.631      159887.5183      -1917.996          25.000  
  21197368.037      839634.3302      -1636.234          49.000  
  20751641.505        4086.374        -111.292          48.000  
  22592739.170      -16989.4892       1167.558          45.000  
  21685712.485     -775609.630        1247.436          46.000  
  25018789.667       62563.4883      -4255.600          41.000  
  23539536.332     -211133.0603       1944.794          40.000  
  25094772.277      -29492.1163       2023.044          27.000  
  24702318.643      -23140.7743       1601.656          43.000  
 15  4  3 20  2  3.0010000  0 11G 3G 6G16G23G 7G 9G32G10G30G27G20
  21604164.058       52725.1752      -3354.830          49.000  
  25133813.335      161806.7133      -1928.097          25.000  
  21197679.279      841271.6242      -1638.605          49.000  
  20751662.655        4199.287        -115.081          48.000  
  22592517.063      -18159.2902       1171.036          47.000  
  21685476.261     -776853.191        1240.742          48.000  
  25019597.507       66813.8953      -4242.806          32.000  
  23539167.486     -213072.8313       1935.665          40.000  
  25094388.547      -31527.9263       2040.657          27.000  
  24702016.178      -24745.6923       1606.795          44.000  
  25548431.486     -526898.3843       2510.958          19.000  
 15  4  3 20  2  4.0010000  0 12G 3G 6G16G23G 7G 9G32G10G30G 8G27G20
  21604802.840       56077.9182      -3352.824          50.000  
  25134181.168      163728.7863      -1922.534          25.000  
  21197992.580      842910.8542      -1639.432          51.000  
  20751684.363        4314.660        -115.341          49.000  
  22592293.666      -19330.3242       1170.920          46.000  
  21685239.444     -778092.835        1239.754          47.000  
  25020407.773       71056.0763      -4242.820          36.000  
  23538799.130     -215007.4572       1934.681          38.000  
  25094006.230      -33569.8163       2041.760          35.000  
  24173169.146        2542.4073      -3399.847          33.000  
  24701709.456      -26354.1732       1608.599          46.000  
  25547982.195     -529408.0503       2516.625          19.000  
 15  4  3 20  2  5.0010000  0 13G 3G 6G16G23G 7G 9G32G10G30G 8G27G19
                                G20
  21605440.838       59430.8002      -3353.031          50.000  
  25134549.158      165654.0723      -1927.979          26.000  
  21198304.590      844550.7752      -1640.266          50.000  
  20751706.263        4430.405        -115.833          49.000  
  22592070.059      -20501.2462       1171.132          45.000  
  21685002.977     -779332.219        1239.070          47.000  
  25021213.851       75298.2422      -4243.094          37.000  
  23538430.860     -216941.4122       1932.969          38.000  
  25093622.517      -35611.4313       2041.821          35.000  
  24173814.577        5941.8003      -3399.065          33.000  
  24701405.263      -27962.7542       1608.647          46.000  
  25856430.778     -222840.4093       1950.208          29.000  
  25547506.537     -531919.0393       2520.023          18.000  
 15  4  3 20  2  6.0010000  0 13G 3G 6G16G23G 7G 9G32G10G30G 8G27G19
                                G20
  21606079.481       62783.9492      -3353.353          50.000  
  25134913.676      167579.2403      -1926.085          25.000  
  21198616.164      846191.2402      -1640.969          50.000  
  20751727.674        4546.298        -116.221          48.000  
  22591846.713      -21672.1012       1171.165          45.000  
  21684767.119     -780571.584        1238.756          47.000  
  25022024.326       79540.2762      -4241.685          37.000  
  23538063.097     -218875.0702       1934.125          38.000  
  25093233.238      -37653.1602       2040.369          35.000  
  24174463.918        9340.9733      -3399.735          33.000  
  24701097.790      -29571.3852       1608.266          46.000  
  25856056.925     -224789.8403       1950.266          29.000  
  25547032.851     -534430.1243       2501.721          18.000  
 15  4  3 20  2  7.0010000  0 13G 3G 6G16G23G 7G 9G32G10G30G 8G27G19
                                G20
  21606717.845       66136.918       -3353.553          50.000  
  25135277.548      169503.7443      -1916.851          25.000  
  21198928.226      847832.2722      -1641.113          50.000  
  20751749.417        4662.390        -116.262          48.000  
  22591624.048      -22843.356        1170.526          45.000  
  21684531.437     -781810.871        1239.099          47.000  
  25022831.957       83782.1962      -4241.763          38.000  
  23537695.421     -220808.5012       1933.584          39.000  
  25092846.454      -39694.8482       2041.023          35.000  
  24175111.844       12740.0333      -3400.142          34.000  
  24700790.318      -31180.0082       1608.177          45.000  
  25855685.235     -226739.4513       1949.957          28.000  
  25546549.445     -536942.0763       2510.674          19.000  
