     2.10           OBSERVATION DATA    M (MIXED)           RINEX VERSION / TYPE
RTKCONV 2.4.2                           20150404 011340 UTC PGM / RUN BY / DATE 
log: D:\150403_downtown_1loop\rover_7p_car_antenna_150403.  COMMENT             
format: u-blox                                              COMMENT             
                                                            MARKER NAME         
                                                            MARKER NUMBER       
                                                            OBSERVER / AGENCY   
                                                            REC # / TYPE / VERS 
                                                            ANT # / TYPE        
 -2508100.8778 -4659961.8908  3548340.8179                  APPROX POSITION XYZ 
        0.0000        0.0000        0.0000                  ANTENNA: DELTA H/E/N
     1     1                                                WAVELENGTH FACT L1/2
     4    C1    L1    D1    S1                              # / TYPES OF OBSERV 
  1980     1    11    19    40   56.0000000     GPS         TIME OF FIRST OBS   
  2015     4     3    20    37   35.0000000     GPS         TIME OF LAST OBS    
                                                            END OF HEADER       
 80  1 11 19 40 56.0000000  0  1G 7
  21676797.809     -113219.3522       6362.303          37.000  
 80  1 11 19 40 57.0000000  0  1G 7
  21675587.829     -119580.2132       6360.374          38.000  
 80  1 11 19 40 58.0000000  0  1G 7
  21674377.429     -125938.8952       6358.866          38.000  
 80  1 11 19 40 59.0000000  0  1G 7
  21673168.164     -132295.2192       6354.150          38.000  
 80  1 11 19 41  0.0000000  0  1G 7
  21671959.388     -138647.6482       6349.967          38.000  
 80  1 11 19 41  1.0000000  0  1G 7
  21670751.134     -144994.9862       6345.310          38.000  
 15  4  3 19 41  2.0000000  0  1G 7
  21669544.155     -151337.2592       6339.436          38.000  
 15  4  3 19 41  3.0000000  0  1G 7
  21668338.206     -157673.2102       6332.642          37.000  
 15  4  3 19 41  4.0000000  0  1G 7
  21667132.413     -164006.2343       6352.958          37.000  
 15  4  3 19 41  5.0000000  0  1G 7
  21665928.697     -170333.0213       6306.973          37.000  
 15  4  3 19 41  6.0000000  0  1G 7
  21664730.268     -176632.2663       6300.801          37.000  
 15  4  3 19 41  7.0000000  0  1G 7
  21663532.992     -182922.8413       6292.751          38.000  
 15  4  3 19 41  8.0000000  0  1G 7
  21662338.227     -189203.4482       6273.729          38.000  
 15  4  3 19 41  9.0000000  0  1G 7
  21661144.982     -195472.6722       6264.741          38.000  
 15  4  3 19 41 10.0000000  0  1G 7
  21659954.667     -201729.0542       6250.415          37.000  
 15  4  3 19 41 11.0000000  0  1G 7
  21658766.709     -207972.5132       6237.501          37.000  
 15  4  3 19 41 12.0000000  0  1G 7
  21657580.461     -214205.0242       6227.518          38.000  
 15  4  3 19 41 13.0000000  0  1G 7
  21656397.964     -220421.6563       6207.656          37.000  
 15  4  3 19 41 14.0000000  0  1G 7
  21655217.998     -226620.7593       6194.253          38.000  
 15  4  3 19 41 15.0000000  0  1G 7
  21654039.532     -232813.2043       6231.934          38.000  
 15  4  3 19 41 16.0000000  0  1G 7
  21652861.154     -239008.0553       6185.959          37.000  
 15  4  3 19 41 17.0000000  0  1G 7
  21651683.578     -245196.1393       6205.078          37.000  
 15  4  3 19 41 18.0000000  0  1G 7
  21650502.931     -251400.4693       6216.372          37.000  
 15  4  3 19 41 19.0000000  0  1G 7
  21649332.737     -257554.5423       6130.355          37.000  
 15  4  3 19 41 20.0000000  0  1G 7
  21648166.539     -263682.6723       6128.296          38.000  
 15  4  3 19 41 21.0000000  0  1G 7
  21647001.964     -269801.7033       6116.753          38.000  
 15  4  3 19 41 22.0000000  0  1G 7
  21645839.186     -275915.6172       6118.922          38.000  
 15  4  3 19 41 23.0000000  0  1G 7
  21644675.012     -282034.4153       6117.122          38.000  
 15  4  3 19 41 24.0000000  0  1G 7
  21643513.334     -288139.6903       6081.130          38.000  
 15  4  3 19 41 25.0000000  0  1G 7
  21642351.533     -294247.2493       6088.529          38.000  
 15  4  3 19 41 26.0000000  0  1G 7
  21641188.895     -300353.7553       6101.833          38.000  
 15  4  3 19 41 27.0000000  0  1G 7
  21640025.908     -306467.5373       6117.727          22.000  
 15  4  3 19 41 28.0000000  0  1G 7
  21638862.746     -312585.2633       6117.727          18.000  
 15  4  3 19 41 50.0000000  0  1G32
  22766844.803       -8628.8133        669.300          29.000  
 15  4  3 19 41 51.0000000  0  1G32
  22766716.475       -9297.8503        667.935          28.000  
 15  4  3 19 41 52.0000000  0  1G32
  22766586.627       -9965.7573        667.210          28.000  
 15  4  3 19 41 53.0000000  0  1G32
  22766460.899      -10632.0223        665.703          28.000  
 15  4  3 19 41 54.0000000  0  1G32
  22766334.681      -11296.4333        663.598          28.000  
 15  4  3 19 41 55.0000000  0  1G32
  22766208.813      -11959.5953        663.050          28.000  
 15  4  3 19 41 56.0000000  0  2G 3G32
  19611717.910       -5373.0442       2043.037          31.000  
  22766082.229      -12621.7123        661.303          28.000  
 15  4  3 19 41 57.0000000  0  2G 3G32
  19611332.661       -7415.3632       2040.183          31.000  
  22765957.268      -13282.1333        659.582          28.000  
 15  4  3 19 41 58.0000000  0  2G 3G32
  19610947.081       -9455.7562       2039.703          31.000  
  22765834.296      -13940.8663        658.436          27.000  
 15  4  3 19 41 59.0000000  0  2G 3G32
  19610554.853      -11494.7672       2038.724          31.000  
  22765708.882      -14598.6413        657.639          27.000  
 15  4  3 19 42  0.0000000  0  2G 3G32
  19610171.646      -13533.2373       2037.238          31.000  
  22765582.106      -15256.3623        657.867          28.000  
 15  4  3 19 42  1.0000000  0  2G 3G32
  19609778.754      -15571.1872       2037.266          31.000  
  22765456.900      -15913.9551        657.758          28.000  
 15  4  3 19 42  2.0000000  0  2G 3G32
  19609385.915      -17608.5412       2036.509          32.000  
  22765331.974      -16571.2461        656.536          27.000  
 15  4  3 19 42  3.0000000  0  2G 3G32
  19609004.506      -19644.0012       2035.951          32.000  
  22765205.617      -17227.1451        655.334          27.000  
 15  4  3 19 42  4.0000000  0  2G 3G32
  19608617.512      -21678.1102       2033.685          32.000  
  22765080.639      -17882.1441        654.808          28.000  
 15  4  3 19 42  5.0000000  0  2G 3G32
  19608229.803      -23711.7832       2032.842          32.000  
  22764955.974      -18537.1181        655.205          28.000  
 15  4  3 19 42  6.0000000  0  2G 3G32
  19607843.822      -25744.9932       2032.597          32.000  
  22764833.160      -19191.9521        654.726          27.000  
 15  4  3 19 42  7.0000000  0  2G 3G32
  19607459.254      -27776.9802       2030.787          32.000  
  22764708.565      -19845.9241        652.681          28.000  
 15  4  3 19 42  8.0000000  0  2G 3G32
  19607071.353      -29806.8283       2025.379          32.000  
  22764583.709      -20497.7893        647.290          27.000  
 15  4  3 19 42  9.0000000  0  2G 3G32
  19606685.738      -31835.9143       2030.240          32.000  
  22764458.137      -21149.6293        651.206          27.000  
 15  4  3 19 42 10.0000000  0  2G 3G32
  19606296.703      -33863.6932       2026.612          32.000  
  22764336.631      -21800.7083        649.633          27.000  
 15  4  3 19 42 11.0000000  0  2G 3G32
  19605913.810      -35889.0782       2024.728          32.000  
  22764215.422      -22449.8183        648.880          27.000  
 15  4  3 19 42 12.0000000  0  2G 3G32
  19605527.550      -37914.0943       2024.677          31.000  
  22764093.829      -23098.8893        648.273          27.000  
 15  4  3 19 42 13.0000000  0  2G 3G32
  19605141.220      -39938.0242       2020.618          31.000  
  22763968.170      -23748.1803        645.008          26.000  
 15  4  3 19 42 14.0000000  0  2G 3G32
  19604758.013      -41954.2183       2007.584          31.000  
  22763846.559      -24388.6783        642.795          26.000  
 15  4  3 19 42 15.0000000  0  2G 3G32
  19604372.188      -43963.7093       2016.628          31.000  
  22763721.947      -25025.6453        641.214          26.000  
 15  4  3 19 42 16.0000000  0  2G 3G32
  19603988.755      -45980.0162       2015.378          31.000  
  22763600.058      -25667.9153        641.344          26.000  
 15  4  3 19 42 17.0000000  0  2G 3G32
  19603610.312      -47997.3362       2021.554          31.000  
  22763477.644      -26311.0653        647.025          26.000  
 15  4  3 19 42 18.0000000  0  2G 3G32
  19603225.727      -50005.8003       2005.616          32.000  
  22763354.603      -26948.1493        633.814          26.000  
 15  4  3 19 42 19.0000000  0  2G 3G32
  19602846.394      -52005.6292       1998.172          31.000  
  22763235.906      -27575.2333        623.189          26.000  
 15  4  3 19 42 20.0000000  0  2G 3G32
  19602468.265      -54001.9652       1995.573          31.000  
  22763117.105      -28198.8003        623.522          25.000  
 15  4  3 19 42 21.0000000  0  2G 3G32
  19602087.711      -55996.8342       1994.040          32.000  
  22762996.699      -28821.8303        624.774          25.000  
 15  4  3 19 42 22.0000000  0  2G 3G32
  19601707.191      -57990.1242       1993.041          32.000  
  22762880.498      -29443.3333        621.887          25.000  
 15  4  3 19 42 23.0000000  0  3G 3G 7G32
  19601329.795      -59980.7742       1981.456          32.000  
  21573500.338      -44698.8353       6202.567          26.000  
  22762763.040      -30063.0783        612.076          26.000  
 15  4  3 19 42 24.0000000  0  3G 3G 7G32
  19600951.457      -61970.5803       1989.998          32.000  
  21572314.491      -50907.0213       6209.519          27.000  
  22762645.723      -30680.2303        612.285          25.000  
 15  4  3 19 42 25.0000000  0  3G 3G 7G32
  19600568.983      -63962.4033       1983.372          31.000  
  21571135.136      -57113.2473       6207.356          28.000  
  22762526.991      -31296.1433        614.541          25.000  
 15  4  3 19 42 26.0000000  0  3G 3G 7G32
  19600189.092      -65951.1743       1986.428          31.000  
  21569954.436      -63321.5163       6209.709          28.000  
  22762409.272      -31914.4663        619.405          24.000  
 15  4  3 19 42 27.0000000  0  3G 3G 7G32
  19599813.179      -67924.4603       1998.086          30.000  
  21568774.592      -69519.3953       6185.200          27.000  
  22762294.607      -32521.4243        604.268          24.000  
 15  4  3 19 42 28.0000000  0  3G 3G 7G32
  19599429.693      -69904.2343       1976.239          30.000  
  21567595.621      -75717.4333       6196.762          28.000  
  22762178.319      -33131.5663        605.370          23.000  
 15  4  3 19 42 29.0000000  0  3G 3G 7G32
  19599061.197      -71868.4783       1956.311          30.000  
  21566419.651      -81903.0183       6178.398          29.000  
  22762062.030      -33730.4533        579.161          23.000  
 15  4  3 19 42 30.0000000  0  3G 3G 7G32
  19598691.584      -73821.3872       1947.887          30.000  
  21565245.286      -88077.2443       6170.345          29.000  
  22761952.617      -34315.8813        572.043          22.000  
 15  4  3 19 42 31.0000000  0  3G 3G 7G32
  19598322.285      -75768.1882       1944.841          31.000  
  21564072.108      -94245.6492       6167.467          29.000  
  22761841.721      -34890.9133        576.237          22.000  
 15  4  3 19 42 32.0000000  0  3G 3G 7G32
  19597947.105      -77711.7613       1942.264          30.000  
  21562900.866     -100411.1232       6163.755          29.000  
  22761731.506      -35470.1013        573.680          22.000  
 15  4  3 19 42 33.0000000  0  3G 3G 7G32
  19597576.829      -79652.2133       1939.230          30.000  
  21561729.381     -106573.8103       6161.777          30.000  
  22761621.028      -36045.4023        581.052          22.000  
 15  4  3 19 42 34.0000000  0  3G 3G 7G32
  19597209.345      -81589.2953       1935.544          30.000  
  21560554.248     -112733.3862       6157.537          29.000  
  22761511.389      -36617.2093        565.232          21.000  
 15  4  3 19 42 35.0000000  0  3G 3G 7G32
  19596845.822      -83526.1632       1935.179          30.000  
  21559385.450     -118893.1383       6157.610          29.000  
  22761403.686      -37188.2353        568.506          21.000  
 15  4  3 19 42 36.0000000  0  3G 3G 7G32
  19596476.837      -85457.8202       1928.400          30.000  
  21558212.255     -125047.9582       6152.716          30.000  
  22761295.390      -37753.3073        564.186          21.000  
 15  4  3 19 42 37.0000000  0  3G 3G 7G32
  19596109.807      -87382.090        1922.235          30.000  
  21557045.428     -131195.1212       6144.992          30.000  
  22761188.350      -38313.0783        563.986          21.000  
 15  4  3 19 42 38.0000000  0  3G 3G 7G32
  19595744.260      -89302.2391       1917.974          29.000  
  21555875.636     -137339.0582       6142.626          31.000  
  22761084.853      -38866.1583        556.599          20.000  
 15  4  3 19 42 39.0000000  0  3G 3G 7G32
  19595381.592      -91218.7771       1914.920          29.000  
  21554704.028     -143479.5232       6138.253          31.000  
  22760978.145      -39419.6733        546.856          19.000  
 15  4  3 19 42 40.0000000  0  3G 3G 7G32
  19595011.787      -93131.6211       1910.438          29.000  
  21553536.399     -149616.7222       6134.792          31.000  
  22760873.636      -39969.8443        544.633          21.000  
 15  4  3 19 42 41.0000000  0  3G 3G 7G32
  19594648.369      -95040.604        1906.874          30.000  
  21552369.137     -155750.3232       6131.704          31.000  
  22760770.330      -40517.3723        546.620          22.000  
 15  4  3 19 42 42.0000000  0  3G 3G 7G32
  19594287.847      -96944.5581       1901.976          30.000  
  21551203.183     -161879.2212       6126.103          30.000  
  22760670.620      -41057.3623        532.836          22.000  
 15  4  3 19 42 43.0000000  0  3G 3G 7G32
  19593920.974      -98844.3421       1898.213          29.000  
  21550040.579     -168004.2213       6122.843          30.000  
  22760570.508      -41592.6573        528.369          21.000  
 15  4  3 19 42 44.0000000  0  3G 3G 7G32
  19593558.603     -100740.3461       1894.110          29.000  
  21548869.373     -174125.8503       6120.269          29.000  
  22760468.232      -42127.4933        537.184          22.000  
 15  4  3 19 42 45.0000000  0  3G 3G 7G32
  19593201.641     -102631.9021       1888.754          28.000  
  21547696.073     -180243.2153       6114.669          29.000  
  22760370.842      -42655.6153        528.082          21.000  
 15  4  3 19 42 46.0000000  0  3G 3G 7G32
  19592842.603     -104518.4061       1883.985          28.000  
  21546539.403     -186355.8683       6110.265          29.000  
  22760268.462      -43179.8563        522.458          20.000  
 15  4  3 19 42 47.0000000  0  3G 3G 7G32
  19592485.240     -106400.1911       1879.977          28.000  
  21545379.644     -192464.1083       6106.664          29.000  
  22760165.663      -43699.7853        512.938          18.000  
 15  4  3 19 42 48.0000000  0  3G 3G 7G32
  19592129.796     -108278.3491       1876.581          29.000  
  21544215.016     -198568.9253       6102.902          29.000  
  22760068.430      -44216.0403        510.317          18.000  
 15  4  3 19 42 48.9640000  0  3G 3G 7G32
  19591787.231     -110086.0721       1873.703          29.000  
  21543095.079     -204451.503        6100.910          30.000  
  22759973.239      -44709.0133        519.334          18.000  
 15  4  3 19 42 49.9640000  0  3G 3G 7G32
  19591429.205     -111958.506        1870.486          31.000  
  21541934.238     -210551.242        6098.097          30.000  
  22759875.169      -45227.1623        515.287          16.000  
 15  4  3 19 42 50.9640000  0  3G 3G 7G32
  19591073.831     -113827.549        1867.211          31.000  
  21540782.436     -216647.903        6094.705          30.000  
  22759774.865      -45752.1063        526.826          14.000  
 15  4  3 19 42 51.9640000  0  3G 3G 7G32
  19590716.416     -115691.9831       1862.352          30.000  
  21539625.400     -222740.2591       6090.161          29.000  
  22759680.006      -46255.9253        498.140          13.000  
 15  4  3 19 42 52.9640000  0  3G 3G 7G32
  19590364.951     -117553.0141       1860.043          29.000  
  21538463.424     -228829.5141       6088.350          29.000  
  22759583.855      -46754.5023        500.071          13.000  
 15  4  3 19 42 53.9640000  0  3G 3G 7G32
  19590009.019     -119411.224        1855.945          30.000  
  21537309.686     -234916.2871       6085.529          28.000  
  22759487.303      -47250.8373        468.821          13.000  
 15  4  3 19 42 54.9640000  0  3G 3G 7G32
  19589658.514     -121266.442        1853.917          30.000  
  21536147.833     -241000.3411       6084.456          29.000  
  22759394.991      -47733.1933        485.634          13.000  
 15  4  3 19 42 55.9640000  0  3G 3G 7G32
  19589302.948     -123118.327        1850.222          30.000  
  21534999.644     -247081.298        6078.593          30.000  
  22759302.488      -48225.6523        487.450          13.000  
 15  4  3 19 42 56.9640000  0  3G 3G 7G32
  19588954.991     -124966.123        1845.909          31.000  
  21533838.907     -253158.477        6074.444          30.000  
  22759210.386      -48713.1013        487.450          11.000  
 15  4  3 19 42 57.9640000  0  3G 3G 7G32
  19588603.683     -126809.737        1842.704          31.000  
  21532686.844     -259231.805        6071.352          31.000  
  22759121.145      -49190.1393        462.914          12.000  
 15  4  3 19 42 58.9640000  0  3G 3G 7G32
  19588259.495     -128649.758        1838.243          32.000  
  21531533.193     -265301.864        6068.750          31.000  
  22759028.694      -49674.1873        494.164          12.000  
 15  4  3 19 42 59.9640000  0  3G 3G 7G32
  19587912.026     -130486.738        1836.548          32.000  
  21530374.760     -271369.036        6065.603          31.000  
  22758932.264      -50168.5473        494.089          12.000  
 15  4  3 19 43  0.9640000  0  3G 3G 7G32
  19587562.202     -132319.860        1831.056          33.000  
  21529223.744     -277432.754        6060.464          32.000  
  22758834.089      -50686.4863        512.796          13.000  
 15  4  3 19 43  1.9640000  0  3G 3G 7G32
  19587215.012     -134148.469        1826.752          33.000  
  21528071.628     -283492.274        6057.383          32.000  
  22758744.465      -51170.4283        481.546          13.000  
 15  4  3 19 43  2.9640000  0  3G 3G 7G32
  19586867.823     -135973.288        1823.624          32.000  
  21526918.797     -289548.296        6054.706          32.000  
  22758655.608      -51638.9313        448.705          11.000  
 15  4  3 19 43  3.9640000  0  3G 3G 7G32
  19586521.087     -137795.214        1820.697          33.000  
  21525766.698     -295601.694        6052.353          32.000  
  22758570.399      -52087.6323        448.705           9.000  
 15  4  3 19 43  4.9640000  0  3G 3G 7G32
  19586173.845     -139614.564        1818.500          32.000  
  21524611.895     -301652.784        6049.931          33.000  
  22758484.858      -52536.3343        448.705           8.000  
 15  4  3 19 43  5.9640000  0  2G 3G 7
  19585827.999     -141431.038        1814.313          31.000  
  21523461.053     -307701.436        6047.325          33.000  
 15  4  3 19 43  7.0020000  0  2G 3G 7
  19585469.013     -143313.1681       1810.789          30.000  
  21522266.307     -313976.795        6044.256          33.000  
 15  4  3 19 43  8.0030000  0  2G 3G 7
  19585121.615     -145124.2581       1807.854          30.000  
  21521115.657     -320024.817        6040.625          33.000  
 15  4  3 19 43  9.0030000  0  2G 3G 7
  19584774.251     -146930.8851       1805.879          30.000  
  21519966.595     -326064.443        6039.236          32.000  
 15  4  3 19 43 10.0020000  0  2G 3G 7
  19584427.584     -148733.1801       1802.980          30.000  
  21518818.824     -332095.764        6036.279          33.000  
 15  4  3 19 43 11.0030000  0  2G 3G 7
  19584091.930     -150536.487        1800.153          30.000  
  21517669.292     -338136.921        6033.971          33.000  
 15  4  3 19 43 12.0020000  0  2G 3G 7
  19583745.909     -152333.169        1795.534          31.000  
  21516522.289     -344163.269        6029.895          32.000  
 15  4  3 19 43 13.0020000  0  2G 3G 7
  19583411.755     -154128.064        1793.491          32.000  
  21515374.780     -350192.280        6027.240          32.000  
 15  4  3 19 43 14.0020000  0  2G 3G 7
  19583067.968     -155919.821        1790.275          32.000  
  21514228.178     -356218.521        6025.299          33.000  
 15  4  3 19 43 15.0020000  0  2G 3G 7
  19582728.579     -157708.921        1787.249          32.000  
  21513081.856     -362242.406        6023.047          32.000  
 15  4  3 19 43 15.9970000  0  2G 3G 7
  19582386.956     -159486.780        1785.409          33.000  
  21511941.502     -368234.187        6021.518          32.000  
 15  4  3 19 43 16.9970000  0  2G 3G 7
  19582053.430     -161270.559        1781.555          33.000  
  21510795.912     -374253.316        6018.075          32.000  
 15  4  3 19 43 17.9970000  0  2G 3G 7
  19581713.168     -163050.742        1782.130          32.000  
  21509651.422     -380269.069        6016.791          32.000  
 15  4  3 19 43 19.0020000  0  2G 3G 7
  19581372.557     -164833.956        1772.911          32.000  
  21508501.436     -386309.501        6008.734          33.000  
 15  4  3 19 43 20.0020000  0  2G 3G 7
  19581030.864     -166601.0253       1762.482          32.000  
  21507358.743     -392312.3103       5998.169          33.000  
 15  4  3 19 43 21.0020000  0  2G 3G 7
  19580694.965     -168369.1553       1759.851          32.000  
  21506215.946     -398317.0293       5996.423          33.000  
 15  4  3 19 43 22.0020000  0  2G 3G 7
  19580360.968     -170120.9533       1742.454          31.000  
  21505075.923     -404305.6292       5978.882          33.000  
 15  4  3 19 43 23.0020000  0  2G 3G 7
  19580030.147     -171856.1142       1729.019          30.000  
  21503938.867     -410277.9732       5965.973          33.000  
 15  4  3 19 43 24.0030000  0  2G 3G 7
  19579704.317     -173578.4763       1710.675          31.000  
  21502805.336     -416241.4782       5947.017          34.000  
 15  4  3 19 43 25.0030000  0  2G 3G 7
  19579378.120     -175285.0053       1703.166          32.000  
  21501674.091     -422186.3293       5940.799          34.000  
 15  4  3 19 43 26.0020000  0  2G 3G 7
  19579054.837     -176976.1782       1689.262          32.000  
  21500546.981     -428111.2962       5927.344          34.000  
 15  4  3 19 43 27.0020000  0  2G 3G 7
  19578744.345     -178657.0173       1676.716          32.000  
  21499420.203     -434030.4382       5914.728          34.000  
 15  4  3 19 43 28.0020000  0  2G 3G 7
  19578429.229     -180327.6413       1648.681          33.000  
  21498295.693     -439940.3923       5892.727          34.000  
 15  4  3 19 43 29.0020000  0  2G 3G 7
  19578112.141     -181971.1023       1636.233          33.000  
  21497176.384     -445822.2193       5884.515          34.000  
 15  4  3 19 43 30.0020000  0  2G 3G 7
  19577797.566     -183619.9883       1645.780          32.000  
  21496056.045     -451710.2063       5886.389          34.000  
 15  4  3 19 43 31.0020000  0  2G 3G 7
  19577491.472     -185229.0683       1596.825          32.000  
  21494943.384     -457558.2463       5836.279          34.000  
 15  4  3 19 43 32.0020000  0  2G 3G 7
  19577182.341     -186852.4073       1642.522          32.000  
  21493827.425     -463423.8603       5881.512          34.000  
 15  4  3 19 43 33.0020000  0  2G 3G 7
  19576876.735     -188460.2033       1600.475          32.000  
  21492713.752     -469276.4553       5838.495          35.000  
 15  4  3 19 43 34.0020000  0  2G 3G 7
  19576565.511     -190057.6503       1606.631          31.000  
  21491602.365     -475114.9663       5840.307          34.000  
 15  4  3 19 43 35.0020000  0  2G 3G 7
  19576253.867     -191656.1353       1597.904          31.000  
  21490490.909     -480953.8883       5837.659          35.000  
 15  4  3 19 43 36.0020000  0  2G 3G 7
  19575959.203     -193253.5172       1597.409          30.000  
  21489380.080     -486792.3352       5838.910          34.000  
 15  4  3 19 43 37.0030000  0  2G 3G 7
  19575651.713     -194852.8202       1597.468          30.000  
  21488267.891     -492637.2112       5839.527          34.000  
 15  4  3 19 43 38.0020000  0  3G 3G30G 7
  19575345.932     -196449.4272       1597.662          30.000  
  24160989.361      -67923.6003       6601.483          27.000  
  21487157.778     -498471.1782       5840.229          33.000  
 15  4  3 19 43 39.0020000  0  3G 3G30G 7
  19575045.178     -198046.9222       1596.812          32.000  
  24159734.044      -74524.4163       6599.635          28.000  
  21486046.478     -504310.5792       5838.702          34.000  
 15  4  3 19 43 40.0020000  0  3G 3G30G 7
  19574748.472     -199642.7272       1594.528          33.000  
  24158477.803      -81123.9913       6599.811          27.000  
  21484935.614     -510148.6022       5837.097          33.000  
 15  4  3 19 43 41.0020000  0  3G 3G30G 7
  19574443.320     -201237.0702       1593.644          33.000  
  24157216.641      -87722.5063       6598.663          27.000  
  21483824.262     -515985.3572       5835.657          33.000  
 15  4  3 19 43 42.0020000  0  3G 3G30G 7
  19574137.836     -202830.1122       1592.372          33.000  
  24155960.836      -94320.0313       6596.835          26.000  
  21482713.608     -521821.2072       5835.498          33.000  
 15  4  3 19 43 43.0020000  0  3G 3G30G 7
  19573839.316     -204422.006        1590.813          33.000  
  24154705.450     -100916.3693       6595.335          26.000  
  21481603.565     -527655.653        5833.294          33.000  
 15  4  3 19 43 44.0020000  0  3G 3G30G 7
  19573540.079     -206010.853        1587.009          33.000  
  24153449.418     -107510.6373       6592.892          26.000  
  21480493.784     -533487.871        5829.730          33.000  
 15  4  3 19 43 44.9970000  0  3G 3G30G 7
  19573239.621     -207588.019        1584.356          33.000  
  24152197.278     -114068.4563       6589.182          26.000  
  21479390.040     -539287.5283       5828.308          32.000  
 15  4  3 19 43 45.9970000  0  3G 3G30G 7
  19572940.717     -209168.7893       1580.647          27.000  
  24150943.323     -120656.2303       6587.224          26.000  
  21478280.974     -545106.6723       5819.554          26.000  
 15  4  3 19 43 46.9970000  0  3G 3G30G 7
  19572639.264     -210750.2843       1582.270          25.000  
  24149690.676     -127245.0943       6589.001          26.000  
  21477175.712     -550932.9623       5826.633          34.000  
 15  4  3 19 43 48.0030000  0  3G 3G30G 7
  19572334.043     -212342.8133       1578.850          25.000  
  24148435.081     -133873.1883       6587.580          26.000  
  21476069.561     -556795.5763       5829.585          22.000  
 15  4  3 19 43 49.0030000  0  3G 3G30G 7
  19572036.150     -213920.4383       1572.737          24.000  
  24147186.762     -140459.3703       6597.091          25.000  
  21474953.148     -562618.3803       5820.512          25.000  
 15  4  3 19 43 50.0030000  0  3G 3G30G 7
  19571743.039     -215495.3363       1571.517          25.000  
  24145934.412     -147046.3493       6586.593          23.000  
  21473845.810     -568438.5953       5819.169          34.000  
 15  4  3 19 43 51.0030000  0  3G 3G30G 7
  19571442.354     -217073.6203       1576.317          25.000  
  24144683.005     -153630.5553       6590.356          20.000  
  21472730.776     -574259.7003       5822.189          25.000  
 15  4  3 19 43 52.0030000  0  3G 3G30G 7
  19571138.773     -218647.5543       1571.875          24.000  
  24143431.301     -160213.3633       6590.766          19.000  
  21471630.278     -580087.2763       5842.742          24.000  
 15  4  3 19 43 53.0030000  0  3G 3G30G 7
  19570841.316     -220221.6883       1572.610          24.000  
  24142176.962     -166803.3763       6597.437          19.000  
  21470521.369     -585911.8693       5821.333          25.000  
 15  4  3 19 43 54.0030000  0  3G 3G30G 7
  19570550.753     -221796.9353       1573.314          25.000  
  24140924.996     -173391.4043       6582.612          19.000  
  21469418.689     -591732.0953       5819.984          25.000  
 15  4  3 19 43 55.0030000  0  3G 3G30G 7
  19570249.876     -223367.6693       1568.321          26.000  
  24139673.222     -179972.5303       6583.990          20.000  
  21468323.252     -597548.5393       5816.069          24.000  
 15  4  3 19 43 56.0030000  0  3G 3G30G 7
  19569953.397     -224934.2553       1562.503          31.000  
  24138422.355     -186547.2913       6570.365          20.000  
  21467203.960     -603365.5673       5816.750          30.000  
 15  4  3 19 43 57.0030000  0  3G 3G30G 7
  19569653.724     -226497.2503       1559.416          25.000  
  24137170.704     -193116.0173       6566.933          19.000  
  21466094.493     -609178.9943       5813.153          23.000  
 15  4  3 19 43 58.0030000  0  3G 3G30G 7
  19569356.076     -228054.4953       1555.544          24.000  
  24135919.645     -199690.0893       6562.085          18.000  
  21464995.094     -614977.6373       5797.350          23.000  
 15  4  3 19 43 59.0030000  0  3G 3G30G 7
  19569059.509     -229607.4503       1558.293          22.000  
  24134672.984     -206245.4183       6548.761          17.000  
  21463883.480     -620780.3493       5806.253          24.000  
 15  4  3 19 44  0.0030000  0  3G 3G30G 7
  19568764.723     -231152.4383       1543.938          21.000  
  24133425.468     -212799.8553       6541.171          17.000  
  21462786.420     -626574.8423       5785.724          25.000  
 15  4  3 19 44  1.0030000  0  3G 3G30G 7
  19568472.484     -232690.9523       1533.801          21.000  
  24132180.709     -219345.4933       6546.136          16.000  
  21461683.374     -632359.8423       5781.328          26.000  
 15  4  3 19 44  2.0030000  0  3G 3G30G 7
  19568177.139     -234225.9253       1533.631          22.000  
  24130933.856     -225897.6103       6557.514          17.000  
  21460582.632     -638149.4483       5782.923          25.000  
 15  4  3 19 44  3.0030000  0  3G 3G30G 7
  19567888.129     -235756.5083       1535.963          22.000  
  24129689.760     -232447.3333       6533.682          16.000  
  21459475.625     -643933.5953       5798.188          24.000  
 15  4  3 19 44  4.0030000  0  3G 3G30G 7
  19567598.752     -237285.2023       1535.543          21.000  
  24128446.781     -238982.7073       6542.333          15.000  
  21458376.052     -649712.3483       5783.727          24.000  
 15  4  3 19 44  5.0030000  0  3G 3G30G 7
  19567306.199     -238823.3563       1538.194          18.000  
  24127200.539     -245525.0383       6542.333          12.000  
  21457272.971     -655494.2493       5773.723          22.000  
 15  4  3 19 44  6.0030000  0  3G 3G30G 7
  19567017.415     -240352.5933       1520.633          18.000  
  24125955.431     -252059.0643       6527.985           9.000  
  21456174.690     -661269.9523       5769.209          21.000  
 15  4  3 19 44  7.0030000  0  2G 3G 7
  19566730.691     -241870.1003       1517.115          14.000  
  21455079.409     -667027.7553       5752.290          17.000  
 15  4  3 19 44  8.0030000  0  2G 3G 7
  19566437.457     -243387.2113       1517.115          12.000  
  21453980.185     -672794.9703       5767.963          15.000  
 15  4  3 19 44  8.9960000  0  2G 3G 7
  19566149.493     -244895.9353       1521.209           9.000  
  21452896.020     -678506.4773       5736.713          10.000  
 15  4  3 19 44 10.0020000  0  2G 3G 7
  19565858.371     -246426.5723       1521.941           9.000  
  21451798.506     -684277.7953       5736.713           8.000  
 15  4  3 19 44 11.0020000  0  1G 3
  19565571.019     -247948.5073       1521.941          10.000  
 15  4  3 19 44 11.9960000  0  1G 3
  19565282.444     -249461.3163       1521.941           9.000  
 15  4  3 19 44 38.9880000  0  1G16
  19516028.105      -21645.5272       3358.692          47.000  
 15  4  3 19 44 39.9880000  0  1G16
  19515390.195      -25004.5672       3359.463          49.000  
 15  4  3 19 44 40.9880000  0  1G16
  19514750.924      -28365.2492       3363.335          47.000  
 15  4  3 19 44 41.9880000  0  1G16
  19514111.024      -31728.4992       3364.607          47.000  
 15  4  3 19 44 42.9880000  0  1G16
  19513469.083      -35095.0782       3368.445          46.000  
 15  4  3 19 44 43.9880000  0  3G 3G23G16
  19556474.935       -8809.4332       1426.305          46.000  
  19326562.541      -27815.3152       4456.275          46.000  
  19512827.037      -38464.3872       3369.387          43.000  
 15  4  3 19 44 44.9970000  0  3G 3G23G16
  19556200.792      -10251.3592       1432.198          47.000  
  19325706.747      -32313.3242       4458.795          47.000  
  19512179.756      -41865.6442       3371.823          47.000  
 15  4  3 19 44 45.9970000  0  3G 3G23G16
  19555927.417      -11686.7002       1439.756          47.000  
  19324857.794      -36773.3912       4462.352          49.000  
  19511537.536      -45238.7372       3375.442          46.000  
 15  4  3 19 44 46.9970000  0  3G 3G23G16
  19555654.007      -13122.7012       1436.563          46.000  
  19324008.666      -41236.8972       4466.056          48.000  
  19510896.833      -48614.4912       3378.528          47.000  
 15  4  3 19 44 47.9970000  0  3G 3G23G16
  19555381.138      -14558.0552       1437.286          47.000  
  19323159.050      -45700.1542       4461.437          47.000  
  19510255.939      -51989.4842       3373.616          48.000  
 15  4  3 19 44 48.9970000  0  4G 3G23G16G 8
  19555107.170      -15995.7362       1439.810          47.000  
  19322310.865      -50158.0732       4455.425          47.000  
  19509613.998      -55358.8292       3365.818          46.000  
  22067404.233       -7837.4832        876.160          36.000  
 15  4  3 19 44 49.9970000  0  4G 3G23G16G 8
  19554833.794      -17433.8412       1432.129          46.000  
  19321463.203      -54611.5222       4446.890          47.000  
  19508973.558      -58721.9792       3355.753          46.000  
  22067236.275       -8712.6033        864.771          45.000  
 15  4  3 19 44 50.9970000  0  4G 3G23G16G 8
  19554559.966      -18873.8882       1441.368          47.000  
  19320615.646      -59065.3552       4454.437          47.000  
  19508332.751      -62084.5612       3363.317          46.000  
  22067068.125       -9583.2122        871.236          45.000  
 15  4  3 19 44 51.9970000  0  4G 3G23G16G 8
  19554285.962      -20314.0972       1442.528          46.000  
  19319768.507      -63518.9662       4455.828          47.000  
  19507692.904      -65446.1342       3363.666          45.000  
  22066901.841      -10453.0862        872.339          48.000  
 15  4  3 19 44 52.9970000  0  4G 3G23G16G 8
  19554012.168      -21755.5242       1442.212          47.000  
  19318920.601      -67973.7772       4456.407          47.000  
  19507052.952      -68809.4162       3364.705          45.000  
  22066736.152      -11325.2532        875.848          50.000  
 15  4  3 19 44 53.9970000  0  4G 3G23G16G 8
  19553738.025      -23196.2952       1438.749          46.000  
  19318072.468      -72431.1142       4458.079          46.000  
  19506412.878      -72176.0272       3366.807          44.000  
  22066568.124      -12203.6882        881.598          47.000  
 15  4  3 19 44 54.9970000  0  4G 3G23G16G 8
  19553464.825      -24631.9012       1433.266          41.000  
  19317223.812      -76889.0772       4458.106          47.000  
  19505772.507      -75543.222        3366.593          39.000  
  22066399.869      -13086.8612        885.151          46.000  
 15  4  3 19 44 55.9970000  0  4G 3G23G16G 8
  19553192.148      -26062.8632       1430.563          44.000  
  19316375.644      -81347.2952       4458.369          46.000  
  19505133.288      -78909.1393       3365.997          41.000  
  22066229.711      -13973.5602        887.883          46.000  
 15  4  3 19 44 56.9970000  0  4G 3G23G16G 8
  19552920.710      -27491.8462       1428.861          44.000  
  19315527.424      -85804.5692       4456.955          47.000  
  19504489.358      -82274.2043       3363.706          40.000  
  22066062.329      -14860.2492        886.698          46.000  
 15  4  3 19 44 57.9970000  0  4G 3G23G16G 8
  19552648.661      -28919.8582       1428.011          45.000  
  19314679.099      -90262.6902       4458.542          47.000  
  19503852.530      -85639.7203       3365.013          41.000  
  22065894.528      -15748.6622        888.927          48.000  
 15  4  3 19 44 58.9970000  0  5G 3G23G 7G16G 8
  19552377.188      -30348.0772       1428.583          44.000  
  19313830.373      -94722.2312       4461.446          47.000  
  21398699.203     -150644.4812       5695.621          43.000  
  19503212.490      -89006.0792       3366.754          41.000  
  22065724.406      -16640.0272        892.380          47.000  
 15  4  3 19 45  0.0000000  0  5G 3G23G 7G16G 8
  20751275.255      -31776.4242       1431.073          45.000  
  20512152.548      -99179.9252       4464.089          47.000  
  22596775.155     -156334.0142       5695.458          42.000  
  20701739.513      -92371.0992       3369.830          42.000  
  23264723.806      -17533.2132        895.537          45.000  
 15  4  3 19 45  1.0000000  0  5G 3G23G 7G16G 8
  20751003.153      -33205.615        1426.892          45.000  
  20511302.390     -103644.174        4463.460          48.000  
  22595695.423     -162027.4583       5692.715          39.000  
  20701097.502      -95740.2942       3368.732          44.000  
  23264552.340      -18430.2712        898.039          44.000  
 15  4  3 19 45  2.0000000  0  6G 3G23G 7G16G 8G 9
  20750731.872      -34630.772        1423.724          45.000  
  20510452.722     -108105.787        4460.216          48.000  
  22594616.511     -167718.7202       5690.015          39.000  
  20700457.306      -99106.7932       3364.844          44.000  
  23264381.136      -19326.3782        894.643          44.000  
  21694025.641      -47923.5612       5675.131          38.000  
 15  4  3 19 45  3.0000000  0  6G 3G23G 7G16G 8G 9
  20750461.376      -36052.799        1421.130          45.000  
  20509604.641     -112564.313        4457.806          49.000  
  22593533.027     -173407.0862       5687.651          44.000  
  20699819.012     -102469.7722       3362.140          45.000  
  23264211.450      -20219.5152        892.760          46.000  
  21692956.798      -53596.9632       5673.052          38.000  
 15  4  3 19 45  4.0000000  0  7G 3G23G 7G10G16G 8G 9
  20750191.038      -37473.972        1421.545          45.000  
  20508756.421     -117022.582        4458.526          49.000  
  22592454.586     -179094.9392       5688.354          44.000  
  23702902.525      -26212.9142       6592.425          33.000  
  20699179.898     -105832.0042       3362.286          45.000  
  23264042.357      -21112.7942        893.717          46.000  
  21691882.440       -1240.9503       5673.262          39.000  
 15  4  3 19 45  5.0000000  0  7G 3G23G 7G10G16G 8G 9
  20749920.943      -38895.261        1420.477          45.000  
  20507907.555     -121481.125        4457.975          49.000  
  22591370.526     -184783.1782       5687.621          44.000  
  23701649.652      -32805.0002       6591.333          33.000  
  20698540.505     -109194.0662       3361.151          45.000  
  23263872.671      -22006.5272        893.348          46.000  
  21690801.242       -6914.4613       5672.958          38.000  
 15  4  3 19 45  6.0000000  0  7G 3G23G 7G10G16G 8G 9
  20749651.582      -40315.466        1419.275          45.000  
  20507059.771     -125938.877        4456.930          49.000  
  22590287.932     -190470.6282       5686.547          44.000  
  23700393.009      -39396.1772       6589.893          28.000  
  20697900.640     -112554.8872       3359.723          45.000  
  23263702.637      -22899.7022        892.520          46.000  
  21689716.711      -12587.5522       5672.319          37.000  
 15  4  3 19 45  7.0000000  0  7G 3G23G 7G10G16G 8G 9
  20749381.766      -41734.070        1418.384          46.000  
  20506212.040     -130395.291        4456.293          49.000  
  22589205.338     -196156.7922       5686.183          44.000  
  23699133.016      -45986.0062       6589.233          30.000  
  20697261.072     -115914.407        3358.661          45.000  
  23263532.619      -23791.7772        891.980          46.000  
  21688640.940      -18259.3862       5671.663          37.000  
 15  4  3 19 45  8.0000000  0  7G 3G23G 7G10G16G 8G 9
  20749111.375      -43153.154        1419.836          46.000  
  20505364.134     -134852.460        4458.116          49.000  
  22588122.674     -201843.7202       5687.745          44.000  
  23697877.281      -52576.5542       6591.553          30.000  
  20696621.312     -119273.715        3360.010          45.000  
  23263362.776      -24684.8332        893.994          46.000  
  21687560.894      -23932.1562       5673.765          38.000  
 15  4  3 19 45  9.0000000  0  7G 3G23G 7G10G16G 8G 9
  20748841.054      -44574.118        1421.844          45.000  
  20504515.268     -139311.756        4460.266          49.000  
  22587040.028     -207532.7872       5689.925          44.000  
  23696622.314      -59169.0613       6592.926          30.000  
  20695981.465     -122634.713        3361.969          45.000  
  23263192.322      -25580.2522        896.698          46.000  
  21686479.452      -29607.1772       5676.112          37.000  
 15  4  3 19 45 10.0000000  0  7G 3G23G 7G10G16G 8G 9
  20748570.645      -45995.492        1420.904          45.000  
  20503666.420     -143771.722        4459.372          48.000  
  22585957.242     -213222.5742       5689.266          43.000  
  23695364.572      -65762.2803       6592.211          29.000  
  20695341.478     -125995.908        3360.419          44.000  
  23263021.991      -26476.5522        895.826          45.000  
  21685399.004      -35282.9902       5675.404          36.000  
 15  4  3 19 45 11.0000000  0  7G 3G23G 7G10G16G 8G 9
  20748300.411      -47415.695        1419.543          45.000  
  20502817.868     -148230.796        4458.530          48.000  
  22584874.683     -218911.4782       5688.610          43.000  
  23694112.501      -72354.5453       6591.424          28.000  
  20694701.806     -129355.759        3359.052          44.000  
  23262851.991      -27372.1952        895.219          46.000  
  21684318.696      -40958.0682       5674.586          37.000  
 15  4  3 19 45 12.0000000  0  7G 3G23G 7G10G16G 8G 9
  20748029.776      -48835.868        1420.740          45.000  
  20501969.386     -152690.099        4460.285          48.000  
  22583791.879     -224600.6612       5690.194          43.000  
  23692867.795      -78946.9963       6593.444          28.000  
  20694062.482     -132715.380        3360.357          44.000  
  23262681.467      -28268.3022        897.238          46.000  
  21683238.946      -46633.4822       5676.490          37.000  
 15  4  3 19 45 13.0000000  0  6G 3G23G 7G16G 8G 9
  20747758.844      -50258.407        1423.682          44.000  
  20501120.380     -157152.016        4463.202          48.000  
  22582707.662     -230292.4542       5692.990          43.000  
  20693422.949     -136077.147        3362.652          44.000  
  23262510.089      -29167.748         900.461          46.000  
  21682158.516      -52311.6462       5679.496          37.000  
 15  4  3 19 45 14.0000000  0  6G 3G23G 7G16G 8G 9
  20747487.126      -51682.884        1424.335          44.000  
  20500271.166     -161616.131        4464.322          48.000  
  22581623.079     -235986.4782       5694.036          43.000  
  20692782.474     -139440.648        3363.257          44.000  
  23262338.291      -30069.104         901.518          46.000  
  21681076.568      -57992.1882       5680.753          37.000  
 15  4  3 19 45 15.0000000  0  6G 3G23G 7G16G 8G 9
  20747215.357      -53108.392        1425.946          44.000  
  20499421.270     -166081.537        4465.908          48.000  
  22580538.147     -241681.8482       5695.895          42.000  
  20692141.998     -142805.002        3364.575          43.000  
  23262166.459      -30971.991         903.420          46.000  
  21679995.160      -63674.0892       5682.613          37.000  
 15  4  3 19 45 16.0000000  0  6G 3G23G 7G16G 8G 9
  20746944.215      -54534.880        1427.161          44.000  
  20498571.427     -170548.195        4467.447          48.000  
  22579453.877     -247378.4932       5697.665          42.000  
  20691501.261     -146170.137        3365.662          44.000  
  23261994.347      -31876.354         905.395          46.000  
  21678913.212      -69357.3982       5683.769          37.000  
 15  4  3 19 45 17.0000000  0  6G 3G23G 7G16G 8G 9
  20746672.271      -55963.308        1429.755          44.000  
  20497721.165     -175017.051        4470.476          48.000  
  22578369.224     -253077.3442       5700.210          42.000  
  20690860.978     -149537.008        3368.030          44.000  
  23261822.323      -32783.146         908.555          46.000  
  21677831.246      -75043.0982       5687.261          38.000  
 15  4  3 19 45 18.0000000  0  6G 3G23G 7G16G 8G 9
  20746400.379      -57392.556        1429.266          44.000  
  20496870.153     -179486.973        4470.081          48.000  
  22577284.257     -258777.3012       5700.004          42.000  
  20690219.927     -152904.504        3367.523          44.000  
  23261649.130      -33691.227         908.314          46.000  
  21676748.303      -80729.9782       5687.290          38.000  
 15  4  3 19 45 19.0000000  0  6G 3G23G 7G16G 8G 9
  20746128.749      -58820.408        1426.544          44.000  
  20496019.717     -183955.776        4467.577          48.000  
  22576199.761     -264476.1832       5697.962          42.000  
  20689579.416     -156270.404        3364.398          44.000  
  23261476.879      -34598.423         906.245          46.000  
  21675666.250      -86415.8562       5684.568          38.000  
 15  4  3 19 45 20.0000000  0  6G 3G23G 7G16G 8G 9
  20745857.747      -60244.3173       1422.491          45.000  
  20495170.205     -188420.3863       4463.907          48.000  
  22575115.265     -270171.3673       5693.840          42.000  
  20688939.604     -159631.6563       3360.297          44.000  
  23261304.732      -35501.6333        902.376          46.000  
  21674585.087      -92098.1813       5681.352          38.000  
 15  4  3 19 45 21.0000000  0  6G 3G23G 7G16G 8G 9
  20745586.815      -61670.0223       1422.290          45.000  
  20494320.554     -192888.0553       4463.878          48.000  
  22574031.781     -275866.6523       5694.402          42.000  
  20688300.141     -162994.5083       3359.619          44.000  
  23261132.987      -36408.1193        902.045          46.000  
  21673503.365      -97783.1873       5681.375          38.000  
 15  4  3 19 45 22.0000000  0  6G 3G23G 7G16G 8G 9
  20745315.098      -63097.7353       1426.162          44.000  
  20493470.519     -197357.7273       4467.520          47.000  
  22572946.778     -281566.2453       5702.766          41.000  
  20687660.625     -166359.8623       3364.342          44.000  
  23260960.806      -37313.8023        911.858          46.000  
  21672421.364     -103468.2383       5689.160          38.000  
 15  4  3 19 45 23.0000000  0  6G 3G23G 7G16G 8G 9
  20745045.056      -64517.8993       1416.730          44.000  
  20492621.496     -201820.1733       4458.550          48.000  
  22571862.893     -287259.5493       5688.669          41.000  
  20687022.576     -169718.1203       3353.729          45.000  
  23260789.550      -38214.1043        898.162          46.000  
  21671340.445     -109147.4023       5676.730          38.000  
 15  4  3 19 45 24.0000000  0  7G 3G23G30G 7G16G 8G 9
  20744776.113      -65931.1062       1413.586          44.000  
  20491773.677     -206275.6292       4455.834          48.000  
  25229171.179      -37937.6562       6457.168          30.000  
  22570781.049     -292946.2003       5685.698          41.000  
  20686385.538     -173068.3852       3350.641          44.000  
  23260618.694      -39110.0873        896.009          46.000  
  21670260.643     -114820.5592       5672.888          38.000  
 15  4  3 19 45 25.0000000  0  7G 3G23G30G 7G16G 8G 9
  20744506.682      -67341.0003       1410.980          44.000  
  20490926.679     -210728.0343       4453.451          48.000  
  25227940.450      -44393.3442       6455.562          30.000  
  22569699.729     -298628.8442       5683.887          41.000  
  20685749.495     -176415.1373       3347.601          45.000  
  23260448.869      -40002.2312        893.358          46.000  
  21669181.051     -120490.8873       5671.389          38.000  
 15  4  3 19 45 26.0000000  0  7G 3G23G30G 7G16G 8G 9
  20744238.210      -68751.1112       1409.912          44.000  
  20490078.807     -215180.9172       4452.781          47.000  
  25226714.066      -50849.7402       6455.978          31.000  
  22568617.973     -304311.9622       5682.961          41.000  
  20685113.522     -179761.9072       3346.481          45.000  
  23260279.305      -40895.0872        892.829          46.000  
  21668100.865     -126161.8082       5671.011          38.000  
 15  4  3 19 45 27.0000000  0  7G 3G23G30G 7G16G 8G 9
  20743970.140      -70160.2422       1408.191          44.000  
  20489231.809     -219633.0722       4451.302          48.000  
  25225481.505      -57305.5742       6455.718          30.000  
  22567535.675     -309994.4152       5681.882          41.000  
  20684477.025     -183107.4962       3344.373          45.000  
  23260109.549      -41787.4602        891.707          46.000  
  21667021.482     -131832.1332       5669.687          38.000  
 15  4  3 19 45 28.0000000  0  7G 3G23G30G 7G16G 8G 9
  20743702.349      -71567.2742       1402.942          44.000  
  20488384.950     -224083.3972       4446.445          48.000  
  25224246.693      -63759.7293       6453.566          30.000  
  22566454.826     -315675.0342       5676.698          41.000  
  20683841.698     -186450.8112       3339.372          45.000  
  23259940.038      -42678.2142        887.018          46.000  
  21665942.901     -137500.7382       5664.808          38.000  
 15  4  3 19 45 29.0000000  0  7G 3G23G30G 7G16G 8G 9
  20743434.523      -72972.5782       1404.883          44.000  
  20487538.038     -228532.2562       4448.797          48.000  
  25223022.473      -70212.4112       6453.258          30.000  
  22565374.413     -321354.2272       5678.892          41.000  
  20683206.649     -189792.1772       3340.810          45.000  
  23259770.701      -43567.7282        889.414          46.000  
  21664864.460     -143168.0062       5666.903          38.000  
 15  4  3 19 45 29.9990000  0  6G 3G23G 7G16G 8G 9
  20743166.941      -74376.6132       1405.222          44.000  
  20486692.453     -232977.0162       4448.596          48.000  
  22564294.786     -327028.1532       5679.013          41.000  
  20682571.426     -193130.1222       3340.619          46.000  
  23259600.858      -44456.9482        889.557          46.000  
  21663786.805     -148830.1532       5667.997          38.000  
 15  4  3 19 45 30.9990000  0  6G 3G23G 7G16G 8G 9
  20742898.941      -75784.2753       1414.105          44.000  
  20485844.913     -237428.7313       4456.684          48.000  
  22563213.640     -332710.1843       5686.463          41.000  
  20681935.593     -196473.4303       3348.525          46.000  
  23259431.085      -45349.8263        898.653          46.000  
  21662708.050     -154500.0083       5678.585          38.000  
 15  4  3 19 45 31.9990000  0  6G 3G23G 7G16G 8G 9
  20742631.621      -77188.8403       1402.524          43.000  
  20484998.718     -241877.6413       4446.790          48.000  
  22562132.285     -338390.0793       5677.107          41.000  
  20681300.405     -199813.4573       3336.749          46.000  
  23259262.551      -46240.0223        888.090          46.000  
  21661630.027     -160167.7803       5665.521          37.000  
 15  4  3 19 45 32.9990000  0  6G 3G23G 7G16G 8G 9
  20742364.702      -78590.7723       1400.997          43.000  
  20484152.487     -246322.6273       4444.696          48.000  
  22561051.646     -344066.5543       5675.497          41.000  
  20680664.938     -203149.1793       3335.382          46.000  
  23259093.685      -47126.5993        886.368          46.000  
  21660551.639     -165833.2883       5664.502          37.000  
 15  4  3 19 45 33.9990000  0  6G 3G23G 7G16G 8G 9
  20742099.058      -79991.7723       1398.293          44.000  
  20483306.552     -250768.5093       4442.853          48.000  
  22559970.988     -349742.4123       5673.687          41.000  
  20680029.872     -206485.2923       3333.111          46.000  
  23258924.278      -48013.7823        885.017          47.000  
  21659474.472     -171497.7123       5661.691          37.000  
 15  4  3 19 45 34.9990000  0  6G 3G23G 7G16G 8G 9
  20741833.989      -81384.8972       1387.738          44.000  
  20482462.084     -255206.7362       4432.800          48.000  
  22558891.954     -355411.1312       5663.111          41.000  
  20679396.045     -209813.2952       3322.382          46.000  
  23258757.070      -48894.0442        874.960          47.000  
  21658398.491     -177155.2012       5651.671          38.000  
 15  4  3 19 45 35.9990000  0  6G 3G23G 7G16G 8G 9
  20741571.869      -82765.7112       1374.044          44.000  
  20481620.373     -259632.9262       4419.641          48.000  
  22557815.084     -361067.8622       5650.416          40.000  
  20678765.028     -213128.8082       3308.752          46.000  
  23258592.026      -49762.4922        861.936          47.000  
  21657324.500     -182800.7712       5638.752          38.000  
 15  4  3 19 45 36.9990000  0  6G 3G23G 7G16G 8G 9
  20741311.861      -84133.2832       1361.853          44.000  
  20480780.180     -264046.0972       4407.336          48.000  
  22556740.936     -366711.6092       5637.980          40.000  
  20678136.907     -216430.8452       3296.094          46.000  
  23258429.320      -50618.1542        850.017          47.000  
  21656252.708     -188433.4522       5627.086          38.000  
 15  4  3 19 45 37.9990000  0  6G 3G23G 7G16G 8G 9
  20741054.505      -85490.2492       1352.797          45.000  
  20479942.028     -268448.9422       4398.730          48.000  
  22555668.602     -372345.0412       5629.211          39.000  
  20677509.537     -219722.0952       3286.853          45.000  
  23258268.447      -51463.7192        841.677          47.000  
  21655182.538     -194055.9362       5618.299          38.000  
 15  4  3 19 45 38.9990000  0  6G 3G23G 7G16G 8G 9
  20740798.004      -86839.1132       1344.562          45.000  
  20479105.971     -272843.9572       4390.906          48.000  
  22554597.124     -377970.6902       5621.649          39.000  
  20676884.226     -223005.0682       3278.644          45.000  
  23258109.091      -52301.6872        834.043          47.000  
  21654113.852     -199670.7282       5610.741          38.000  
 15  4  3 19 45 39.9990000  0  6G 3G23G 7G16G 8G 9
  20740543.999      -88179.6732       1336.201          45.000  
  20478271.275     -277230.9042       4382.727          48.000  
  22553527.286     -383588.2532       5613.541          39.000  
  20676260.887     -226279.5142       3270.147          45.000  
  23257950.975      -53131.8142        826.078          47.000  
  21653046.894     -205277.6132       5602.846          38.000  
 15  4  3 19 45 40.9990000  0  6G 3G23G 7G16G 8G 9
  20740290.814      -89512.1972       1329.010          45.000  
  20477438.009     -281610.0722       4375.427          48.000  
  22552460.275     -389198.0912       5605.240          37.000  
  20675638.158     -229545.7122       3262.415          44.000  
  23257794.778      -53954.3892        818.854          47.000  
  21651981.610     -210876.8212       5595.717          38.000  
 15  4  3 19 45 41.9990000  0  6G 3G23G 7G16G 8G 9
  20740038.204      -90838.8382       1323.742          45.000  
  20476605.372     -285983.6422       4371.148          48.000  
  22551393.892     -394802.3762       5601.620          38.000  
  20675017.175     -232805.8542       3257.214          44.000  
  23257639.523      -54771.6062        814.651          47.000  
  21650917.653     -216470.5682       5591.451          39.000  
 15  4  3 19 45 42.9990000  0  7G 3G23G32G 7G16G 8G 9
  20739787.043      -92160.830        1319.287          45.000  
  20475774.393     -290352.794        4366.675          48.000  
  23951848.762        -234.7582         29.036          32.000  
  22550327.597     -400402.251        5597.322          38.000  
  20674396.924     -236061.628        3252.643          44.000  
  23257484.147      -55584.626         810.664          47.000  
  21649853.818     -222060.534        5586.778          37.000  
 15  4  3 19 45 43.9990000  0  7G 3G23G32G 7G16G 8G 9
  20739537.156      -93476.426        1310.948          45.000  
  20474944.181     -294715.825        4358.752          48.000  
  23951843.911        -260.7862         21.389          32.000  
  22549261.528     -405996.114        5590.028          37.000  
  20673778.419     -239310.333        3244.226          44.000  
  23257330.934      -56391.756         802.938          47.000  
  21648791.065     -227644.068        5579.325          37.000  
 15  4  3 19 45 44.9990000  0  7G 3G23G32G 7G16G 8G 9
  20739288.962      -94783.257        1302.104          45.000  
  20474115.785     -299070.342        4350.213          48.000  
  23951839.863        -278.3832         12.835          32.000  
  22548196.716     -411581.417        5581.493          36.000  
  20673161.431     -242550.061        3235.229          44.000  
  23257179.012      -57190.605         794.575          47.000  
  21647730.493     -233219.151        5570.471          36.000  
 15  4  3 19 45 45.9990000  0  7G 3G23G32G 7G16G 8G 9
  20739042.094      -96082.149        1295.446          45.000  
  20473288.522     -303417.178        4343.585          48.000  
  23951837.699        -288.5452          7.567          33.000  
  22547135.219     -417159.076        5574.530          37.000  
  20672545.858     -245781.642        3227.990          44.000  
  23257027.771      -57982.004         788.380          47.000  
  21646671.003     -238786.717        5564.093          36.000  
 15  4  3 19 45 46.9990000  0  7G 3G23G32G 7G16G 8G 9
  20738796.203      -97374.446        1288.834          46.000  
  20472462.586     -307757.670        4337.030          48.000  
  23951836.809        -292.3982          0.058          32.000  
  22546074.089     -422730.420        5567.884          37.000  
  20671932.884     -249006.430        3220.898          44.000  
  23256878.188      -58767.286         781.910          47.000  
  21645612.490     -244348.099        5557.815          36.000  
 15  4  3 19 45 47.9990000  0  7G 3G23G32G 7G16G 8G 9
  20738551.952      -98659.368        1281.051          46.000  
  20471637.854     -312091.059        4329.419          48.000  
  23951837.437        -289.3522         -6.817          33.000  
  22545014.826     -428294.707        5560.416          36.000  
  20671320.957     -252223.667        3213.189          44.000  
  23256731.013      -59545.691         774.490          47.000  
  21644555.530     -249902.474        5550.315          35.000  
 15  4  3 19 45 48.9990000  0  7G 3G23G32G 7G16G 8G 9
  20738308.521      -99936.140        1272.711          46.000  
  20470815.564     -316416.549        4321.423          48.000  
  23951839.688        -278.5532        -15.378          33.000  
  22543957.203     -433851.123        5552.525          36.000  
  20670710.950     -255432.544        3204.565          44.000  
  23256584.012      -60316.436         766.874          47.000  
  21643500.822     -255449.110        5542.400          35.000  
 15  4  3 19 45 49.9990000  0  7G 3G23G32G 7G16G 8G 9
  20738067.359     -101206.353        1267.888          46.000  
  20469992.839     -320735.747        4317.169          48.000  
  23951842.533        -261.6602        -18.065          34.000  
  22542900.697     -439401.275        5548.305          36.000  
  20670100.873     -258634.674        3199.841          44.000  
  23256437.919      -61081.121         762.820          47.000  
  21642447.143     -260989.589        5538.753          35.000  
 15  4  3 19 45 50.9990000  0  7G 3G23G32G 7G16G 8G 9
  20737824.993     -102472.914        1264.990          46.000  
  20469171.510     -325051.519        4314.062          48.000  
  23951846.546        -241.4032        -21.985          33.000  
  22541845.011     -444948.019        5544.938          36.000  
  20669492.506     -261832.917        3196.100          44.000  
  23256293.309      -61842.605         759.953          47.000  
  21641393.795     -266526.748        5535.510          35.000  
 15  4  3 19 45 51.9990000  0  7G 3G23G32G 7G16G 8G 9
  20737584.529     -103735.313        1259.751          46.000  
  20468350.896     -329363.420        4309.229          48.000  
  23951851.066        -217.4702        -27.008          33.000  
  22540790.913     -450490.928        5540.426          37.000  
  20668885.517     -265026.839        3190.887          44.000  
  23256149.135      -62600.447         755.360          47.000  
  21640341.320     -272060.235        5531.546          35.000  
 15  4  3 19 45 52.9990000  0  7G 3G23G32G 7G16G 8G 9
  20737344.484     -104991.595        1253.071          45.000  
  20467531.852     -333669.469        4302.984          48.000  
  23951856.353        -187.8672        -32.403          33.000  
  22539738.019     -456028.034        5533.998          37.000  
  20668278.442     -268214.438        3184.356          44.000  
  23256006.044      -63352.661         749.451          47.000  
  21639289.945     -277587.944        5524.827          35.000  
 15  4  3 19 45 53.9990000  0  7G 3G23G32G 7G16G 8G 9
  20737106.376     -106242.306        1248.375          45.000  
  20466713.489     -337970.175        4298.504          48.000  
  23951862.705        -153.0512        -37.126          33.000  
  22538685.003     -461559.822        5529.884          37.000  
  20667673.303     -271396.260        3179.645          44.000  
  23255863.859      -64099.774         745.139          47.000  
  21638239.232     -283110.443        5520.089          34.000  
 15  4  3 19 45 54.9990000  0  7G 3G23G32G 7G16G 8G 9
  20736868.372     -107489.099        1244.510          45.000  
  20465895.388     -342267.225        4294.806          48.000  
  23951870.575        -114.7242        -40.141          33.000  
  22537633.733     -467087.937        5526.000          37.000  
  20667068.828     -274573.959        3175.354          44.000  
  23255722.320      -64843.454         741.667          47.000  
  21637189.724     -288629.461        5517.282          34.000  
 15  4  3 19 45 55.9990000  0  7G 3G23G32G 7G16G 8G 9
  20736631.782     -108731.065        1238.528          45.000  
  20465078.770     -346559.700        4289.038          49.000  
  23951878.131         -71.9972        -45.481          33.000  
  22536582.409     -472611.537        5520.058          37.000  
  20666465.504     -277746.634        3169.153          44.000  
  23255581.358      -65582.791         735.988          47.000  
  21636140.651     -294144.046        5511.273          33.000  
 15  4  3 19 45 56.9990000  0  7G 3G23G32G 7G16G 8G 9
  20736396.257     -109966.068        1230.690          45.000  
  20464263.130     -350845.489        4281.995          49.000  
  23951887.048         -22.6992        -52.300          32.000  
  22535533.669     -478128.487        5513.410          38.000  
  20665863.209     -280912.141        3161.285          44.000  
  23255441.930      -66315.678         729.072          47.000  
  21635092.783     -299651.999        5503.533          33.000  
 15  4  3 19 45 57.9990000  0  7G 3G23G32G 7G16G 8G 9
  20736162.354     -111194.414        1225.753          45.000  
  20463448.815     -355124.849        4276.898          48.000  
  23951885.600          32.8722        -57.968          31.000  
  22534484.963     -483638.996        5507.969          38.000  
  20665262.364     -284070.778        3155.829          44.000  
  23255303.585      -67042.375         724.500          47.000  
  21634047.568     -305153.757        5499.642          32.000  
 15  4  3 19 45 58.9990000  0  7G 3G23G32G 7G16G 8G 9
  20735929.097     -112417.843        1221.135          45.000  
  20462635.216     -359399.580        4272.803          48.000  
  23951903.312          92.9972        -63.883          30.000  
  22533437.025     -489144.933        5503.803          38.000  
  20664662.757     -287224.332        3151.178          44.000  
  23255166.199      -67764.648         720.276          47.000  
  21632999.717     -310650.977        5495.873          32.000  
 15  4  3 19 45 59.9990000  0  7G 3G23G32G 7G16G 8G 9
  20735697.689     -113636.053        1214.292          45.000  
  20461822.525     -363669.328        4266.009          48.000  
  23951909.349         157.8082        -68.724          30.000  
  22532391.984     -494645.929        5497.515          38.000  
  20664063.848     -290372.457        3144.281          44.000  
  23255030.175      -68482.194         713.899          47.000  
  21631955.496     -316143.289        5488.477          33.000  
 15  4  3 19 46  0.9990000  0  7G 3G23G32G 7G16G 8G 9
  20735467.364     -114846.792        1206.962          45.000  
  20461010.898     -367931.863        4258.899          48.000  
  23951924.810         229.748         -76.242          30.000  
  22531347.431     -500139.721        5490.582          38.000  
  20663466.248     -293512.895        3136.499          44.000  
  23254894.290      -69192.747         707.092          47.000  
  21630916.492     -321628.643        5481.572          32.000  
 15  4  3 19 46  1.9990000  0  7G 3G23G32G 7G16G 8G 9
  20735238.609     -116050.379        1201.173          45.000  
  20460201.749     -372187.480        4252.905          48.000  
  23951940.882         308.441         -81.720          30.000  
  22530303.594     -505626.629        5484.371          38.000  
  20662869.799     -296645.964        3130.267          44.000  
  23254760.464      -69896.617         701.317          47.000  
  21629874.488     -327107.170        5476.083          32.000  
 15  4  3 19 46  2.9990000  0  7G 3G23G32G 7G16G 8G 9
  20735010.500     -117248.917        1196.411          45.000  
  20459392.408     -376438.357        4249.194          48.000  
  23951954.807         391.754         -85.173          30.000  
  22529261.275     -511108.832        5480.161          38.000  
  20662275.235     -299773.839        3125.714          44.000  
  23254627.441      -70595.981         697.717          47.000  
  21628831.069     -332581.028        5471.847          32.000  
 15  4  3 19 46  3.9990000  0  7G 3G23G32G 7G16G 8G 9
  20734783.630     -118442.764        1191.110          45.000  
  20458584.253     -380684.746        4243.524          48.000  
  23951971.839         479.3261        -89.937          29.000  
  22528219.637     -516586.627        5475.162          39.000  
  20661681.073     -302896.779        3120.007          44.000  
  23254495.378      -71291.091         692.370          47.000  
  21627788.873     -338050.614        5467.930          32.000  
 15  4  3 19 46  4.9990000  0  7G 3G23G32G 7G16G 8G 9
  20734557.562     -119630.213        1184.066          45.000  
  20457777.477     -384925.023        4236.932          48.000  
  23951988.434         572.974         -96.852          30.000  
  22527178.609     -522058.301        5468.651          39.000  
  20661088.341     -306013.143        3112.744          44.000  
  23254364.100      -71980.326         686.097          47.000  
  21626748.211     -343514.133        5459.574          32.000  
 15  4  3 19 46  5.9990000  0  7G 3G23G32G 7G16G 8G 9
  20734333.693     -120811.021        1178.394          45.000  
  20456971.556     -389158.890        4231.354          48.000  
  23952001.295         672.7961       -101.680          28.000  
  22526139.396     -527523.566        5462.469          39.000  
  20660496.709     -309122.642        3106.909          44.000  
  23254233.956      -72663.373         680.726          47.000  
  21625710.744     -348971.507        5455.145          32.000  
 15  4  3 19 46  6.9990000  0  7G 3G23G32G 7G16G 8G 9
  20734109.563     -121987.337        1174.789          45.000  
  20456166.648     -393388.540        4228.394          48.000  
  23952025.411         776.7531       -105.367          28.000  
  22525101.440     -532984.662        5459.722          39.000  
  20659905.775     -312227.467        3103.253          44.000  
  23254104.581      -73342.432         677.733          47.000  
  21624674.044     -354424.706        5451.445          31.000  
 15  4  3 19 46  7.9990000  0  7G 3G23G32G 7G16G 8G 9
  20733886.235     -123160.462        1171.156          45.000  
  20455362.105     -397615.234        4224.683          48.000  
  23952046.648         883.4831       -109.176          28.000  
  22524062.890     -538442.831        5455.949          39.000  
  20659315.574     -315328.898        3099.249          45.000  
  23253975.606      -74018.776         674.398          47.000  
  21623638.199     -359875.077        5448.059          31.000  
 15  4  3 19 46  8.9990000  0  7G 3G23G32G 7G16G 8G 9
  20733663.587     -124328.912        1165.606          45.000  
  20454558.732     -401837.517        4219.409          48.000  
  23952061.131         994.3791       -113.627          27.000  
  22523025.806     -543896.648        5451.172          39.000  
  20658726.350     -318425.449        3093.616          44.000  
  23253847.731      -74690.943         669.438          47.000  
  21622601.656     -365321.197        5443.062          31.000  
 15  4  3 19 46  9.9990000  0  7G 3G23G32G 7G16G 8G 9
  20733442.197     -125492.140        1160.721          45.000  
  20453755.900     -406054.845        4214.929          48.000  
  23952078.442        1110.0741       -118.078          27.000  
  22521988.461     -549345.513        5446.688          39.000  
  20658137.649     -321516.596        3088.678          44.000  
  23253721.321      -75358.384         665.069          47.000  
  21621565.217     -370762.528        5438.679          30.000  
 15  4  3 19 46 10.9990000  0  7G 3G23G32G 7G16G 8G 9
  20733221.748     -126652.082        1159.036          45.000  
  20452953.853     -410269.124        4213.318          48.000  
  23952099.731        1228.7121       -119.086          26.000  
  22520952.947     -554791.356        5444.959          39.000  
  20657550.589     -324604.219        3086.377          44.000  
  23253594.336      -76023.007         663.760          47.000  
  21620529.774     -376200.958        5437.875          30.000  
 15  4  3 19 46 11.9990000  0  7G 3G23G32G 7G16G 8G 9
  20733002.102     -127810.061        1156.990          45.000  
  20452152.382     -414481.732        4211.957          48.000  
  23952119.625        1348.8741       -120.510          26.000  
  22519916.509     -560235.567        5443.665          39.000  
  20656962.848     -327689.739        3084.674          44.000  
  23253468.049      -76686.193         662.572          47.000  
  21619494.051     -381637.828        5435.995          30.000  
 15  4  3 19 46 12.9990000  0  7G 3G23G32G 7G16G 8G 9
  20732782.875     -128965.595        1153.468          45.000  
  20451350.963     -418692.106        4208.496          48.000  
  23952144.055        1471.1921       -124.160          25.000  
  22518881.205     -565677.562        5440.365          39.000  
  20656375.997     -330772.560        3080.457          44.000  
  23253342.390      -77347.379         659.383          47.000  
  21618461.836     -387072.576        5433.106          30.000  
 15  4  3 19 46 13.9990000  0  7G 3G23G32G 7G16G 8G 9
  20732564.241     -130116.809        1148.922          46.000  
  20450550.836     -422898.424        4204.163          48.000  
  23952168.241        1597.2851       -127.948          25.000  
  22517845.447     -571115.576        5436.194          39.000  
  20655790.717     -333850.879        3076.037          44.000  
  23253217.673      -78004.756         655.594          47.000  
  21617428.940     -392503.414        5428.743          30.000  
 15  4  3 19 46 14.9990000  0  7G 3G23G32G 7G16G 8G 9
  20732345.904     -131264.266        1146.363          46.000  
  20449750.656     -427101.240        4201.617          48.000  
  23952190.280        1726.8191       -130.718          25.000  
  22516811.208     -576550.071        5433.266          39.000  
  20655204.878     -336925.233        3072.955          44.000  
  23253093.306      -78658.836         652.992          46.000  
  21616393.043     -397930.820        5424.869          30.000  
 15  4  3 19 46 15.9990000  0  7G 3G23G32G 7G16G 8G 9
  20732128.125     -132409.029        1143.205          46.000  
  20448950.913     -431301.628        4199.030          48.000  
  23952216.020        1858.5531       -132.833          25.000  
  22515778.085     -581982.180        5430.349          39.000  
  20654619.947     -339996.712        3069.824          44.000  
  23252968.711      -79310.735         650.529          46.000  
  21615360.845     -403356.082        5424.011          31.000  
 15  4  3 19 46 16.9990000  0  7G 3G23G32G 7G16G 8G 9
  20731910.905     -133549.123        1136.639          46.000  
  20448153.019     -435497.583        4192.669          48.000  
  23952243.608        1994.5853       -138.978          25.000  
  22514745.242     -587409.903        5424.530          39.000  
  20654036.551     -343063.300        3063.092          44.000  
  23252845.320      -79958.442         644.416          46.000  
  21614333.376     -408777.009        5417.857          31.000  
 15  4  3 19 46 17.9990000  0  7G 3G23G32G 7G16G 8G 9
  20731694.767     -134682.622        1130.301          45.000  
  20447355.928     -439687.218        4186.762          48.000  
  23952271.407        2136.8913       -145.749          25.000  
  22513713.114     -592831.344        5418.577          39.000  
  20653454.203     -346123.109        3056.659          44.000  
  23252723.884      -80600.050         638.779          47.000  
  21613299.904     -414191.698        5411.731          31.000  
 15  4  3 19 46 18.9990000  0  7G 3G23G32G 7G16G 8G 9
  20731479.536     -135809.770        1125.456          45.000  
  20446559.430     -443870.735        4181.714          48.000  
  23952297.721        2284.9003       -148.815          25.000  
  22512682.102     -598246.675        5413.748          38.000  
  20652873.163     -349176.356        3051.086          44.000  
  23252602.972      -81235.787         634.105          47.000  
  21612274.390     -419600.407        5406.831          32.000  
 15  4  3 19 46 19.9990000  0  7G 3G23G32G 7G16G 8G 9
  20731265.509     -136932.695        1120.981          45.000  
  20445764.067     -448050.312        4177.740          48.000  
  23952328.573        2436.9163       -153.711          25.000  
  22511652.138     -603658.084        5409.258          38.000  
  20652293.240     -352225.204        3046.796          44.000  
  23252482.879      -81867.810         630.300          47.000  
  21611242.681     -425005.267        5402.055          31.000  
 15  4  3 19 46 20.9990000  0  7G 3G23G32G 7G16G 8G 9
  20731052.703     -138051.364        1115.836          45.000  
  20444969.454     -452225.871        4172.906          48.000  
  23952361.519        2592.8173       -158.920          26.000  
  22510622.767     -609065.520        5404.758          38.000  
  20651714.486     -355269.583        3041.766          44.000  
  23252363.345      -82496.042         625.759          47.000  
  21610212.664     -430406.414        5398.361          30.000  
 15  4  3 19 46 21.9990000  0  7G 3G23G32G 7G16G 8G 9
  20730841.364     -139163.924        1109.278          46.000  
  20444175.591     -456395.572        4166.626          48.000  
  23952393.192        2754.3063       -164.290          26.000  
  22509594.653     -614467.127        5398.264          38.000  
  20651137.023     -358307.650        3034.753          44.000  
  23252244.701      -83118.649         619.462          46.000  
  21609189.314     -435801.682        5391.769          31.000  
 15  4  3 19 46 22.9990000  0  7G 3G23G32G 7G16G 8G 9
  20730631.193     -140270.315        1103.507          45.000  
  20443382.897     -460559.360        4160.999          48.000  
  23952425.317        2921.5533       -169.952          26.000  
  22508566.451     -619862.847        5392.674          37.000  
  20650560.991     -361339.341        3028.693          44.000  
  23252127.453      -83735.583         614.272          46.000  
  21608160.135     -441191.189        5386.556          32.000  
 15  4  3 19 46 23.9990000  0  8G 3G23G32G 7G10G16G 8G 9
  20730420.534     -141372.477        1099.954          45.000  
  20442591.687     -464719.166        4157.898          48.000  
  23952460.637        3092.6783       -173.091          26.000  
  22507538.616     -625254.659        5389.806          36.000  
  23604283.457      -27653.6752       6286.023          33.000  
  20649985.309     -364366.606        3025.171          44.000  
  23252010.869      -84348.772         611.291          46.000  
  21607142.909     -446576.904        5383.553          33.000  
 15  4  3 19 46 24.9990000  0  8G 3G23G32G 7G10G16G 8G 9
  20730212.161     -142471.850        1097.809          46.000  
  20441800.564     -468876.437        4155.823          48.000  
  23952493.548        3266.0661       -174.256          26.000  
  22506512.264     -630643.889        5387.615          36.000  
  23603086.320      -33939.5432       6285.131          33.000  
  20649410.289     -367390.882        3022.613          44.000  
  23251895.086      -84959.659         609.547          46.000  
  21606117.883     -451960.175        5381.700          34.000  
 15  4  3 19 46 25.9990000  0  8G 3G23G32G 7G10G16G 8G 9
  20730003.526     -143567.163        1093.105          45.000  
  20441010.139     -473029.885        4151.336          48.000  
  23952531.136        3443.2521       -179.499          26.000  
  22505487.098     -636029.382        5383.154          36.000  
  23601890.264      -40221.4362       6279.883          33.000  
  20648835.496     -370410.873        3017.578          44.000  
  23251779.147      -85566.968         605.381          46.000  
  21605094.603     -457339.779        5377.445          33.000  
 15  4  3 19 46 26.9990000  0  8G 3G23G32G 7G10G16G 8G 9
  20729795.869     -144657.341        1087.309          45.000  
  20440220.761     -477178.457        4145.740          48.000  
  23952567.764        3625.1161       -184.395          26.000  
  22504462.457     -641410.005        5377.695          36.000  
  23600695.064      -46498.4362       6274.420          33.000  
  20648261.611     -373425.559        3011.621          44.000  
  23251664.761      -86169.636         600.159          46.000  
  21604072.386     -462714.645        5372.486          34.000  
 15  4  3 19 46 27.9990000  0  8G 3G23G32G 7G10G16G 8G 9
  20729589.084     -145744.013        1085.627          45.000  
  20439432.255     -481323.779        4144.110          48.000  
  23952603.205        3810.1711       -185.863          27.000  
  22503438.757     -646787.399        5376.013          36.000  
  23599500.963      -52772.0852       6272.461          32.000  
  20647688.511     -376436.511        3009.570          44.000  
  23251550.357      -86769.248         598.377          46.000  
  21603052.124     -468086.334        5370.320          35.000  
 15  4  3 19 46 28.9990000  0  8G 3G23G32G 7G10G16G 8G 9
  20729382.107     -146828.173        1082.724          45.000  
  20438643.837     -485466.862        4141.821          48.000  
  23952638.001        3997.2471       -188.484          28.000  
  22502414.255     -652162.610        5373.869          35.000  
  23598308.154      -59043.4022       6269.849          32.000  
  20647115.917     -379444.781        3006.848          44.000  
  23251436.809      -87366.886         596.443          46.000  
  21602029.995     -473455.958        5368.337          34.000  
 15  4  3 19 46 29.9990000  0  8G 3G23G32G 7G10G16G 8G 9
  20729176.421     -147908.633        1077.884          45.000  
  20437855.872     -489606.466        4136.932          48.000  
  23952673.494        4187.5581       -192.635          28.000  
  22501390.765     -657534.355        5368.777          35.000  
  23597115.763      -65311.2852       6265.008          32.000  
  20646544.667     -382449.129        3001.550          44.000  
  23251323.906      -87961.284         591.981          46.000  
  21601008.494     -478822.257        5363.911          34.000  
 15  4  3 19 46 30.9990000  0  8G 3G23G32G 7G10G16G 8G 9
  20728971.817     -148983.448        1071.866          45.000  
  20437068.955     -493740.695        4131.665          48.000  
  23952712.269        4383.1721       -198.298          28.000  
  22500368.932     -662900.786        5363.663          35.000  
  23595925.152      -71573.6722       6259.546          33.000  
  20645973.504     -385447.631        2995.587          44.000  
  23251211.683      -88550.529         586.809          46.000  
  21599987.395     -484183.295        5358.063          34.000  
 15  4  3 19 46 31.9990000  0  8G 3G23G32G 7G10G16G 8G 9
  20728767.702     -150053.828        1068.992          45.000  
  20436283.084     -497870.724        4128.589          48.000  
  23952752.125        4582.8681       -201.361          28.000  
  22499348.199     -668263.031        5360.291          35.000  
  23594735.570      -77831.7892       6256.927          33.000  
  20645403.824     -388441.487        2992.145          44.000  
  23251100.019      -89135.831         584.202          46.000  
  21598966.994     -489540.281        5355.993          34.000  
 15  4  3 19 46 32.9990000  0  8G 3G23G32G 7G10G16G 8G 9
  20728564.581     -151121.404        1065.988          45.000  
  20435497.999     -501998.217        4126.081          48.000  
  23952789.189        4784.8821       -203.446          28.000  
  22498328.147     -673622.835        5359.201          35.000  
  23593550.910      -84087.2852       6253.723          31.000  
  20644833.952     -391432.354        2989.276          44.000  
  23250989.612      -89718.810         581.805          46.000  
  21597947.098     -494894.847        5352.974          35.000  
 15  4  3 19 46 33.9990000  0  7G 3G23G32G 7G16G 8G 9
  20728362.281     -152185.829        1062.440          45.000  
  20434713.647     -506122.806        4122.693          48.000  
  23952829.656        4989.6861       -206.960          29.000  
  22497308.478     -678979.679        5354.860          35.000  
  20644264.831     -394419.853        2985.235          43.000  
  23250879.658      -90299.110         578.524          46.000  
  21596928.808     -500246.686        5350.699          34.000  
 15  4  3 19 46 34.9990000  0  7G 3G23G32G 7G16G 8G 9
  20728161.098     -153245.750        1057.291          46.000  
  20433928.509     -510243.152        4117.944          48.000  
  23952873.387        5198.537        -211.770          30.000  
  22496290.310     -684332.353        5350.336          35.000  
  20643697.123     -397402.669        2980.542          43.000  
  23250769.704      -90875.416         573.987          46.000  
  21595911.443     -505594.328        5344.886          34.000  
 15  4  3 19 46 35.9990000  0  7G 3G23G32G 7G16G 8G 9
  20727960.699     -154301.930        1055.352          46.000  
  20433145.779     -514360.000        4116.217          48.000  
  23952909.788        5410.727        -213.396          30.000  
  22495272.090     -689681.585        5348.879          35.000  
  20643130.305     -400381.514        2978.143          43.000  
  23250660.623      -91448.452         572.363          46.000  
  21594894.357     -510938.755        5344.231          33.000  
 15  4  3 19 46 36.9990000  0  8G 3G23G32G 7G10G16G 8G 9
  20727760.231     -155356.208        1053.501          46.000  
  20432362.526     -518475.180        4114.429          48.000  
  23952951.616        5624.405        -214.556          30.000  
  22494255.109     -695029.147        5347.151          35.000  
  23588791.869     -109075.7132       6242.444          33.000  
  20642562.632     -403358.254        2975.873          43.000  
  23250551.664      -92020.081         571.046          46.000  
  21593877.795     -516281.555        5341.835          33.000  
 15  4  3 19 46 37.9990000  0  8G 3G23G32G 7G10G16G 8G 9
  20727560.618     -156402.0233       1042.687          46.000  
  20431580.949     -522582.1803       4104.150          48.000  
  23952991.717        5840.1963       -213.630          29.000  
  22493239.506     -700368.5413       5336.188          35.000  
  23587603.701     -115309.9983       6232.636          32.000  
  20641997.053     -406325.8343       2964.044          43.000  
  23250444.520      -92583.7303        560.071          46.000  
  21592864.600     -521616.1963       5328.156          32.000  
 15  4  3 19 46 38.9990000  0  8G 3G23G32G 7G10G16G 8G 9
  20727363.832     -157439.8062       1033.024          46.000  
  20430801.325     -526681.3772       4094.824          48.000  
  23953037.419        6068.5903       -235.111          30.000  
  22492225.387     -705700.2072       5327.577          36.000  
  23586413.754     -121536.7952       6222.442          32.000  
  20641433.655     -409285.7182       2955.182          43.000  
  23250339.015      -93139.8532        551.778          46.000  
  21591848.352     -526943.4502       5322.974          32.000  
 15  4  3 19 46 39.9990000  0  8G 3G23G32G 7G10G16G 8G 9
  20727167.273     -158468.7233       1024.539          45.000  
  20430022.278     -530771.9563       4086.212          48.000  
  23953090.398        6306.3903       -243.524          31.000  
  22491213.239     -711022.7483       5318.534          37.000  
  23585232.077     -127755.4543       6213.935          33.000  
  20640871.706     -412236.4873       2946.021          43.000  
  23250234.506      -93687.5713        543.641          46.000  
  21590836.274     -532262.6903       5317.475          33.000  
 15  4  3 19 46 40.9990000  0  8G 3G23G32G 7G10G16G 8G 9
  20726972.267     -159492.6453       1007.944          45.000  
  20429244.801     -534857.7933       4072.628          48.000  
  23953134.425        6548.6953       -250.823          32.000  
  22490202.034     -716341.1443       5306.519          37.000  
  23584042.339     -133968.8043       6198.999          34.000  
  20640309.931     -415182.0973       2932.578          42.000  
  23250131.114      -94230.7923        530.437          47.000  
  21589824.824     -537576.6403       5305.625          34.000  
 15  4  3 19 46 41.9990000  0  8G 3G23G32G 7G10G16G 8G 9
  20726777.836     -160512.4883       1018.008          45.000  
  20428469.051     -538939.8043       4079.956          49.000  
  23953181.400        6794.3313       -246.801          31.000  
  22489193.062     -721655.7033       5312.750          39.000  
  23582865.060     -140177.7023       6207.489          34.000  
  20639750.372     -418123.8833       2939.404          43.000  
  23250027.494      -94770.8973        537.825          46.000  
  21588809.012     -542887.5233       5309.333          28.000  
 15  4  3 19 46 42.9990000  0  8G 3G23G32G 7G10G16G 8G 9
  20726585.221     -161527.4412       1012.645          46.000  
  20427693.075     -543017.1922       4074.872          48.000  
  23953226.038        7044.9362       -252.877          31.000  
  22488184.283     -726965.6872       5308.360          38.000  
  23581684.605     -146382.5112       6202.813          35.000  
  20639191.895     -421060.1112       2933.490          43.000  
  23249925.690      -95306.1222        532.807          46.000  
  21587803.356     -548193.3742       5303.876          31.000  
 15  4  3 19 46 43.9990000  0  8G 3G23G32G 7G10G16G 8G 9
  20726393.565     -162537.1212       1008.221          46.000  
  20426918.076     -547089.5542       4071.075          48.000  
  23953276.155        7300.4162       -256.796          31.000  
  22487175.957     -732270.6252       5304.040          39.000  
  23580500.974     -152582.1572       6198.578          36.000  
  20638634.343     -423990.8682       2929.456          43.000  
  23249824.583      -95836.5842        529.464          46.000  
  21586793.757     -553494.3062       5300.053          32.000  
 15  4  3 19 46 44.9990000  0  8G 3G23G32G 7G10G16G 8G 9
  20726202.066     -163543.0182       1004.422          46.000  
  20426143.531     -551158.3622       4067.376          48.000  
  23953324.859        7559.2052       -259.931          31.000  
  22486167.317     -737572.0702       5299.953          38.000  
  23579320.292     -158778.1952       6194.647          36.000  
  20638077.175     -426917.6152       2925.146          43.000  
  23249724.419      -96363.7142        525.846          46.000  
  21585786.495     -558791.8542       5296.601          33.000  
 15  4  3 19 46 45.9990000  0  8G 3G23G32G 7G10G16G 8G 9
  20726012.347     -164545.4182       1000.055          47.000  
  20425370.591     -555223.9322       4063.330          48.000  
  23953374.452        7821.1282       -264.496          30.000  
  22485159.514     -742870.3372       5296.186          38.000  
  23578141.966     -164970.9502       6190.906          36.000  
  20637520.845     -429840.6702       2920.794          43.000  
  23249624.761      -96887.8302        521.971          46.000  
  21584782.043     -564086.2662       5292.460          33.000  
 15  4  3 19 46 46.9990000  0  8G 3G23G32G 7G10G16G 8G 9
  20725822.873     -165542.6042        993.605          46.000  
  20424597.755     -559284.5412       4057.257          48.000  
  23953425.442        8087.7712       -270.017          30.000  
  22484152.707     -748163.6602       5289.957          38.000  
  23576964.042     -171158.7072       6184.394          36.000  
  20636965.352     -432758.3092       2914.044          42.000  
  23249525.940      -97407.2222        516.039          46.000  
  21583771.187     -569375.8612       5285.682          34.000  
 15  4  3 19 46 47.9990000  0  8G 3G23G32G 7G10G16G 8G 9
  20725634.236     -166533.7702        987.932          46.000  
  20423826.054     -563339.3702       4051.812          48.000  
  23953483.394        8360.0532       -274.960          31.000  
  22483146.719     -753451.2332       5284.999          39.000  
  23575787.234     -177340.5582       6178.649          36.000  
  20636411.657     -435669.7182       2908.173          42.000  
  23249427.870      -97921.0692        511.201          46.000  
  21582765.391     -574659.8152       5280.272          34.000  
 15  4  3 19 46 48.9990000  0  8G 3G23G32G 7G10G16G 8G 9
  20725446.175     -167521.009         984.652          46.000  
  20423055.331     -567390.527        4048.718          48.000  
  23953538.100        8636.483        -279.177          31.000  
  22482140.906     -758734.656        5280.779          37.000  
  23574611.753     -183518.209        6176.117          35.000  
  20635858.886     -438576.987        2904.815          42.000  
  23249331.161      -98430.997         508.321          46.000  
  21581761.707     -579940.236        5278.194          33.000  
 15  4  3 19 46 49.9990000  0  8G 3G23G32G 7G10G16G 8G 9
  20725259.144     -168504.400         982.067          46.000  
  20422284.851     -571438.075        4046.326          48.000  
  23953586.141        8915.771        -280.546          31.000  
  22481136.506     -764015.003        5278.471          38.000  
  23573436.166     -189692.653        6172.833          36.000  
  20635307.163     -441480.212        2901.684          42.000  
  23249235.481      -98938.033         505.811          46.000  
  21580759.314     -585217.285        5276.087          34.000  
 15  4  3 19 46 50.9990000  0  8G 3G23G32G 7G10G16G 8G 9
  20725071.885     -169484.255         977.406          46.000  
  20421515.541     -575482.384        4041.901          48.000  
  23953640.847        9198.109        -284.595          32.000  
  22480133.782     -769292.136        5274.818          40.000  
  23572261.330     -195863.850        6168.707          35.000  
  20634755.753     -444379.720        2897.119          43.000  
  23249140.011      -99442.072         501.867          46.000  
  21579755.124     -590491.086        5271.284          34.000  
 15  4  3 19 46 51.9990000  0  8G 3G23G32G 7G10G16G 8G 9
  20724886.006     -170459.865         973.813          46.000  
  20420746.353     -579522.659        4038.776          48.000  
  23953696.130        9484.352        -287.816          32.000  
  22479131.424     -774565.315        5271.900          40.000  
  23571087.873     -202030.898        6165.125          35.000  
  20634204.955     -447274.766        2893.170          43.000  
  23249045.204      -99942.312         498.741          47.000  
  21578750.689     -595761.086        5268.631          34.000  
 15  4  3 19 46 52.9990000  0  8G 3G23G32G 7G10G16G 8G 9
  20724701.854     -171432.397         971.803          46.000  
  20419978.055     -583560.114        4037.000          48.000  
  23953752.930        9773.269        -289.937          32.000  
  22478129.694     -779835.657        5269.925          40.000  
  23569915.358     -208195.060        6164.154          34.000  
  20633654.592     -450166.509        2890.948          43.000  
  23248950.083     -100439.985         497.418          46.000  
  21577748.454     -601028.240        5266.912          34.000  
 15  4  3 19 46 53.9990000  0  8G 3G23G32G 7G10G16G 8G 9
  20724517.509     -172404.003         971.330          47.000  
  20419209.599     -587596.884        4036.731          48.000  
  23953807.706       10062.700        -289.851          32.000  
  22477128.034     -785105.330        5269.613          40.000  
  23568742.948     -214358.545        6163.739          34.000  
  20633104.596     -453057.135        2890.179          43.000  
  23248854.665     -100937.187         497.228          46.000  
  21576745.747     -606295.013        5266.985          36.000  
 15  4  3 19 46 54.9990000  0  8G 3G23G32G 7G10G16G 8G 9
  20724332.921     -173373.138         967.345          47.000  
  20418442.278     -591631.432        4032.574          48.000  
  23953865.257       10354.212        -293.538          32.000  
  22476126.095     -790372.879        5265.845          40.000  
  23567571.602     -220519.684        6159.644          34.000  
  20632554.810     -455945.093        2885.938          43.000  
  23248759.963     -101432.410         493.639          46.000  
  21575742.394     -611559.611        5261.657          35.000  
 15  4  3 19 46 55.9990000  0  8G 3G23G32G 7G10G16G 8G 9
  20724149.799     -174338.245         963.140          47.000  
  20417675.114     -595662.205        4028.845          48.000  
  23953921.360       10649.287        -297.406          32.000  
  22475125.046     -795636.618        5261.634          40.000  
  23566401.181     -226676.973        6155.230          34.000  
  20632006.384     -458828.819        2881.366          43.000  
  23248666.377     -101924.063         489.748          46.000  
  21574739.530     -616820.651        5258.746          36.000  
 15  4  3 19 46 56.9990000  0  8G 3G23G32G 7G10G16G 8G 9
  20723967.671     -175298.771         958.464          48.000  
  20416908.404     -599688.661        4024.719          48.000  
  23953978.666       10948.542        -300.934          31.000  
  22474124.538     -800896.154        5257.593          40.000  
  23565230.899     -232829.944        6151.142          35.000  
  20631458.465     -461707.760        2876.868          43.000  
  23248573.333     -102411.690         485.929          46.000  
  21573737.992     -622077.467        5255.203          36.000  
 15  4  3 19 46 57.9990000  0  8G 3G23G32G 7G10G16G 8G 9
  20723785.525     -176254.808         954.934          47.000  
  20416143.369     -603710.852        4021.490          48.000  
  23954034.088       11251.910        -303.872          31.000  
  22473124.658     -806151.387        5254.136          40.000  
  23564060.374     -238978.501        6147.815          35.000  
  20630911.750     -464582.028        2873.145          42.000  
  23248481.562     -102895.294         482.944          46.000  
  21572737.798     -627330.184        5252.184          37.000  
 15  4  3 19 46 58.9990000  0  8G 3G23G32G 7G10G16G 8G 9
  20723605.544     -177202.331         940.900          47.000  
  20415379.346     -607724.782        4007.422          48.000  
  23954096.717       11563.372        -317.828          32.000  
  22472126.383     -811398.443        5240.911          40.000  
  23562890.668     -245118.760        6132.977          35.000  
  20630367.006     -467447.538        2858.813          43.000  
  23248390.751     -103370.836         469.313          46.000  
  21571739.489     -632574.674        5237.734          36.000  
 15  4  3 19 46 59.9990000  0  8G 3G23G32G 7G10G16G 8G 9
  20723427.133     -178137.648         929.273          47.000  
  20414617.923     -611726.740        3995.831          48.000  
  23954159.433       11886.698        -329.504          31.000  
  22471129.976     -816633.532        5229.373          40.000  
  23561723.981     -251246.985        6121.734          36.000  
  20629824.357     -470300.656        2846.454          43.000  
  23248302.715     -103834.653         457.962          46.000  
  21570743.814     -637807.442        5227.062          36.000  
 15  4  3 19 47  0.9990000  0  8G 3G23G32G 7G10G16G 8G 9
  20723250.118     -179061.136         917.271          47.000  
  20413858.298     -615717.154        3984.509          47.000  
  23954216.303       12221.3141       -339.729          30.000  
  22470135.697     -821857.121        5217.869          39.000  
  23560559.337     -257363.599        6110.767          36.000  
  20629283.225     -473141.776        2834.973          43.000  
  23248216.668     -104287.175         446.820          46.000  
  21569750.617     -643028.708        5215.862          35.000  
 15  4  3 19 47  1.9990000  0  8G 3G23G32G 7G10G16G 8G 9
  20723074.725     -179974.868         909.156          46.000  
  20413100.627     -619698.031        3976.654          47.000  
  23954284.062       12565.387        -349.373          30.000  
  22469141.994     -827071.164        5209.346          39.000  
  23559397.030     -263470.609        6102.515          36.000  
  20628745.008     -475972.921        2826.746          43.000  
  23248132.261     -104730.379         438.776          47.000  
  21568758.782     -648240.641        5207.123          34.000  
 15  4  3 19 47  2.9990000  0  8G 3G23G32G 7G10G16G 8G 9
  20722902.562     -180876.3493        887.925          46.000  
  20412345.975     -623666.9693       3954.664          47.000  
  23954352.258       12915.2493       -351.940          29.000  
  22468151.241     -832272.8543       5178.084          39.000  
  23558236.224     -269565.6243       6072.961          35.000  
  20628208.589     -478791.7943       2805.206          43.000  
  23248050.280     -105162.7063        417.853          46.000  
  21567768.988     -653442.4383       5184.053          35.000  
 15  4  3 19 47  3.9990000  0  8G 3G23G32G 7G10G16G 8G 9
  20722733.190     -181767.5233        896.275          46.000  
  20411591.968     -627625.2233       3963.678          47.000  
  23954425.723       13286.3333       -356.500          28.000  
  22467162.005     -837464.8523       5196.998          38.000  
  23557077.704     -275649.8723       6089.349          35.000  
  20627674.612     -481599.7673       2812.811          43.000  
  23247970.515     -105584.4663        426.768          46.000  
  21566782.021     -658633.3153       5195.380          35.000  
 15  4  3 19 47  4.9990000  0  8G 3G23G32G 7G10G16G 8G 9
  20722562.073     -182663.5033        891.654          46.000  
  20410837.840     -631589.1182       3959.521          47.000  
  23954486.659       13646.5813       -365.122          28.000  
  22466172.229     -842662.0542       5192.714          39.000  
  23555918.259     -281739.7202       6085.315          35.000  
  20627139.361     -484412.5792       2808.417          43.000  
  23247889.092     -106011.4112        422.634          47.000  
  21565794.252     -663828.6742       5191.034          35.000  
 15  4  3 19 47  5.9990000  0  8G 3G23G32G 7G10G16G 8G 9
  20722392.300     -183555.1122        891.160          46.000  
  20410083.973     -635548.8692       3959.570          47.000  
  23954554.890       14011.2043       -365.343          28.000  
  22465183.988     -847855.1602       5192.875          39.000  
  23554759.966     -287825.3482       6085.284          34.000  
  20626604.687     -487220.7672       2807.648          43.000  
  23247808.856     -106434.4642        422.993          47.000  
  21564806.151     -669020.0112       5191.422          34.000  
 15  4  3 19 47  6.9990000  0  8G 3G23G32G 7G10G16G 8G 9
  20722222.335     -184445.7792        890.326          46.000  
  20409330.874     -639507.9212       3958.838          47.000  
  23954626.296       14376.2503       -365.131          28.000  
  22464196.568     -853047.5752       5191.997          39.000  
  23553601.603     -293910.1712       6084.998          34.000  
  20626071.216     -490027.8232       2806.836          43.000  
  23247729.056     -106857.0412        422.633          47.000  
  21563817.247     -674210.8022       5190.433          33.000  
 15  4  3 19 47  7.9990000  0  8G 3G23G32G 7G10G16G 8G 9
  20722053.818     -185335.6362        889.115          46.000  
  20408577.827     -643466.4192       3957.788          48.000  
  23954700.669       14741.6823       -365.454          28.000  
  22463208.798     -858239.5022       5191.458          39.000  
  23552441.687     -299994.4252       6083.454          32.000  
  20625536.733     -492833.8402       2804.956          43.000  
  23247649.012     -107279.3012        421.755          47.000  
  21562829.093     -679401.2112       5189.953          32.000  
 15  4  3 19 47  8.9990000  0  7G 3G23G32G 7G16G 8G 9
  20721885.772     -186218.3732        865.504          46.000  
  20407825.671     -647418.0372       3934.179          48.000  
  23954769.597       15110.3283       -365.235          28.000  
  22462221.587     -863424.5162       5167.567          39.000  
  20625004.572     -495632.5722       2781.287          43.000  
  23247569.352     -107694.9192        398.413          47.000  
  21561840.032     -684585.4083       5172.714          31.000  
 15  4  3 19 47  9.9990000  0  7G 3G23G32G 7G16G 8G 9
  20721722.543     -187078.9253        869.871          46.000  
  20407077.615     -651347.7203       3938.971          47.000  
  23954841.579       15500.9103       -385.645          28.000  
  22461238.861     -868587.6772       5172.735          39.000  
  20624476.057     -498408.8913       2785.205          43.000  
  23247494.525     -108088.8533        403.562          47.000  
  21560846.243     -689746.7613       5170.196          32.000  
 15  4  3 19 47 10.9990000  0  7G 3G23G32G 7G16G 8G 9
  20721556.330     -187952.4562        869.518          46.000  
  20406327.360     -655290.6402       3938.714          47.000  
  23954915.673       15883.2733       -381.062          28.000  
  22460253.412     -873764.0752       5172.377          39.000  
  20623944.750     -501197.9872       2784.583          42.000  
  23247417.116     -108496.2382        403.402          47.000  
  21559866.430     -694921.7673       5170.967          32.000  
 15  4  3 19 47 11.9990000  0  7G 3G23G32G 7G16G 8G 9
  20721389.837     -188827.7202        879.620          46.000  
  20405576.320     -659235.5412       3949.157          47.000  
  23954988.597       16261.8973       -375.663          29.000  
  22459268.312     -878942.4802       5182.678          39.000  
  20623412.937     -503988.6462       2794.854          42.000  
  23247339.131     -108905.8502        414.082          47.000  
  21558880.092     -700099.1292       5182.491          31.000  
 15  4  3 19 47 12.9990000  0  7G 3G23G32G 7G16G 8G 9
  20721222.682     -189705.0072        878.713          46.000  
  20404824.826     -663182.7092       3948.517          47.000  
  23955062.831       16637.8402       -374.338          30.000  
  22458281.380     -884123.212        5182.293          38.000  
  20622881.037     -506781.1062       2793.677          42.000  
  23247260.291     -109317.9612        413.521          47.000  
  21557899.145     -705278.7932       5180.994          32.000  
 15  4  3 19 47 13.9990000  0  7G 3G23G32G 7G16G 8G 9
  20721056.102     -190581.6152        879.235          46.000  
  20404072.949     -667129.4552       3949.451          47.000  
  23955135.720       17014.0652       -373.700          30.000  
  22457295.338     -889303.537        5182.514          38.000  
  20622349.853     -509572.6702       2794.055          42.000  
  23247181.276     -109729.8932        414.665          47.000  
  21556912.981     -710458.2212       5182.796          33.000  
 15  4  3 19 47 14.9990000  0  7G 3G23G32G 7G16G 8G 9
  20720889.190     -191460.7602        880.408          46.000  
  20403321.909     -671078.9732       3951.013          47.000  
  23955206.132       17387.3523       -370.635          29.000  
  22456309.418     -894486.682        5184.383          39.000  
  20621817.970     -512366.5662       2795.300          42.000  
  23247102.576     -110144.8552        416.519          47.000  
  21555921.494     -715640.4952       5183.765          34.000  
 15  4  3 19 47 15.9990000  0  7G 3G23G32G 7G16G 8G 9
  20720721.302     -192342.9432        882.521          46.000  
  20402569.770     -675031.7922       3953.485          47.000  
  23955272.896       17757.1743       -367.761          29.000  
  22455323.394     -899673.179        5187.210          39.000  
  20621285.948     -515163.3322       2797.198          42.000  
  23247023.108     -110563.3422        419.173          47.000  
  21554937.477     -720826.2322       5185.940          34.000  
 15  4  3 19 47 16.9990000  0  7G 3G23G32G 7G16G 8G 9
  20720552.803     -193225.7542        881.612          46.000  
  20401817.421     -678985.4572       3952.533          47.000  
  23955343.291       18126.0353       -367.661          28.000  
  22454336.497     -904860.540        5186.133          39.000  
  20620753.507     -517960.4802       2795.935          42.000  
  23246943.430     -110982.9282        418.662          47.000  
  21553952.325     -726013.0002       5185.714          35.000  
 15  4  3 19 47 17.9990000  0  7G 3G23G32G 7G16G 8G 9
  20720384.966     -194107.4122        881.330          46.000  
  20401065.334     -682938.2372       3953.046          47.000  
  23955419.321       18495.6273       -367.666          28.000  
  22453349.600     -910047.037        5186.523          39.000  
  20620220.978     -520756.3082       2796.191          42.000  
  23246863.735     -111401.8562        419.442          47.000  
  21552966.056     -731199.0262       5186.376          35.000  
 15  4  3 19 47 18.9990000  0  7G 3G23G32G 7G16G 8G 9
  20720217.863     -194989.844         882.262          46.000  
  20400313.369     -686891.519        3953.857          48.000  
  23955484.515       18863.9381       -365.759          28.000  
  22452363.209     -915234.089        5187.568          40.000  
  20619688.642     -523552.664        2796.179          42.000  
  23246783.883     -111822.021         420.423          47.000  
  21551979.316     -736385.641        5187.645          35.000  
 15  4  3 19 47 19.9990000  0  7G 3G23G32G 7G16G 8G 9
  20720050.236     -195873.021         879.907          46.000  
  20399560.584     -690846.303        3951.935          48.000  
  23955553.391       19231.2331       -367.576          27.000  
  22451377.062     -920422.667        5185.532          40.000  
  20619156.358     -526349.590        2793.951          42.000  
  23246703.193     -112243.433         418.709          47.000  
  21550991.616     -741573.899        5185.682          35.000  
 15  4  3 19 47 20.9990000  0  7G 3G23G32G 7G16G 8G 9
  20719882.836     -196753.558         877.956          47.000  
  20398808.218     -694798.690        3950.226          48.000  
  23955623.646       19601.5203       -371.949          26.000  
  22450389.467     -925608.859        5183.516          39.000  
  20618625.208     -529143.666        2791.809          42.000  
  23246622.538     -112662.682         417.203          47.000  
  21550003.899     -746759.903        5183.941          35.000  
 15  4  3 19 47 21.9990000  0  7G 3G23G32G 7G16G 8G 9
  20719715.506     -197634.881         878.101          47.000  
  20398056.149     -698752.108        3950.616          48.000  
  23955693.342       19969.7803       -370.515          26.000  
  22449401.383     -930796.161        5184.312          40.000  
  20618092.331     -531938.301        2791.473          42.000  
  23246542.825     -113083.197         417.838          47.000  
  21549017.054     -751947.056        5184.153          36.000  
 15  4  3 19 47 22.9990000  0  7G 3G23G32G 7G16G 8G 9
  20719548.054     -198515.522         883.344          47.000  
  20397303.800     -702705.088        3955.884          48.000  
  23955763.736       20338.6113       -365.571          27.000  
  22448414.434     -935983.038        5189.830          40.000  
  20617560.850     -534732.059        2796.521          42.000  
  23246462.868     -113503.519         423.435          47.000  
  21548030.593     -757133.958        5190.223          36.000  
 15  4  3 19 47 23.9990000  0  7G 3G23G32G 7G16G 8G 9
  20719380.078     -199399.742         883.995          47.000  
  20396550.492     -706661.902        3956.799          48.000  
  23955832.961       20703.2873       -366.938          27.000  
  22447427.292     -941173.748        5190.551          41.000  
  20617028.653     -537529.201        2796.881          42.000  
  23246382.126     -113927.911         424.473          47.000  
  21547042.771     -762324.805        5191.253          36.000  
 15  4  3 19 47 24.9990000  0  7G 3G23G32G 7G16G 8G 9
  20719211.841     -200284.776         884.967          47.000  
  20395797.846     -710619.777        3957.806          48.000  
  23955897.387       21066.6963       -364.198          26.000  
  22446439.209     -946365.585        5191.831          40.000  
  20616496.858     -540326.949        2797.320          42.000  
  23246301.227     -114353.590         425.424          47.000  
  21546055.194     -767516.833        5191.866          36.000  
 15  4  3 19 47 25.9990000  0  7G 3G23G32G 7G16G 8G 9
  20719043.324     -201167.714         881.962          47.000  
  20395045.253     -714575.804        3955.395          48.000  
  23955960.540       21431.6603       -365.911          25.000  
  22445451.526     -951555.597        5189.080          41.000  
  20615964.678     -543122.410        2794.623          42.000  
  23246220.712     -114777.682         423.306          47.000  
  21545067.180     -772707.160        5189.885          37.000  
 15  4  3 19 47 26.9990000  0  7G 3G23G32G 7G16G 8G 9
  20718875.453     -202051.323         885.649          47.000  
  20394292.538     -718532.731        3959.082          48.000  
  23956030.183       21795.8693       -360.665          26.000  
  22444464.315     -956746.561        5193.218          41.000  
  20615432.656     -545918.311        2797.558          41.000  
  23246139.673     -115202.921         427.553          47.000  
  21544079.323     -777898.491        5193.135          37.000  
 15  4  3 19 47 27.9990000  0  7G 3G23G32G 7G16G 8G 9
  20718706.919     -202939.734         890.387          47.000  
  20393538.462     -722494.691        3963.770          48.000  
  23956098.309       22154.7413       -357.155          26.000  
  22443475.917     -961942.596        5198.086          40.000  
  20614899.657     -548718.836        2802.454          41.000  
  23246057.517     -115633.429         432.338          47.000  
  21543090.035     -783095.043        5198.417          37.000  
 15  4  3 19 47 28.9990000  0  7G 3G23G32G 7G16G 8G 9
  20718537.512     -203828.072         887.718          47.000  
  20392784.281     -726456.852        3961.859          48.000  
  23956164.585       22512.9393       -357.796          26.000  
  22442487.363     -967138.853        5195.985          41.000  
  20614366.518     -551519.064        2799.798          41.000  
  23245975.327     -116064.386         430.732          47.000  
  21542101.009     -788291.902        5196.494          37.000  
 15  4  3 19 47 29.9990000  0  7G 3G23G32G 7G16G 8G 9
  20718368.943     -204718.552         889.956          47.000  
  20392030.082     -730421.373        3963.983          48.000  
  23956232.711       22868.7993       -357.664          26.000  
  22441498.005     -972337.522        5198.070          41.000  
  20613833.588     -554321.216        2801.410          41.000  
  23245892.944     -116497.940         433.239          47.000  
  21541110.692     -793491.269        5198.894          37.000  
 15  4  3 19 47 30.9990000  0  7G 3G23G32G 7G16G 8G 9
  20718200.217     -205606.591         885.930          47.000  
  20391276.826     -734383.723        3960.431          48.000  
  23956300.051       23226.5473       -359.205          26.000  
  22440509.154     -977534.061        5194.726          41.000  
  20613300.170     -557120.735        2797.455          41.000  
  23245810.597     -116929.550         429.738          47.000  
  21540121.457     -798688.588        5195.714          37.000  
 15  4  3 19 47 31.9990000  0  7G 3G23G32G 7G16G 8G 9
  20718031.333     -206493.520         888.916          47.000  
  20390522.837     -738345.175        3963.275          48.000  
  23956369.992       23585.3733       -356.954          26.000  
  22439520.861     -982729.725        5197.809          42.000  
  20612767.903     -559918.918        2799.792          41.000  
  23245729.017     -117360.519         433.065          47.000  
  21539131.593     -803885.160        5198.870          37.000  
 15  4  3 19 47 32.9990000  0  7G 3G23G32G 7G16G 8G 9
  20717861.176     -207383.663         890.140          47.000  
  20389768.656     -742310.123        3965.240          48.000  
  23956436.128       23940.2673       -354.856          25.000  
  22438531.590     -987928.921        5199.572          42.000  
  20612235.061     -562720.158        2801.367          41.000  
  23245646.024     -117795.212         435.088          46.000  
  21538141.049     -809085.338        5200.568          36.000  
 15  4  3 19 47 33.9990000  0  7G 3G23G32G 7G16G 8G 9
  20717691.455     -208274.490         889.304          47.000  
  20389013.743     -746275.969        3964.453          48.000  
  23956502.648       24293.9943       -354.719          24.000  
  22437542.931     -993129.038        5198.583          42.000  
  20611701.625     -565521.820        2799.896          41.000  
  23245562.769     -118231.040         434.536          46.000  
  21537151.290     -814286.568        5200.229          37.000  
 15  4  3 19 47 34.9990000  0  7G 3G23G32G 7G16G 8G 9
  20717521.700     -209166.128         894.138          47.000  
  20388259.282     -750242.880        3969.397          48.000  
  23956567.929       24646.9553       -349.470          23.000  
  22436554.027     -998330.282        5203.825          42.000  
  20611168.957     -568324.146        2805.029          42.000  
  23245479.357     -118668.187         439.823          46.000  
  21536161.095     -819488.978        5204.622          37.000  
 15  4  3 19 47 35.9990000  0  7G 3G23G32G 7G16G 8G 9
  20717351.403     -210059.739         897.148          47.000  
  20387504.159     -754212.021        3972.778          48.000  
  23956632.635       24997.1823       -340.241          23.000  
  22435564.460    -1003533.772        5207.301          43.000  
  20610635.103     -571128.198        2807.434          42.000  
  23245395.910     -119107.797         443.415          46.000  
  21535170.062     -824693.794        5208.545          38.000  
 15  4  3 19 47 36.9990000  0  7G 3G23G32G 7G16G 8G 9
  20717180.112     -210956.582         896.661          47.000  
  20386748.512     -758184.644        3972.968          48.000  
  23956697.654       25343.3383       -339.711          21.000  
  22434574.125    -1008740.792        5207.222          43.000  
  20610100.707     -573935.311        2807.166          42.000  
  23245312.079     -119551.133         443.758          46.000  
  21534179.169     -829902.222        5208.587          38.000  
 15  4  3 19 47 37.9990000  0  7G 3G23G32G 7G16G 8G 9
  20717008.698     -211857.9253        907.677          47.000  
  20385991.627     -762162.4893       3983.978          48.000  
  23956762.290       25686.6213       -335.613          22.000  
  22433582.394    -1013953.0633       5218.436          43.000  
  20609565.701     -576746.7013       2817.883          42.000  
  23245225.997     -119999.934         455.094          46.000  
  21533187.682     -835115.9833       5219.392          38.000  
 15  4  3 19 47 38.9990000  0  7G 3G23G32G 7G16G 8G 9
  20716834.161     -212773.6162        927.017          47.000  
  20385231.809     -766154.4312       4003.323          48.000  
  23956823.488       26014.9573       -316.979          22.000  
  22432588.831    -1019179.4432       5237.669          43.000  
  20609028.531     -579572.1972       2836.584          42.000  
  23245138.414     -120463.052         474.691          46.000  
  21532193.282     -840343.9822       5239.283          38.000  
 15  4  3 19 47 39.9990000  0  7G 3G23G32G 7G16G 8G 9
  20716658.106     -213700.6682        927.193          47.000  
  20384469.880     -770157.9842       4003.823          48.000  
  23956882.173       26332.0133       -313.502          21.000  
  22431592.319    -1024417.4962       5238.318          43.000  
  20608488.935     -582408.8812       2836.749          42.000  
  23245047.865     -120938.039         475.405          47.000  
  21531196.578     -845583.7512       5240.321          39.000  
 15  4  3 19 47 40.9990000  0  7G 3G23G32G 7G16G 8G 9
  20716482.155     -214627.1362        927.521          47.000  
  20383708.231     -774161.1712       4004.229          48.000  
  23956940.649       26644.1133       -317.676          21.000  
  22430595.266    -1029655.2052       5238.124          42.000  
  20607949.636     -585244.7652       2836.590          42.000  
  23244957.682     -121412.905         476.111          46.000  
  21530200.397     -850823.2722       5240.897          39.000  
 15  4  3 19 47 41.9990000  0  7G 3G23G32G 7G16G 8G 9
  20716305.559     -215554.5862        930.488          47.000  
  20382946.249     -778165.5482       4006.300          48.000  
  23956996.140       26955.5543       -308.144          19.000  
  22429597.847    -1034894.1492       5241.130          42.000  
  20607409.674     -588081.3792       2838.214          42.000  
  23244866.906     -121889.198         478.365          46.000  
  21529201.896     -856064.1452       5243.816          38.000  
 15  4  3 19 47 42.9990000  0  7G 3G23G32G 7G16G 8G 9
  20716128.684     -216482.8262        932.793          47.000  
  20382184.111     -782171.0582       4010.088          48.000  
  23957053.447       27267.5483       -311.614          17.000  
  22428600.357    -1040134.2582       5244.852          43.000  
  20606870.585     -590918.7042       2841.772          42.000  
  23244775.886     -122366.879         482.477          46.000  
  21528204.703     -861306.2252       5246.672          39.000  
 15  4  3 19 47 43.9990000  0  7G 3G23G32G 7G16G 8G 9
  20715950.430     -217419.7812        937.904          47.000  
  20381420.158     -786185.4812       4015.709          48.000  
  23957107.298       27574.0253       -297.727          16.000  
  22427601.664    -1045383.3202       5250.229          43.000  
  20606329.436     -593764.4642       2846.765          43.000  
  23244683.801     -122853.708         488.182          46.000  
  21527205.364     -866557.3763       5252.224          39.000  
 15  4  3 19 47 44.9990000  0  7G 3G23G32G 7G16G 8G 9
  20715771.774     -218357.7582        935.653          47.000  
  20380656.362     -790201.1452       4013.319          48.000  
  23957164.587       27870.6453       -313.876          16.000  
  22426602.970    -1050633.6542       5248.064          43.000  
  20605788.113     -596611.0342       2843.860          43.000  
  23244590.338     -123342.023         486.165          46.000  
  21526206.356     -871809.9562       5250.703          39.000  
 15  4  3 19 47 45.9990000  0  7G 3G23G32G 7G16G 8G 9
  20715594.986     -219287.5832        931.685          47.000  
  20379893.753     -794208.9242       4009.592          48.000  
  23957221.841       28184.4063       -301.517          13.000  
  22425605.184    -1055876.1392       5244.297          43.000  
  20605248.360     -599449.2742       2839.844          43.000  
  23244498.934     -123822.687         482.518          46.000  
  21525208.692     -877054.7282       5246.925          40.000  
 15  4  3 19 47 46.9990000  0  8G 3G23G10G32G 7G16G 8G 9
  20715418.041     -220216.8382        927.758          47.000  
  20379131.580     -798216.3772       4006.144          48.000  
  23507203.917      -17650.2642       6130.164          34.000  
  23957281.224       28495.6613       -301.517          12.000  
  22424607.800    -1061118.3362       5240.826          43.000  
  20604708.974     -602286.7322       2835.968          43.000  
  23244407.285     -124303.276         479.350          46.000  
  21524211.465     -882299.3212       5243.295          40.000  
 15  4  3 19 47 47.9990000  0  8G 3G23G10G32G 7G16G 8G 9
  20715242.370     -221143.5092        925.181          47.000  
  20378369.284     -802221.4702       4003.719          48.000  
  23506040.459      -23778.4632       6126.764          34.000  
  23957339.822       28804.6033       -304.125          14.000  
  22423611.165    -1066358.2172       5238.713          43.000  
  20604169.518     -605121.3842       2833.288          43.000  
  23244316.369     -124781.755         477.390          46.000  
  21523214.377     -887541.7232       5240.932          40.000  
 15  4  3 19 47 48.9990000  0  8G 3G23G10G32G 7G16G 8G 9
  20715066.070     -222069.159         923.783          47.000  
  20377607.582     -806225.293        4002.658          48.000  
  23504878.641      -29905.3062       6126.458          34.000  
  23957400.217       29117.2313       -310.852          16.000  
  22422614.147    -1071596.859        5237.397          43.000  
  20603630.917     -607954.831        2831.677          43.000  
  23244225.541     -125259.196         476.500          46.000  
  21522217.045     -892782.9602       5240.121          40.000  
 15  4  3 19 47 49.9990000  0  8G 3G23G10G32G 7G16G 8G 9
  20714890.224     -222993.685         924.448          47.000  
  20376845.060     -810228.723        4003.343          48.000  
  23503707.801      -36031.6512       6126.349          35.000  
  23957460.299       29427.3973       -310.027          17.000  
  22421617.181    -1076835.149        5238.412          43.000  
  20603092.420     -610786.907        2831.817          43.000  
  23244134.556     -125736.476         477.331          46.000  
  21521220.061     -898023.9472       5241.054          40.000  
 15  4  3 19 47 50.9990000  0  8G 3G23G10G32G 7G16G 8G 9
  20714715.164     -223915.877         919.574          47.000  
  20376083.794     -814230.085        3999.013          48.000  
  23502545.774      -42155.8712       6121.777          35.000  
  23957519.594       29737.9633       -311.297          19.000  
  22420620.006    -1082071.389        5234.019          43.000  
  20602554.273     -613616.470        2826.904          43.000  
  23244044.303     -126211.936         473.189          46.000  
  21520223.601     -903263.0192       5236.575          40.000  
 15  4  3 19 47 51.9990000  0  8G 3G23G10G32G 7G16G 8G 9
  20714540.225     -224834.509         916.781          47.000  
  20375323.087     -818228.103        3996.504          48.000  
  23501381.320      -48276.7092       6119.152          35.000  
  23957583.166       30054.8563       -315.182          19.000  
  22419624.593    -1087304.345        5231.680          43.000  
  20602016.213     -616442.254        2823.993          44.000  
  23243954.068     -126684.309         470.918          46.000  
  21519227.752     -908498.8702       5234.170          40.000  
 15  4  3 19 47 52.9990000  0  8G 3G23G10G32G 7G16G 8G 9
  20714366.491     -225751.656         912.471          47.000  
  20374562.414     -822224.802        3990.043          48.000  
  23500215.559      -54396.1663       6107.033          34.000  
  23957646.876       30374.3223       -317.532          19.000  
  22418629.338    -1092536.0283       5220.066          43.000  
  20601479.078     -619266.268        2817.413          43.000  
  23243864.775     -127155.590         464.596          46.000  
  21518231.624     -913733.5593       5223.213          39.000  
 15  4  3 19 47 53.9990000  0  8G 3G23G10G32G 7G16G 8G 9
  20714192.059     -226668.6533        920.569          47.000  
  20373801.219     -826222.2843       4000.712          48.000  
  23499049.779      -60516.7853       6123.474          34.000  
  23957707.132       30692.9753       -311.849          18.000  
  22417633.244    -1097768.9653       5235.895          44.000  
  20600941.105     -622090.0963       2827.356          43.000  
  23243774.767     -127626.9093        475.682          46.000  
  21517235.269     -918969.6253       5238.590          39.000  
 15  4  3 19 47 54.9990000  0  8G 3G23G10G32G 7G16G 8G 9
  20714017.905     -227586.1992        906.677          47.000  
  20373040.494     -830220.0042       3988.005          48.000  
  23497884.908      -66636.8723       6114.130          35.000  
  23957768.155       31011.1903       -321.598          19.000  
  22416638.146    -1103001.7032       5222.964          44.000  
  20600403.185     -624914.2292       2814.319          43.000  
  23243684.672     -128099.6942        463.233          46.000  
  21516238.582     -924205.2713       5228.066          40.000  
 15  4  3 19 47 55.9990000  0  8G 3G23G10G32G 7G16G 8G 9
  20713844.695     -228495.5303        923.700          47.000  
  20372281.619     -834208.7223       4006.023          48.000  
  23496722.531      -72746.7273       6127.890          35.000  
  23957832.093       31336.0763       -307.991          20.000  
  22415644.408    -1108228.9793       5241.155          43.000  
  20599867.376     -627729.3683       2830.530          43.000  
  23243596.513     -128567.2213        481.390          46.000  
  21515244.409     -929431.1173       5243.169          40.000  
 15  4  3 19 47 56.9990000  0  8G 3G23G10G32G 7G16G 8G 9
  20713669.983     -229416.9042        917.862          47.000  
  20371520.074     -838210.6512       3998.471          48.000  
  23495556.734      -78871.2323       6121.063          36.000  
  23957909.991       31647.9363       -313.896          22.000  
  22414647.617    -1113466.0052       5233.992          44.000  
  20599329.211     -630556.8442       2823.688          43.000  
  23243505.964     -129044.7092        474.155          46.000  
  21514247.513     -934671.5892       5236.616          39.000  
 15  4  3 19 47 57.9990000  0  8G 3G23G10G32G 7G16G 8G 9
  20713496.004     -230330.9722        911.758          48.000  
  20370759.942     -842205.5652       3992.805          48.000  
  23494391.828      -84988.5462       6114.721          35.000  
  23957972.515       31967.5323       -318.355          23.000  
  22413653.024    -1118696.0482       5227.842          44.000  
  20598792.634     -633376.8272       2817.523          43.000  
  23243416.183     -129515.4252        468.708          46.000  
  21513252.030     -939905.1422       5231.926          39.000  
 15  4  3 19 47 58.9990000  0  8G 3G23G10G32G 7G16G 8G 9
  20713322.933     -231241.3172        907.596          48.000  
  20370000.544     -846197.0192       3989.069          48.000  
  23493228.631      -91102.3382       6111.218          36.000  
  23958037.377       32289.9673       -327.711          25.000  
  22412658.257    -1123922.6652       5224.061          44.000  
  20598257.297     -636192.8832       2813.141          44.000  
  23243327.431     -129982.9152        465.167          46.000  
  21512255.989     -945135.3802       5227.850          38.000  
 15  4  3 19 47 59.9990000  0  8G 3G23G10G32G 7G16G 8G 9
  20713149.495     -232150.4022        904.920          47.000  
  20369240.674     -850187.4242       3986.310          48.000  
  23492064.981      -97214.9722       6108.154          35.000  
  23958102.955       32614.7223       -328.935          26.000  
  22411664.432    -1129148.2792       5221.436          44.000  
  20597721.488     -639007.4802       2810.370          43.000  
  23243238.574     -130449.6082        462.616          46.000  
  21511260.821     -950364.7332       5225.724          38.000  
 15  4  3 19 48  0.9990000  0  8G 3G23G10G32G 7G16G 8G 9
  20712977.262     -233052.4912        898.431          47.000  
  20368482.305     -854171.1192       3980.427          48.000  
  23490903.285     -103320.8632       6102.185          35.000  
  23958170.714       32946.1753       -335.269          26.000  
  22410671.759    -1134367.1892       5215.219          44.000  
  20597187.110     -641814.8982       2804.059          43.000  
  23243151.498     -130909.8342        457.088          46.000  
  21510267.781     -955587.4562       5220.091          38.000  
 15  4  3 19 48  1.9990000  0  8G 3G23G10G32G 7G16G 8G 9
  20712807.227     -233948.7192        894.290          47.000  
  20367725.367     -858149.1522       3976.306          48.000  
  23489742.479     -109421.0052       6098.334          34.000  
  23958237.374       33283.3093       -338.524          26.000  
  22409680.482    -1139580.5362       5211.871          44.000  
  20596653.220     -644616.1952       2799.219          43.000  
  23243064.578     -131364.6322        453.125          46.000  
  21509275.038     -960804.6632       5215.772          38.000  
 15  4  3 19 48  2.9990000  0  8G 3G23G10G32G 7G16G 8G 9
  20712637.506     -234841.2532        905.244          47.000  
  20366968.952     -862123.7302       3987.302          48.000  
  23488582.162     -115517.6042       6109.137          37.000  
  23958302.690       33624.5353       -331.822          26.000  
  22408689.065    -1144790.4242       5222.966          44.000  
  20596120.989     -647413.6102       2809.894          43.000  
  23242978.531     -131816.2392        464.543          46.000  
  21508283.621     -966018.5762       5226.854          38.000  
 15  4  3 19 48  3.9990000  0  8G 3G23G10G32G 7G16G 8G 9
  20712467.279     -235732.9152        886.152          47.000  
  20366213.166     -866097.7042       3968.721          48.000  
  23487421.792     -121614.6383       6091.833          34.000  
  23958368.286       33964.3063       -346.319          27.000  
  22407698.766    -1149999.7272       5203.559          45.000  
  20595588.146     -650209.9572       2790.576          42.000  
  23242892.728     -132267.4682        446.139          46.000  
  21507292.100     -971232.0202       5208.590          38.000  
 15  4  3 19 48  4.9990000  0  8G 3G23G10G32G 7G16G 8G 9
  20712300.211     -236613.0432        874.184          47.000  
  20365459.700     -870060.3652       3956.819          48.000  
  23486264.197     -127699.1742       6079.138          34.000  
  23958434.876       34316.0353       -357.459          28.000  
  22406709.687    -1155197.7712       5191.984          45.000  
  20595057.799     -652994.5712       2778.528          42.000  
  23242809.334     -132707.6322        434.358          46.000  
  21506301.818     -976434.2762       5196.658          38.000  
 15  4  3 19 48  5.9990000  0  8G 3G23G10G32G 7G16G 8G 9
  20712134.905     -237481.9382        865.529          47.000  
  20364707.840     -874012.0272       3948.356          48.000  
  23485108.992     -133772.6832       6070.276          35.000  
  23958499.860       34678.7763       -365.363          27.000  
  22405723.296    -1160384.8852       5183.916          45.000  
  20594530.017     -655767.7262       2769.641          42.000  
  23242727.789     -133137.0622        426.194          46.000  
  21505313.926     -981625.6292       5187.763          37.000  
 15  4  3 19 48  6.9990000  0  8G 3G23G10G32G 7G16G 8G 9
  20711970.105     -238345.044         859.954          47.000  
  20363957.027     -877957.652        3943.155          48.000  
  23483954.887     -139840.0792       6065.289          36.000  
  23958569.330       35047.3983       -370.634          27.000  
  22404737.376    -1165565.985        5178.691          45.000  
  20594003.544     -658534.403        2764.178          41.000  
  23242647.256     -133561.186         421.372          46.000  
  21504327.011     -986811.130        5183.307          36.000  
 15  4  3 19 48  7.9990000  0  8G 3G23G10G32G 7G16G 8G 9
  20711806.300     -239202.695         854.866          47.000  
  20363206.999     -881898.545        3938.000          48.000  
  23482801.096     -145902.6742       6059.625          35.000  
  23958640.073       35420.5593       -375.407          28.000  
  22403752.434    -1170742.368        5173.440          45.000  
  20593477.298     -661295.881        2758.344          41.000  
  23242567.474     -133980.316         416.308          46.000  
  21503340.812     -991992.000        5177.802          34.000  
 15  4  3 19 48  8.9990000  0  8G 3G23G10G32G 7G16G 8G 9
  20711643.873     -240053.519         846.921          47.000  
  20362458.961     -885832.871        3930.489          48.000  
  23481648.213     -151958.6682       6052.233          35.000  
  23958712.387       35800.1163       -382.520          28.000  
  22402768.486    -1175912.249        5166.251          45.000  
  20592952.378     -664050.370        2750.616          41.000  
  23242489.070     -134393.130         409.017          46.000  
  21502356.306     -997166.527        5171.097          34.000  
 15  4  3 19 48  9.9990000  0  8G 3G23G10G32G 7G16G 8G 9
  20711483.610     -240896.223         838.710          46.000  
  20361711.690     -889759.305        3922.535          48.000  
  23480496.237     -158006.6662       6044.128          34.000  
  23958786.794       36187.4543       -391.718          29.000  
  22401785.375    -1181074.244        5158.108          45.000  
  20592429.081     -666796.508        2742.096          41.000  
  23242412.324     -134798.302         401.461          46.000  
  21501373.562    -1002333.234        5162.517          34.000  
 15  4  3 19 48 10.9990000  0  8G 3G23G10G32G 7G16G 8G 9
  20711323.592     -241731.779         832.420          46.000  
  20360966.060     -893678.842        3916.726          48.000  
  23479346.459     -164047.6982       6038.098          34.000  
  23958871.463       36581.4433       -397.087          29.000  
  22400804.307    -1186229.382        5152.292          44.000  
  20591908.541     -669535.291        2735.571          41.000  
  23242336.695     -135196.813         395.723          46.000  
  21500392.110    -1007493.146        5155.864          33.000  
 15  4  3 19 48 11.9990000  0  8G 3G23G10G32G 7G16G 8G 9
  20711164.900     -242562.011         826.757          46.000  
  20360220.744     -897593.269        3911.100          48.000  
  23478197.188     -170083.5722       6032.697          34.000  
  23958950.565       36980.4112       -402.686          29.000  
  22399823.622    -1191379.456        5146.795          44.000  
  20591388.263     -672268.510        2729.480          41.000  
  23242261.065     -135590.463         390.575          46.000  
  21499410.779    -1012648.161        5152.204          34.000  
 15  4  3 19 48 12.9990000  0  8G 3G23G10G32G 7G16G 8G 9
  20711007.830     -243385.696         819.266          46.000  
  20359477.085     -901501.412        3904.032          48.000  
  23477048.475     -176113.0802       6025.287          33.000  
  23959018.743       37384.9451       -408.932          30.000  
  22398844.176    -1196523.277        5139.626          44.000  
  20590868.927     -674995.027        2722.320          42.000  
  23242187.356     -135978.062         383.511          46.000  
  21498429.937    -1017796.942        5144.238          33.000  
 15  4  3 19 48 13.9990000  0  8G 3G23G10G32G 7G16G 8G 9
  20710851.773     -244201.671         812.302          45.000  
  20358734.666     -905402.081        3897.236          48.000  
  23475902.240     -182135.0052       6018.292          35.000  
  23959099.991       37797.3961       -416.541          29.000  
  22397866.580    -1201659.620        5132.764          44.000  
  20590351.842     -677713.580        2714.941          42.000  
  23242115.234     -136358.430         377.009          46.000  
  21497450.387    -1022938.447        5137.759          33.000  
 15  4  3 19 48 14.9990000  0  8G 3G23G10G32G 7G16G 8G 9
  20710697.443     -245011.7583        793.835          45.000  
  20357993.345     -909297.5513       3878.662          48.000  
  23474756.494     -188155.0273       6010.215          35.000  
  23959179.895       38213.6723       -423.232          30.000  
  22396890.328    -1206791.4573       5117.450          44.000  
  20589835.490     -680426.5393       2696.136          42.000  
  23242043.653     -136733.3903        359.430          45.000  
  21496471.936    -1028074.8153       5116.663          32.000  
 15  4  3 19 48 15.9990000  0  8G 3G23G10G32G 7G16G 8G 9
  20710548.069     -245795.8773        790.951          45.000  
  20357256.911     -913166.3843       3875.403          48.000  
  23473617.134     -194145.6343       5992.096          35.000  
  23959263.883       38658.9523       -443.111          30.000  
  22395918.996    -1211894.8363       5113.289          43.000  
  20589324.286     -683112.3743       2692.444          42.000  
  23241976.801     -137083.4103        356.012          45.000  
  21495497.411    -1033184.8453       5120.979          30.000  
 15  4  3 19 48 16.9990000  0  8G 3G23G10G32G 7G16G 8G 9
  20710397.387     -246585.6593        796.129          45.000  
  20356519.483     -917040.4803       3879.643          48.000  
  23472475.838     -200141.9023       6001.324          34.000  
  23959346.859       39105.9263       -430.336          30.000  
  22394945.763    -1217005.5133       5118.040          43.000  
  20588812.523     -685801.5263       2692.193          42.000  
  23241909.286     -137437.9353        359.783          45.000  
  21494517.215    -1038301.8743       5115.254          29.000  
 15  4  3 19 48 17.9990000  0  5G23G10G16G 8G 9
  20355780.989     -920922.0743       3871.946          48.000  
  23471332.901     -206143.8083       5992.218          34.000  
  20588299.452     -688498.0823       2690.332          42.000  
  23241839.992     -137800.1713        357.373          45.000  
  21493540.369    -1043417.2403       5110.967          28.000  
 15  4  3 19 48 18.9990000  0  6G 3G23G10G 7G16G 8
  20710085.202        -194.0843        770.246          45.000  
  20355045.951     -924784.4743       3856.070          48.000  
  23470194.187     -212126.9233       5977.350          34.000  
  22392993.711       -3750.2393       5092.073          43.000  
  20587790.621     -691175.8643       2671.539          43.000  
  23241774.990     -138143.5733        337.199          45.000  
 15  4  3 19 48 19.9990000  0  5G23G10G16G 8G 9
  20354312.135     -928636.9342       3861.232          48.000  
  23469057.863     -218100.2342       5982.104          35.000  
  20587282.645     -693843.5512       2676.105          43.000  
  23241711.366     -138477.2212        342.631          45.000  
  21491584.740    -1053614.8533       5094.373          27.000  
 15  4  3 19 48 20.9990000  0  6G 3G23G10G 7G16G 8
  20709801.095        -195.1553        725.346          44.000  
  20353581.110     -932484.5682       3812.667          48.000  
  23467921.610     -224072.6963       5929.022          35.000  
  22391048.623       -3838.7293       5048.368          42.000  
  20586775.629     -696508.9543       2622.736          42.000  
  23241649.104     -138806.2742        294.167          45.000  
 15  4  3 19 48 21.9990000  0  4G23G10G16G 8
  20352847.695     -936332.9513       3867.417          48.000  
  23466785.234     -230041.8153       5988.489          35.000  
  20586269.084     -699171.7023       2681.396          43.000  
  23241585.759     -139136.3313        349.049          45.000  
 15  4  3 19 48 22.9990000  0  6G 3G23G10G 7G16G 8
  20709508.438        -190.7913        778.149          45.000  
  20352111.575     -940201.5782       3864.874          47.000  
  23465645.369     -236031.1122       5985.077          34.000  
  22389117.146       -3755.8053       5100.933          41.000  
  20585758.369     -701854.2252       2678.625          42.000  
  23241518.873     -139486.8832        347.054          45.000  
 15  4  3 19 48 23.9990000  0  4G23G10G16G 8
  20351376.240     -944066.0192       3863.786          48.000  
  23464505.852     -242016.1802       5984.173          35.000  
  20585248.753     -704532.1142       2676.892          43.000  
  23241452.806     -139833.4762        346.025          45.000  
 15  4  3 19 48 24.9990000  0  6G 3G23G10G 7G16G 8
  20709212.168        -208.2693        771.710          45.000  
  20350641.604     -947927.4482       3859.170          48.000  
  23463367.923     -247998.1452       5980.011          35.000  
  22387188.495       -3851.8693       5095.228          42.000  
  20584740.550     -707206.5622       2671.906          43.000  
  23241387.350     -140177.3182        341.689          45.000  
 15  4  3 19 48 25.9990000  0  5G23G10G16G 8G 9
  20349907.822     -951784.0112       3853.845          48.000  
  23462230.204     -253975.1842       5974.396          35.000  
  20584232.679     -709875.6722       2666.003          43.000  
  23241323.116     -140516.5322        336.504          45.000  
  21485750.661      -18573.6712       5095.964          29.000  
 15  4  3 19 48 26.9990000  0  8G 3G23G10G 7G32G16G 8G 9
  20708927.502        -175.8253        761.076          45.000  
  20349174.389     -955635.3422       3849.167          48.000  
  23461093.549     -259946.9132       5969.635          34.000  
  22385253.807       -3742.1083       5085.201          42.000  
  23960178.763         851.6533       -461.612          30.000  
  20583725.610     -712539.1122       2661.108          43.000  
  23241259.336     -140850.7562        332.126          45.000  
  21484781.511      -23667.5343       5091.136          29.000  
 15  4  3 19 48 27.9990000  0  6G 3G23G10G16G 8G 9
  20708783.416        -937.4832        758.940          46.000  
  20348441.445     -959485.0252       3847.068          47.000  
  23459957.470     -265916.9092       5967.200          35.000  
  20583219.554     -715200.4522       2658.459          43.000  
  23241195.956     -141183.5842        330.438          45.000  
  21483825.536      -28759.9842       5090.606          31.000  
 15  4  3 19 48 28.9990000  0  7G 3G23G10G 7G16G 8G 9
  20708639.923       -1695.8612        757.804          46.000  
  20347709.025     -963331.6542       3846.029          47.000  
  23458821.426     -271883.7992       5966.144          33.000  
  22383317.252       -4145.4323       5082.615          42.000  
  20582714.266     -717858.3112       2657.312          43.000  
  23241133.293     -141513.5992        329.642          45.000  
  21482853.245      -33849.3252       5087.238          32.000  
 15  4  3 19 48 29.9990000  0  6G 3G23G10G16G 8G 9
  20708496.220       -2451.8102        753.859          46.000  
  20346977.913     -967176.1092       3842.412          47.000  
  23457685.068     -277848.4312       5962.439          33.000  
  20582208.523     -720513.5212       2652.972          43.000  
  23241070.821     -141841.6782        326.215          45.000  
  21481885.665      -38936.8632       5085.338          32.000  
 15  4  3 19 48 30.9990000  0  7G 3G23G 7G32G16G 8G 9
  20708354.455       -3202.7292        748.316          46.000  
  20346246.958     -971015.766        3837.056          47.000  
  22381380.103       -3681.6943       5073.409          42.000  
  23960558.463         636.5503       -472.859          32.000  
  20581704.579     -723163.505        2647.113          43.000  
  23241009.326     -142165.718         321.152          44.000  
  21480922.692      -44019.6852       5080.806          33.000  
 15  4  3 19 48 31.9990000  0  7G 3G23G 7G32G16G 8G 9
  20708211.852       -3949.9222        747.237          46.000  
  20345516.789     -974851.928        3836.219          47.000  
  22380417.479       -8754.2592       5072.605          42.000  
  23960642.904        1110.6773       -473.420          32.000  
  20581200.861     -725809.556        2645.874          43.000  
  23240948.443     -142486.011         320.453          45.000  
  21479959.021      -49099.0902       5079.917          34.000  
 15  4  3 19 48 32.9990000  0  7G 3G23G 7G32G16G 8G 9
  20708069.632       -4697.2212        746.000          46.000  
  20344786.602     -978688.453        3835.442          47.000  
  22379453.791      -13827.1892       5071.722          42.000  
  23960735.495        1583.9632       -474.261          32.000  
  20580697.841     -728455.504        2644.611          43.000  
  23240887.088     -142806.897         319.817          45.000  
  21478992.873      -54179.0252       5079.167          34.000  
 15  4  3 19 48 33.9990000  0  7G 3G23G 7G32G16G 8G 9
  20707927.884       -5441.6792        742.078          46.000  
  20344056.834     -982522.355        3831.474          47.000  
  22378488.410      -18897.5672       5068.052          42.000  
  23960825.870        2059.6812       -477.673          32.000  
  20580194.768     -731098.388        2640.167          43.000  
  23240826.518     -143125.425         316.321          44.000  
  21478026.549      -59256.4632       5075.433          35.000  
 15  4  3 19 48 34.9990000  0  7G 3G23G 7G32G16G 8G 9
  20707786.886       -6180.1082        734.583          46.000  
  20343328.305     -986350.475        3824.317          47.000  
  22377523.151      -23962.1702       5060.653          42.000  
  23960916.035        2541.0312       -484.828          32.000  
  20579693.423     -733735.048        2632.684          43.000  
  23240767.082     -143438.413         309.344          45.000  
  21477060.610      -64328.2912       5068.781          35.000  
 15  4  3 19 48 35.9990000  0  8G 3G23G10G 7G32G16G 8G 9
  20707648.192       -6911.8022        729.448          46.000  
  20342600.683     -990172.084        3819.431          47.000  
  23450880.949      -29848.0832       5939.148          31.000  
  22376560.737      -29020.3232       5056.091          42.000  
  23961009.027        3028.6922       -489.612          31.000  
  20579193.300     -736364.750        2627.338          43.000  
  23240709.078     -143745.135         304.827          45.000  
  21476099.592      -69393.6482       5062.683          36.000  
 15  4  3 19 48 36.9990000  0  8G 3G23G10G 7G32G16G 8G 9
  20707510.423       -7638.8672        725.161          46.000  
  20341874.318     -993989.305        3815.351          47.000  
  23449750.262      -35784.9812       5935.187          30.000  
  22375599.491      -34074.1282       5052.110          42.000  
  23961102.176        3520.5622       -492.783          32.000  
  20578694.015     -738989.637        2622.949          43.000  
  23240651.039     -144047.713         300.844          45.000  
  21475137.317      -74454.8352       5059.682          37.000  
 15  4  3 19 48 37.9990000  0  8G 3G23G10G 7G32G16G 8G 9
  20707372.932       -8362.0312        720.386          46.000  
  20341148.301     -997802.851        3811.064          47.000  
  23448621.669      -41718.1853       5930.811          30.000  
  22374637.880      -39124.2832       5047.708          42.000  
  23961196.617        4015.9892       -497.874          32.000  
  20578194.799     -741610.391        2618.085          43.000  
  23240594.447     -144346.866         296.726          45.000  
  21474175.653      -79512.4642       5055.092          38.000  
 15  4  3 19 48 38.9990000  0  7G 3G23G 7G32G16G 8G 9
  20707236.384       -9079.7562        714.659          46.000  
  20340422.966    -1001611.210        3805.542          46.000  
  22373677.315      -44169.2952       5042.316          42.000  
  23961292.401        4516.3952       -503.454          31.000  
  20577697.014     -744225.518        2612.158          43.000  
  23240538.781     -144641.077         291.511          45.000  
  21473215.978      -84565.0642       5050.025          38.000  
 15  4  3 19 48 39.9990000  0  7G 3G23G 7G32G16G 8G 9
  20707100.412       -9792.3072        710.523          46.000  
  20339698.904    -1005414.614        3801.584          46.000  
  22372718.181      -49209.3992       5038.557          42.000  
  23961388.744        5021.6302       -507.101          31.000  
  20577199.910     -746835.255        2607.977          43.000  
  23240483.516     -144930.595         287.827          45.000  
  21472256.268      -89612.8272       5045.864          39.000  
 15  4  3 19 48 40.9990000  0  7G 3G23G 7G32G16G 8G 9
  20706965.400      -10501.6452        708.498          46.000  
  20338975.400    -1009215.059        3799.722          46.000  
  22371758.925      -54246.5632       5036.449          42.000  
  23961485.680        5529.5532       -508.087          31.000  
  20576704.184     -749441.570        2605.438          43.000  
  23240428.793     -145217.379         286.344          45.000  
  21471296.943      -94657.7642       5044.366          39.000  
 15  4  3 19 48 41.9990000  0  7G 3G23G 7G32G16G 8G 9
  20706829.829      -11209.2172        706.504          46.000  
  20338252.630    -1013013.963        3798.008          46.000  
  22370800.751      -59282.2322       5034.716          42.000  
  23961582.895        6038.9372       -510.666          31.000  
  20576208.632     -752045.908        2603.259          43.000  
  23240373.789     -145502.872         284.732          45.000  
  21470338.175      -99701.2872       5042.252          40.000  
 15  4  3 19 48 42.9990000  0  7G 3G23G 7G32G16G 8G 9
  20706695.637      -11914.1782        703.304          46.000  
  20337530.086    -1016810.496        3795.190          46.000  
  22369842.612      -64315.5762       5031.985          42.000  
  23961680.006        6550.4422       -512.649          30.000  
  20575713.186     -754647.441        2600.092          43.000  
  23240320.427     -145786.245         282.214          45.000  
  21469379.565     -104742.604        5039.905          41.000  
 15  4  3 19 48 43.9990000  0  8G 3G23G 7G32G30G16G 8G 9
  20706562.160      -12615.9542        700.172          46.000  
  20336808.136    -1020604.069        3792.142          46.000  
  22368885.817      -69345.9942       5029.076          42.000  
  23961777.727        7064.7652       -515.515          30.000  
  24997441.833       -7798.0523       5824.787          26.000  
  20575218.594     -757245.559        2596.509          43.000  
  23240266.785     -146066.911         279.435          45.000  
  21468421.164     -109781.097        5037.182          41.000  
 15  4  3 19 48 44.9990000  0  8G 3G23G 7G32G30G16G 8G 9
  20706429.539      -13315.8162        699.337          46.000  
  20336086.482    -1024395.956        3791.552          46.000  
  22367928.672      -74374.7792       5028.652          42.000  
  23961875.814        7580.6173       -516.265          29.000  
  24996332.470      -13621.3743       5821.624          26.000  
  20574724.526     -759841.564        2595.709          43.000  
  23240213.492     -146346.137         278.979          45.000  
  21467463.409     -114818.028        5036.779          41.000  
 15  4  3 19 48 45.9990000  0  8G 3G23G 7G32G30G16G 8G 9
  20706296.655      -14014.7222        698.447          46.000  
  20335364.915    -1028187.141        3790.831          46.000  
  22366971.650      -79402.8542       5027.462          42.000  
  23961970.761        8097.0043       -516.712          29.000  
  24995238.027      -19444.0513       5821.992          26.000  
  20574229.673     -762436.384        2594.202          42.000  
  23240160.740     -146624.905         278.545          45.000  
  21466505.584     -119854.392        5036.189          42.000  
 15  4  3 19 48 46.9990000  0  8G 3G23G 7G32G30G16G 8G 9
  20706163.946      -14711.3572        694.407          46.000  
  20334643.925    -1031976.289        3787.368          46.000  
  22366015.256      -84428.9692       5023.864          42.000  
  23962067.226        8615.1963       -519.721          28.000  
  24994117.845      -25264.9933       5818.674          25.000  
  20573735.884     -765028.757        2590.454          42.000  
  23240108.215     -146901.892         275.265          45.000  
  21465547.497     -124888.848        5032.573          42.000  
 15  4  3 19 48 47.9990000  0  8G 3G23G 7G32G30G16G 8G 9
  20706032.145      -15403.7202        689.687          46.000  
  20333923.388    -1035761.387        3782.792          46.000  
  22365059.595      -89451.0722       5019.491          42.000  
  23962163.062        9137.2763       -523.899          27.000  
  24993007.331      -31081.2103       5807.918          25.000  
  20573242.950     -767616.621        2585.339          42.000  
  23240056.004     -147175.075         271.107          45.000  
  21464590.109     -129919.424        5028.813          42.000  
 15  4  3 19 48 48.9990000  0  8G 3G23G 7G32G30G16G 8G 9
  20705901.338      -16092.487         687.150          46.000  
  20333204.159    -1039542.606        3780.242          46.000  
  22364104.422      -94469.3382       5017.204          43.000  
  23962261.429        9663.1223       -527.160          27.000  
  24991894.059      -36893.9653       5811.939          25.000  
  20572752.058     -770200.168        2582.428          42.000  
  23240005.485     -147444.648         268.822          45.000  
  21463633.714     -134946.209        5025.874          42.000  
 15  4  3 19 48 49.9990000  0  8G 3G23G 7G32G30G16G 8G 9
  20705770.339      -16778.696         685.475          46.000  
  20332485.420    -1043322.036        3778.912          46.000  
  22363149.791      -99485.8462       5016.057          43.000  
  23962358.208       10190.4903       -527.419          25.000  
  24990782.341      -42705.3393       5811.297          25.000  
  20572261.149     -772781.470        2580.573          42.000  
  23239954.688     -147712.644         267.639          45.000  
  21462678.053     -139971.367        5024.442          43.000  
 15  4  3 19 48 50.9990000  0  8G 3G23G 7G32G30G16G 8G 9
  20705639.532      -17463.141         682.643          46.000  
  20331766.366    -1047099.924        3776.090          46.000  
  22362195.770     -104500.8572       5013.466          43.000  
  23962454.865       10719.2573       -529.286          24.000  
  24989672.420      -48515.4933       5810.735          24.000  
  20571770.571     -775360.791        2577.692          42.000  
  23239904.012     -147979.356         265.216          45.000  
  21461722.654     -144995.122        5022.122          43.000  
 15  4  3 19 48 51.9990000  0  8G 3G23G 7G32G30G16G 8G 9
  20705509.703      -18144.006         679.097          46.000  
  20331047.923    -1050874.460        3772.874          46.000  
  22361242.220     -109512.5612       5010.203          43.000  
  23962552.098       11251.2173       -531.385          22.000  
  24988566.338      -54322.4283       5809.760          24.000  
  20571280.377     -777936.315        2573.810          42.000  
  23239853.860     -148242.962         262.127          45.000  
  21460766.993     -150015.655        5018.697          43.000  
 15  4  3 19 48 52.9990000  0  7G 3G23G 7G32G16G 8G 9
  20705380.833      -18820.908         675.517          46.000  
  20330330.789    -1054645.255        3769.339          46.000  
  22360289.299     -114520.5662       5006.945          43.000  
  23962652.559       11783.3163       -539.514          21.000  
  20570790.392     -780507.660        2569.616          42.000  
  23239804.249     -148503.093         258.983          45.000  
  21459811.960     -155032.598        5015.563          43.000  
 15  4  3 19 48 53.9990000  0  7G 3G23G 7G32G16G 8G 9
  20705252.033      -19495.257         673.039          46.000  
  20329613.219    -1058413.764        3767.275          46.000  
  22359337.529     -119526.3072       5004.669          43.000  
  23962754.084       12322.1323       -542.007          19.000  
  20570301.821     -783076.275        2567.310          42.000  
  23239754.708     -148761.168         257.010          46.000  
  21458858.061     -160047.393        5013.769          43.000  
 15  4  3 19 48 54.9990000  0  7G 3G23G 7G32G16G 8G 9
  20705123.861      -20167.739         671.649          46.000  
  20328896.503    -1062180.622        3766.222          46.000  
  22358384.677     -124530.928        5003.545          43.000  
  23962854.231       12859.7093       -505.730          17.000  
  20569813.320     -785642.798        2565.613          42.000  
  23239706.196     -149017.838         256.189          46.000  
  21457904.145     -165060.646        5012.723          43.000  
 15  4  3 19 48 55.9990000  0  7G 3G23G 7G32G16G 8G 9
  20704996.073      -20837.781         668.118          45.000  
  20328180.224    -1065945.292        3763.136          46.000  
  22357432.715     -129532.917        5000.493          43.000  
  23962949.928       13365.4403       -505.730          12.000  
  20569325.237     -788206.682        2562.134          42.000  
  23239657.999     -149272.575         253.273          46.000  
  21456950.072     -170071.840        5009.520          43.000  
 15  4  3 19 48 56.9990000  0  7G 3G23G 7G32G16G 8G 9
  20704868.931      -21504.874         665.885          45.000  
  20327464.661    -1069707.217        3760.800          46.000  
  22356482.062     -134532.197        4998.209          43.000  
  23963046.846       13871.1703       -505.730           9.000  
  20568838.533     -790767.373        2559.222          42.000  
  23239610.273     -149524.814         251.372          46.000  
  21455997.168     -175080.453        5007.627          43.000  
 15  4  3 19 48 57.9990000  0  7G 3G23G 7G32G16G 8G 9
  20704742.172      -22170.060         665.046          45.000  
  20326749.045    -1073467.472        3760.126          46.000  
  22355530.921     -139529.836        4997.327          44.000  
  23963145.754       14393.2823       -525.531           8.000  
  20568351.742     -793325.963        2558.209          43.000  
  23239562.511     -149775.632         250.775          46.000  
  21455044.264     -180087.539        5007.138          43.000  
 15  4  3 19 48 58.9990000  0  7G 3G23G 7G32G16G 8G 9
  20704615.658      -22834.744         664.528          45.000  
  20326033.481    -1077227.481        3760.126          46.000  
  22354580.722     -144527.273        4997.659          44.000  
  23963242.620       14919.7963       -527.533           8.000  
  20567865.230     -795883.857        2557.758          43.000  
  23239514.593     -150026.445         250.946          46.000  
  21454090.557     -185094.483        5006.766          42.000  
 15  4  3 19 48 59.9990000  0  7G 3G23G 7G32G16G 8G 9
  20704489.476      -23497.784         661.573          45.000  
  20325318.301    -1080986.058        3757.279          46.000  
  22353629.755     -149523.285        4994.816          45.000  
  23963342.976       15448.3123       -529.535           8.000  
  20567379.363     -798439.882        2554.681          43.000  
  23239467.687     -150276.093         248.533          46.000  
  21453138.019     -190100.153        5004.203          42.000  
 15  4  3 19 49  0.9990000  0  6G 3G23G 7G16G 8G 9
  20704364.131      -24157.226         657.358          45.000  
  20324603.732    -1084741.263        3753.039          46.000  
  22352680.498     -154516.036        4990.601          44.000  
  20566893.392     -800992.084        2550.220          43.000  
  23239421.357     -150522.607         244.605          46.000  
  21452185.639     -195102.575        5000.374          43.000  
 15  4  3 19 49  1.9990000  0  6G 3G23G 7G16G 8G 9
  20704238.926      -24812.794         654.345          45.000  
  20323889.687    -1088492.848        3750.473          46.000  
  22351730.944     -159505.184        4988.049          44.000  
  20566409.532     -803540.221        2546.765          43.000  
  23239374.834     -150765.752         242.155          46.000  
  21451233.206     -200101.527        4998.067          42.000  
 15  4  3 19 49  2.9990000  0  6G 3G23G 7G16G 8G 9
  20704115.151      -25466.032         652.671          45.000  
  20323175.886    -1092242.345        3749.024          46.000  
  22350782.211     -164492.253        4986.675          45.000  
  20565925.254     -806085.818        2544.873          43.000  
  23239329.010     -151007.039         240.825          46.000  
  21450282.483     -205098.523        4996.843          42.000  
 15  4  3 19 49  3.9990000  0  7G 3G23G 7G32G16G 8G 9
  20703991.028      -26117.426         649.629          45.000  
  20322463.044    -1095990.203        3746.063          46.000  
  22349833.913     -169477.730        4983.751          45.000  
  23963930.333        2177.2493       -558.463          22.000  
  20565441.813     -808629.341        2541.412          44.000  
  23239283.622     -151246.958         238.221          46.000  
  21449331.481     -210094.018        4993.916          42.000  
 15  4  3 19 49  4.9990000  0  7G 3G23G 7G32G16G 8G 9
  20703868.475      -26765.392         645.992          45.000  
  20321750.063    -1099734.891        3743.105          46.000  
  22348886.192     -174460.089        4980.615          45.000  
  23964042.556        2733.8803       -559.228          23.000  
  20564958.878     -811169.271        2538.110          44.000  
  23239238.740     -151483.949         235.388          46.000  
  21448381.893     -215086.478        4991.302          42.000  
 15  4  3 19 49  5.9990000  0  7G 3G23G 7G32G16G 8G 9
  20703746.097      -27409.977         643.516          45.000  
  20321037.920    -1103476.408        3740.501          46.000  
  22347938.872     -179439.325        4978.203          45.000  
  23964123.612        3293.7463       -566.541          23.000  
  20564476.694     -813705.564        2534.949          44.000  
  23239194.399     -151718.030         233.171          46.000  
  21447431.815     -220075.911        4988.976          42.000  
 15  4  3 19 49  6.9990000  0  7G 3G23G 7G32G16G 8G 9
  20703623.840      -28052.600         641.887          45.000  
  20320326.579    -1107216.204        3739.004          46.000  
  22346992.355     -184416.889        4976.986          46.000  
  23964215.260        3858.9593       -565.313          23.000  
  20563994.806     -816239.718        2533.209          44.000  
  23239150.250     -151950.632         231.956          46.000  
  21446482.803     -225063.739        4987.249          42.000  
 15  4  3 19 49  7.9990000  0  7G 3G23G 7G32G16G 8G 9
  20703502.369      -28693.952         639.840          45.000  
  20319614.994    -1110954.957        3737.398          46.000  
  22346045.331     -189393.423        4975.088          46.000  
  23964318.740        4422.4593       -565.161          23.000  
  20563512.761     -818772.384        2531.201          44.000  
  23239106.118     -152182.458         230.740          46.000  
  21445533.947     -230050.681        4985.776          42.000  
 15  4  3 19 49  8.9990000  0  7G 3G23G 7G32G16G 8G 9
  20703381.195      -29332.064         636.072          46.000  
  20318903.706    -1114690.702        3734.044          45.000  
  22345099.477     -194367.016        4971.773          46.000  
  23964424.122        4988.4973       -574.892          23.000  
  20563032.148     -821301.608        2527.337          44.000  
  23239062.580     -152411.522         227.587          46.000  
  21444585.266     -235034.743        4982.301          42.000  
 15  4  3 19 49  9.9990000  0  7G 3G23G 7G32G16G 8G 9
  20703260.701      -29966.582         632.528          46.000  
  20318193.726    -1118423.070        3730.390          45.000  
  22344153.379     -199337.269        4968.252          46.000  
  23964531.982        5560.2233       -571.779          24.000  
  20562551.551     -823827.017        2523.285          44.000  
  23239019.845     -152637.454         224.240          46.000  
  21443636.882     -240015.584        4978.975          42.000  
 15  4  3 19 49 10.9990000  0  7G 3G23G 7G32G16G 8G 9
  20703140.696      -30598.460         631.073          46.000  
  20317483.223    -1122153.048        3729.448          45.000  
  22343208.310     -204305.179        4967.632          46.000  
  23964639.458        6133.9713       -573.539          23.000  
  20562071.949     -826349.572        2521.704          45.000  
  23238977.179     -152861.243         223.467          46.000  
  21442689.265     -244994.131        4978.019          42.000  
 15  4  3 19 49 11.9990000  0  7G 3G23G 7G32G16G 8G 9
  20703021.023      -31228.684         629.490          46.000  
  20316773.488    -1125881.593        3727.800          45.000  
  22342262.944     -209271.684        4965.857          46.000  
  23964746.183        6707.1673       -569.601          22.000  
  20561591.684     -828870.272        2519.763          45.000  
  23238935.054     -153083.863         222.038          46.000  
  21441741.963     -249971.419        4976.923          42.000  
 15  4  3 19 49 12.9990000  0  7G 3G23G 7G32G16G 8G 9
  20702901.157      -31855.967         625.501          46.000  
  20316064.573    -1129607.449        3724.334          45.000  
  22341318.329     -214235.530        4962.112          46.000  
  23964853.328        7280.1333       -571.741          22.000  
  20561111.734     -831387.820        2515.619          44.000  
  23238892.720     -153304.027         218.479          46.000  
  21440795.585     -254946.153        4973.366          42.000  
 15  4  3 19 49 13.9990000  0  7G 3G23G 7G32G16G 8G 9
  20702782.583      -32479.177         620.773          46.000  
  20315356.181    -1133329.445        3719.937          45.000  
  22340373.958     -219195.567        4957.889          46.000  
  23964962.200        7860.9973       -594.181          21.000  
  20560633.912     -833901.080        2510.791          44.000  
  23238852.165     -153520.596         214.688          46.000  
  21439849.661     -259917.153        4968.923          42.000  
 15  4  3 19 49 14.9990000  0  7G 3G23G 7G32G16G 8G 9
  20702664.689      -33098.849         618.636          46.000  
  20314649.186    -1137048.109        3717.537          45.000  
  22339430.966     -224152.322        4955.647          46.000  
  23965070.496        8445.3933       -583.770          20.000  
  20560156.177     -836410.578        2508.350          45.000  
  23238811.873     -153734.075         212.397          46.000  
  21438904.243     -264884.983        4967.277          42.000  
 15  4  3 19 49 15.9990000  0  8G 3G23G10G 7G32G16G 8G 9
  20702547.197      -33716.504         616.691          46.000  
  20313941.859    -1140765.049        3716.285          45.000  
  23406148.223        -839.1663       5831.360          31.000  
  22338487.974     -229107.383        4954.385          45.000  
  23965179.961        9032.7353       -585.782          19.000  
  20559678.512     -838917.884        2506.341          44.000  
  23238771.022     -153946.085         211.444          46.000  
  21437958.930     -269851.177        4965.390          42.000  
 15  4  3 19 49 16.9990000  0  8G 3G23G10G 7G32G16G 8G 9
  20702429.408      -34332.363         614.353          46.000  
  20313234.881    -1144480.368        3713.801          45.000  
  23405035.335       -6671.3813       5830.603          30.000  
  22337544.894     -234060.875        4952.200          45.000  
  23965291.014        9617.0773       -591.147          19.000  
  20559201.528     -841423.146        2503.406          44.000  
  23238731.166     -154156.715         209.095          46.000  
  21437013.931     -274815.908        4963.114          42.000  
 15  4  3 19 49 17.9990000  0  8G 3G23G10G 7G32G16G 8G 9
  20702312.980      -34944.837         610.709          46.000  
  20312528.286    -1148192.559        3710.446          45.000  
  23403935.239      -12500.4033       5827.161          30.000  
  22336603.001     -239011.259        4948.498          45.000  
  23965402.800       10206.2763       -585.280          19.000  
  20558725.591     -843924.841        2499.792          44.000  
  23238691.519     -154364.481         206.113          46.000  
  21436069.595     -279777.650        4959.938          42.000  
 15  4  3 19 49 18.9990000  0  8G 3G23G10G 7G32G16G 8G 9
  20702196.884      -35553.855         607.792          45.000  
  20311823.036    -1151901.518        3708.075          45.000  
  23402836.643      -18326.1093       5824.627          29.000  
  22335661.754     -243958.489        4946.518          45.000  
  23965512.387       10796.8013       -592.927          18.000  
  20558250.474     -846422.859        2496.790          45.000  
  23238652.971     -154569.271         203.929          46.000  
  21435126.463     -284736.321        4957.688          42.000  
 15  4  3 19 49 19.9990000  0  8G 3G23G10G 7G32G16G 8G 9
  20702081.433      -36160.885         606.498          45.000  
  20311117.698    -1155608.716        3706.633          45.000  
  23401747.278      -24149.9333       5823.047          29.000  
  22334720.995     -248903.972        4945.012          45.000  
  23965625.413       11391.2223       -595.897          19.000  
  20557775.479     -848918.681        2495.148          45.000  
  23238613.830     -154772.545         202.960          46.000  
  21434184.238     -289693.343        4956.472          42.000  
 15  4  3 19 49 20.9990000  0  8G 3G23G10G 7G32G16G 8G 9
  20701966.401      -36766.225         603.695          45.000  
  20310412.884    -1159314.467        3704.206          45.000  
  23400644.878      -29972.3163       5820.911          28.000  
  22333780.149     -253848.041        4942.625          45.000  
  23965734.529       11988.2093       -602.071          19.000  
  20557300.728     -851412.586        2492.053          44.000  
  23238575.004     -154974.612         200.716          46.000  
  21433240.496     -294649.043        4954.182          42.000  
 15  4  3 19 49 21.9990000  0  8G 3G23G10G 7G32G16G 8G 9
  20701851.980      -37368.056         600.439          45.000  
  20309708.820    -1163016.917        3701.166          45.000  
  23399533.020      -35791.2833       5817.504          28.000  
  22332839.617     -258788.869        4939.571          45.000  
  23965848.095       12588.0603       -604.082          20.000  
  20556826.641     -853902.794        2488.910          44.000  
  23238537.346     -155173.654         197.913          46.000  
  21432298.027     -299601.612        4951.439          41.000  
 15  4  3 19 49 22.9990000  0  8G 3G23G10G 7G32G16G 8G 9
  20701737.960      -37965.902         595.780          45.000  
  20309005.262    -1166715.635        3696.888          45.000  
  23398419.679      -41606.5433       5813.757          28.000  
  22331900.482     -263725.992        4935.162          44.000  
  23965958.747       13191.5383       -600.811          21.000  
  20556353.181     -856388.785        2483.752          44.000  
  23238500.491     -155369.197         193.762          46.000  
  21431356.256     -304550.560        4947.331          42.000  
 15  4  3 19 49 23.9990000  0  8G 3G23G10G 7G32G16G 8G 9
  20701624.150      -38561.493         594.817          45.000  
  20308301.774    -1170412.313        3696.101          45.000  
  23397308.606      -47419.6213       5812.659          28.000  
  22330961.276     -268661.131        4934.458          44.000  
  23966073.709       13795.9803       -603.813          22.000  
  20555880.438     -858872.323        2482.709          44.000  
  23238463.584     -155562.952         193.312          46.000  
  21430415.585     -309497.630        4946.833          41.000  
 15  4  3 19 49 24.9990000  0  8G 3G23G10G 7G32G16G 8G 9
  20701510.828      -39156.606         595.285          45.000  
  20307597.884    -1174108.735        3696.644          45.000  
  23396203.466      -53232.3393       5813.043          27.000  
  22330022.105     -273596.037        4934.766          44.000  
  23966185.390       14398.2053       -609.216          22.000  
  20555407.676     -861355.142        2482.739          44.000  
  23238426.694     -155756.704         193.957          46.000  
  21429474.180     -314444.550        4947.164          41.000  
 15  4  3 19 49 25.9990000  0  8G 3G23G10G 7G32G16G 8G 9
  20701397.629      -39751.130         594.040          45.000  
  20306894.379    -1177804.819        3695.678          45.000  
  23395095.081      -59044.6733       5811.780          28.000  
  22329083.127     -278530.640        4933.920          44.000  
  23966300.422       15005.8173       -614.952          23.000  
  20554935.264     -863837.176        2481.213          44.000  
  23238389.909     -155950.365         193.434          46.000  
  21428532.828     -319391.279        4946.636          41.000  
 15  4  3 19 49 26.9990000  0  8G 3G23G10G 7G32G16G 8G 9
  20701284.953      -40344.265         592.063          45.000  
  20306191.606    -1181499.725        3693.739          46.000  
  23393981.582      -64855.8042       5811.633          29.000  
  22328144.584     -283464.138        4932.730          44.000  
  23966413.813       15611.6733       -602.927          24.000  
  20554463.148     -866317.627        2479.321          44.000  
  23238353.264     -156143.113         191.804          46.000  
  21427591.947     -324336.977        4945.041          41.000  
 15  4  3 19 49 27.9990000  0  9G 3G23G10G 7G32G30G16G 8G 9
  20701171.683      -40935.846         591.703          45.000  
  20305489.235    -1185193.331        3693.806          46.000  
  23392867.264      -70665.4953       5808.783          29.000  
  22327205.693     -288396.330        4932.439          44.000  
  23966527.310       16218.2043       -606.049          25.000  
  24949142.527       -8354.3153       5731.539          26.000  
  20553991.539     -868796.293        2478.619          44.000  
  23238316.915     -156334.803         192.079          46.000  
  21426651.730     -329281.479        4944.663          41.000  
 15  4  3 19 49 28.9990000  0  9G 3G23G10G 7G32G30G16G 8G 9
  20701059.391      -41527.134         591.747          45.000  
  20304786.358    -1188886.868        3694.192          45.000  
  23391760.676      -76475.0382       5809.802          30.000  
  22326267.325     -293328.493        4932.639          44.000  
  23966643.772       16824.7493       -605.813          26.000  
  24948058.310      -14085.4403       5731.886          26.000  
  20553519.475     -871274.453        2478.192          44.000  
  23238280.130     -156526.653         192.303          46.000  
  21425710.622     -334226.053        4944.872          41.000  
 15  4  3 19 49 29.9990000  0  9G 3G23G10G 7G32G30G16G 8G 9
  20700946.733      -42117.548         589.110          45.000  
  20304083.917    -1192579.735        3691.592          46.000  
  23390657.211      -82283.9182       5807.739          30.000  
  22325328.660     -298260.072        4930.752          44.000  
  23966758.961       17431.5193       -607.888          26.000  
  24946954.898      -19816.2433       5729.745          25.000  
  20553047.988     -873751.545        2475.739          44.000  
  23238243.816     -156718.119         190.336          46.000  
  21424770.055     -339170.124        4942.613          41.000  
 15  4  3 19 49 30.9990000  0  8G 3G23G 7G32G30G16G 8G 9
  20700834.929      -42705.161         585.979          45.000  
  20303382.121    -1196270.045        3689.029          46.000  
  22324390.920     -303189.085        4927.577          44.000  
  23966872.632       18040.9013       -610.138          27.000  
  24945857.959      -25545.1263       5728.439          25.000  
  20552576.937     -876225.618        2472.614          44.000  
  23238207.258     -156907.271         187.949          46.000  
  21423828.913     -344111.766        4940.415          40.000  
 15  4  3 19 49 31.9990000  0  9G 3G23G 7G27G32G30G16G 8G 9
  20700723.719      -43290.197         584.616          45.000  
  20302680.186    -1199957.997        3687.568          46.000  
  22323453.302     -308115.797        4926.190          44.000  
  24488376.193      -15159.5103       5259.756          21.000  
  23966984.139       18652.4053       -612.406          27.000  
  24944756.449      -31271.0613       5725.444          25.000  
  20552106.043     -878696.878        2470.612          44.000  
  23238171.886     -157094.303         186.622          45.000  
  21422887.578     -349051.181        4939.251          40.000  
 15  4  3 19 49 32.9990000  0  9G 3G23G 7G27G32G30G16G 8G 9
  20700612.840      -43874.436         584.357          45.000  
  20301978.740    -1203645.410        3687.857          46.000  
  22322515.772     -313042.025        4926.718          44.000  
  24487370.886      -20418.1773       5259.042          21.000  
  23967098.071       19264.2353       -611.862          28.000  
  24943668.027      -36996.5783       5726.376          25.000  
  20551635.690     -881167.155        2470.441          44.000  
  23238135.834     -157281.057         187.197          45.000  
  21421947.779     -353990.167        4939.127          40.000  
 15  4  3 19 49 33.9990000  0  9G 3G23G 7G27G32G30G16G 8G 9
  20700501.996      -44459.098         584.391          45.000  
  20301277.293    -1207333.449        3688.006          46.000  
  22321578.451     -317968.918        4927.039          44.000  
  24486363.852      -25678.9433       5253.764          21.000  
  23967209.543       19875.2573       -611.312          28.000  
  24942569.187      -42722.9973       5726.292          24.000  
  20551165.389     -883637.616        2469.989          44.000  
  23238099.677     -157468.696         187.720          45.000  
  21421008.347     -358929.962        4939.690          39.000  
 15  4  3 19 49 34.9990000  0  9G 3G23G 7G27G32G30G16G 8G 9
  20700390.891      -45042.840         582.844          45.000  
  20300575.655    -1211020.815        3686.767          46.000  
  22320640.275     -322895.178        4925.846          43.000  
  24485368.386      -30933.0803       5256.761          19.000  
  23967325.046       20486.7163       -611.811          27.000  
  24941476.978      -48448.8113       5719.276          23.000  
  20550695.821     -886106.989        2468.512          44.000  
  23238063.869     -157655.903         186.569          45.000  
  21420067.972     -363869.173        4938.242          39.000  
 15  4  3 19 49 35.9990000  0  9G 3G23G 7G27G32G30G16G 8G 9
  20700280.274      -45624.892         581.083          45.000  
  20299874.802    -1214706.702        3685.128          46.000  
  22319703.582     -327819.985        4923.808          43.000  
  24484365.959      -36191.4453       5259.143          18.000  
  23967438.525       21099.5483       -613.299          27.000  
  24940385.885      -54175.9393       5723.414          23.000  
  20550226.916     -888574.417        2466.467          44.000  
  23238028.707     -157841.892         185.208          45.000  
  21419127.667     -368807.083        4937.411          39.000  
 15  4  3 19 49 36.9990000  0 10G 3G23G10G 7G27G32G30G16G 8G 9
  20700169.657      -46206.659         581.505          45.000  
  20299173.338    -1218392.504        3685.438          46.000  
  23382924.513      -19166.4272       5801.385          32.000  
  22318765.668     -332744.800        4924.549          43.000  
  24483368.103      -41448.7323       5258.987          17.000  
  23967556.419       21712.1993       -612.707          27.000  
  24939286.207      -59900.8723       5724.841          22.000  
  20549758.046     -891041.367        2466.394          45.000  
  23237993.719     -158028.069         186.037          45.000  
  21418187.659     -373745.067        4937.624          38.000  
 15  4  3 19 49 37.9990000  0 10G 3G23G10G 7G27G32G30G16G 8G 9
  20700058.900      -46788.861         581.985          45.000  
  20298472.031    -1222079.014        3686.486          46.000  
  23381822.585      -24968.2842       5801.609          33.000  
  22317827.806     -337670.321        4925.500          43.000  
  24482365.029      -46708.6153       5261.796          16.000  
  23967673.178       22323.9923       -611.749          27.000  
  24938179.741      -65627.6003       5729.178          22.000  
  20549288.880     -893508.548        2466.705          45.000  
  23237958.051     -158215.179         187.039          45.000  
  21417247.842     -378683.867        4938.885          38.000  
 15  4  3 19 49 38.9990000  0  9G 3G23G10G 7G27G32G16G 8G 9
  20699948.912      -47370.309         580.253          45.000  
  20297770.585    -1225764.984        3684.925          46.000  
  23380717.340      -30769.6092       5800.320          32.000  
  22316890.502     -342595.373        4924.214          43.000  
  24481363.265      -51968.5933       5270.620          17.000  
  23967788.384       22936.1573       -612.836          27.000  
  20548820.341     -895974.759        2464.789          45.000  
  23237922.383     -158402.029         185.816          45.000  
  21416308.235     -383622.232        4937.082          38.000  
 15  4  3 19 49 39.9990000  0 10G 3G23G10G 7G27G32G30G16G 8G 9
  20699837.876      -47949.835         578.441          45.000  
  20297070.273    -1229449.243        3683.072          46.000  
  23379610.246      -36569.0822       5797.594          32.000  
  22315952.815     -347518.732        4922.181          43.000  
  24480359.999      -57230.9553       5251.958          17.000  
  23967904.865       23549.8943       -614.844          28.000  
  24935967.647      -77076.4193       5722.538          22.000  
  20548351.908     -898438.826        2462.762          46.000  
  23237886.662     -158587.414         184.613          45.000  
  21415368.820     -388559.065        4935.623          37.000  
 15  4  3 19 49 40.9990000  0 10G 3G23G10G 7G27G32G30G16G 8G 9
  20699728.114      -48527.687         577.538          45.000  
  20296369.018    -1233132.076        3682.578          46.000  
  23378507.741      -42367.1032       5797.508          33.000  
  22315016.087     -352440.701        4921.776          43.000  
  24479360.224      -62484.1383       5247.278          19.000  
  23968020.664       24164.8283       -615.350          27.000  
  24934871.983      -82799.6963       5731.724          22.000  
  20547884.277     -900901.008        2461.774          46.000  
  23237851.430     -158771.603         184.131          45.000  
  21414428.969     -393494.570        4934.782          37.000  
 15  4  3 19 49 41.9990000  0 10G 3G23G10G 7G27G32G30G16G 8G 9
  20699618.248      -49104.512         576.258          45.000  
  20295668.270    -1236814.109        3681.621          46.000  
  23377404.608      -48164.2182       5796.555          32.000  
  22314079.709     -357361.933        4920.661          43.000  
  24478359.716      -67733.9343       5252.628          19.000  
  23968136.429       24780.3413       -615.743          28.000  
  24933782.653      -88527.4243       5725.238          23.000  
  20547416.925     -903361.953        2460.150          46.000  
  23237816.390     -158955.274         183.361          45.000  
  21413488.507     -398429.445        4934.458          36.000  
 15  4  3 19 49 43.0000000  0 10G 3G23G10G 7G27G32G30G16G 8G 9
  20999301.604      -49679.624         573.644          45.000  
  20594760.360    -1240494.643        3679.170          47.000  
  23676094.768      -53959.7962       5794.479          33.000  
  22612937.774     -362281.691        4918.143          43.000  
  24777153.844      -72985.4333       5243.951          19.000  
  24268045.416       25397.2313       -617.498          28.000  
  25232485.953      -94248.5963       5717.933          24.000  
  20846741.679     -905820.959        2457.452          46.000  
  23537574.625     -159137.688         181.190          45.000  
  21712341.564     -403362.943        4931.646          36.000  
 15  4  3 19 49 44.0000000  0 10G 3G23G10G 7G27G32G30G16G 8G 9
  20999192.871      -50251.566         569.961          45.000  
  20594060.868    -1244172.252        3675.831          47.000  
  23674993.607      -59752.3382       5790.833          33.000  
  22612002.896     -367198.589        4915.134          43.000  
  24776152.777      -78239.4423       5253.609          19.000  
  24268163.066       26016.9053       -621.270          28.000  
  25231398.647      -99968.7323       5718.515          24.000  
  20846274.659     -908276.589        2453.540          46.000  
  23537539.969     -159317.435         178.089          45.000  
  21711401.853     -408293.626        4928.173          35.000  
 15  4  3 19 49 45.0000000  0 10G 3G23G10G 7G27G32G30G16G 8G 9
  20999084.470      -50820.326         567.823          45.000  
  20593361.690    -1247846.890        3673.893          47.000  
  23673892.131      -65541.8552       5788.762          33.000  
  22611067.547     -372112.544        4913.267          43.000  
  24775153.944      -83489.4683       5242.627          19.000  
  24268279.686       26639.2993       -623.018          29.000  
  25230310.137     -105685.1273       5715.854          25.000  
  20845808.302     -910728.782        2451.141          47.000  
  23537506.238     -159494.462         176.444          45.000  
  21710463.101     -413221.510        4926.741          35.000  
 15  4  3 19 49 46.0000000  0 10G 3G23G10G 7G27G32G30G16G 8G 9
  20998976.297      -51387.517         566.813          45.000  
  20592663.106    -1251520.206        3673.070          47.000  
  23672791.075      -71329.9652       5787.951          33.000  
  22610133.210     -377025.206        4912.295          43.000  
  24774156.071      -88733.7613       5245.221          20.000  
  24268396.811       27262.8232       -623.247          29.000  
  25229224.385     -111397.5243       5713.981          25.000  
  20845342.363     -913179.232        2449.976          47.000  
  23537472.437     -159670.412         175.799          45.000  
  21709524.349     -418148.196        4926.259          35.000  
 15  4  3 19 49 47.0000000  0 10G 3G23G10G 7G27G32G30G16G 8G 9
  20998869.065      -51953.416         564.966          45.000  
  20591964.417    -1255192.458        3671.589          47.000  
  23671691.170      -77116.8992       5785.573          33.000  
  22609197.931     -381936.851        4910.727          42.000  
  24773158.878      -93984.0363       5246.816          20.000  
  24268515.630       27887.3182       -625.925          30.000  
  25228139.574     -117110.1483       5711.550          25.000  
  20844876.338     -915628.167        2448.010          47.000  
  23537439.456     -159845.556         174.430          45.000  
  21708585.876     -423073.912        4923.866          35.000  
 15  4  3 19 49 48.0000000  0 10G 3G23G10G 7G27G32G30G16G 8G 9
  20998762.287      -52516.643         561.952          45.000  
  20591266.687    -1258862.251        3668.601          47.000  
  23670592.243      -82901.3772       5783.813          33.000  
  22608262.826     -386846.072        4907.763          41.000  
  24772162.942      -99231.4053       5247.878          19.000  
  24268635.687       28514.0032       -628.551          30.000  
  25227051.379     -122820.4163       5709.549          25.000  
  20844410.941     -918074.209        2444.550          46.000  
  23537406.510     -160018.491         171.897          44.000  
  21707649.113     -427997.336        4921.387          35.000  
 15  4  3 19 49 49.0000000  0 10G 3G23G10G 7G27G32G30G16G 8G 9
  20998655.893      -53077.207         559.994          45.000  
  20590568.853    -1262529.619        3666.809          47.000  
  23669493.089      -88683.3702       5782.139          32.000  
  22607328.716     -391752.943        4906.492          41.000  
  24771164.824     -104471.5943       5241.679          19.000  
  24268756.670       29142.961        -629.753          30.000  
  25225965.731     -128528.3893       5706.826          25.000  
  20843946.224     -920517.411        2442.670          46.000  
  23537373.442     -160189.274         170.373          44.000  
  21706712.647     -432918.562        4921.539          35.000  
 15  4  3 19 49 50.0000000  0  9G 3G23G10G 7G27G32G16G 8G 9
  20998548.993      -53638.038         561.630          45.000  
  20589870.739    -1266197.475        3668.803          47.000  
  23668393.830      -94465.6862       5782.982          32.000  
  22606394.972     -396660.299        4908.294          40.000  
  24770166.637     -109718.5633       5246.791          18.000  
  24268876.884       29771.248        -627.021          30.000  
  20843481.018     -922960.622        2443.744          46.000  
  23537340.286     -160360.777         172.416          44.000  
  21705775.292     -437840.254        4921.892          35.000  
 15  4  3 19 49 51.0000000  0  9G 3G23G10G 7G27G32G16G 8G 9
  20998442.006      -54200.453         562.741          45.000  
  20589172.958    -1269867.129        3669.971          47.000  
  23667294.571     -100249.7442       5784.416          31.000  
  22605461.089     -401569.515        4909.567          40.000  
  24769165.815     -114966.9233       5247.826          18.000  
  24268998.949       30397.553        -625.828          31.000  
  20843015.133     -925405.215        2444.751          46.000  
  23537307.410     -160534.344         174.030          44.000  
  21704837.779     -442764.015        4924.664          35.000  
 15  4  3 19 49 52.0000000  0  9G 3G23G10G 7G27G32G16G 8G 9
  20998335.176      -54761.615         559.825          45.000  
  20588474.966    -1273535.787        3667.374          47.000  
  23666195.975     -106032.7782       5780.758          31.000  
  22604527.484     -406477.786        4907.211          40.000  
  24768166.737     -120212.0383       5245.072          17.000  
  24269110.002       31024.717        -629.079          30.000  
  20842549.578     -927848.369        2441.669          46.000  
  23537274.377     -160707.166         171.585          44.000  
  21703900.876     -447686.852        4921.004          34.000  
 15  4  3 19 49 53.0000000  0  9G 3G23G10G 7G27G32G16G 8G 9
  20998228.974      -55319.904         557.160          45.000  
  20587777.010    -1277201.767        3664.927          47.000  
  23665095.756     -111813.0542       5779.149          31.000  
  22603593.776     -411383.422        4904.963          40.000  
  24767169.806     -125454.0333       5236.359          18.000  
  24269232.939       31654.271        -630.076          30.000  
  20842085.071     -930288.420        2438.861          46.000  
  23537241.692     -160877.572         169.573          44.000  
  21702964.498     -452607.177        4919.144          35.000  
 15  4  3 19 49 54.0000000  0  9G 3G23G10G 7G27G32G16G 8G 9
  20998122.894      -55877.181         556.760          45.000  
  20587080.397    -1280866.976        3664.788          47.000  
  23663995.869     -117592.5272       5778.669          31.000  
  22602660.939     -416288.306        4904.518          38.000  
  24766172.474     -130697.9883       5252.685          19.000  
  24269355.195       32284.508        -630.448          30.000  
  20841620.127     -932727.240        2438.098          46.000  
  23537209.078     -161047.449         169.555          44.000  
  21702026.845     -457526.812        4919.025          33.000  
 15  4  3 19 49 55.0000000  0  9G 3G23G10G 7G27G32G16G 8G 9
  20998016.761      -56435.673         560.534          45.000  
  20586381.883    -1284533.608        3668.954          48.000  
  23662895.632     -123373.277        5782.667          31.000  
  22601727.196     -421194.704        4909.037          39.000  
  24765174.444     -135940.6443       5244.414          20.000  
  24269467.365       32913.036        -625.469          30.000  
  20841155.288     -935167.071        2441.931          46.000  
  23537175.975     -161219.016         174.002          44.000  
  21701091.112     -462448.056        4923.561          34.000  
 15  4  3 19 49 56.0000000  0  9G 3G23G10G 7G27G32G16G 8G 9
  20997910.437      -56994.595         557.465          45.000  
  20585684.450    -1288200.919        3666.195          48.000  
  23661796.216     -129154.6351       5779.810          29.000  
  22600793.435     -426101.770        4905.614          38.000  
  24764177.460     -141181.8193       5245.830          19.000  
  24269591.575       33540.832        -629.216          29.000  
  20840690.676     -937607.134        2438.599          46.000  
  23537142.802     -161391.512         171.654          44.000  
  21700154.856     -467370.098        4920.562          37.000  
 15  4  3 19 49 57.0000000  0  9G 3G23G10G 7G27G32G16G 8G 9
  20997804.357      -57551.386         555.840          45.000  
  20584987.087    -1291866.304        3664.532          47.000  
  23660698.859     -134934.1011       5778.923          28.000  
  22599859.987     -431006.992        4904.712          38.000  
  24763180.372     -146427.8263       5242.807          18.000  
  24269707.881       34170.3541       -631.297          28.000  
  20840227.164     -940044.845        2436.700          46.000  
  23537110.449     -161562.342         170.117          44.000  
  21699218.983     -472290.341        4918.912          36.000  
 15  4  3 19 49 58.0000000  0  9G 3G23G10G 7G27G32G16G 8G 9
  20997698.679      -58107.982         557.135          45.000  
  20584289.165    -1295531.727        3665.959          48.000  
  23659594.487     -140713.3271       5779.828          27.000  
  22598926.523     -435912.254        4905.907          37.000  
  24762180.405     -151671.6643       5236.428          17.000  
  24269827.712       34799.5751       -629.054          28.000  
  20839762.621     -942482.131        2437.738          46.000  
  23537077.468     -161733.456         171.771          44.000  
  21698282.761     -477210.778        4920.500          36.000  
 15  4  3 19 49 59.0000000  0  9G 3G23G10G 7G27G32G16G 8G 9
  20997592.198      -58666.454         558.272          45.000  
  20583591.139    -1299199.245        3667.285          48.000  
  23658462.649     -146494.7091       5781.337          26.000  
  22597992.779     -440819.681        4907.219          37.000  
  24761184.260     -156914.2823       5252.187          17.000  
  24269945.920       35426.5161       -626.645          28.000  
  20839298.655     -944921.085        2438.538          46.000  
  23537044.697     -161906.924         173.481          44.000  
  21697346.505     -482133.494        4922.801          36.000  
 15  4  3 19 50  0.0000000  0  8G 3G23G10G 7G32G16G 8G 9
  20997485.699      -59224.268         556.548          44.000  
  20582893.497    -1302866.340        3665.917          47.000  
  23657325.820     -152275.4303       5778.170          24.000  
  22597059.001     -445726.706        4905.967          35.000  
  24270066.221       36053.8001       -629.002          27.000  
  20838834.741     -947359.166        2436.670          46.000  
  23537011.035     -162080.217         172.147          44.000  
  21696409.847     -487055.827        4921.593          35.000  
 15  4  3 19 50  1.0000000  0  8G 3G23G10G 7G32G16G 8G 9
  20997379.968      -59778.363         551.749          45.000  
  20582195.959    -1306529.959        3661.642          47.000  
  23656223.699     -158053.7023       5774.867          23.000  
  22596126.164     -450630.320        4901.692          36.000  
  24270183.609       36684.2601       -632.465          27.000  
  20838371.699     -949793.354        2432.147          46.000  
  23536978.159     -162250.289         168.155          43.000  
  21695474.603     -491974.851        4916.889          36.000  
 15  4  3 19 50  2.0000000  0  7G 3G23G 7G32G16G 8G 9
  20997275.284      -60329.416         550.454          45.000  
  20581499.451    -1310190.740        3660.342          47.000  
  22595193.363     -455531.140        4900.569          35.000  
  24270302.759       37317.4611       -634.024          27.000  
  20837908.623     -952224.247        2430.225          46.000  
  23536945.318     -162417.781         166.980          43.000  
  21694539.742     -496891.201        4915.507          36.000  
 15  4  3 19 50  3.0000000  0  7G 3G23G 7G32G16G 8G 9
  20997170.565      -60880.006         551.001          45.000  
  20580802.926    -1313851.299        3661.102          48.000  
  22594260.230     -460431.778        4901.523          35.000  
  24270425.364       37950.6761       -632.584          27.000  
  20837446.559     -954654.460        2430.377          46.000  
  23536912.686     -162585.290         167.918          42.000  
  21693605.841     -501807.438        4916.596          37.000  
 15  4  3 19 50  4.0000000  0  8G 3G23G 7G27G32G16G 8G 9
  20997065.725      -61430.108         550.022          45.000  
  20580106.069    -1317511.570        3660.200          47.000  
  22593327.760     -465332.155        4900.872          34.000  
  24756193.829       -9328.0653       5238.374          26.000  
  24270546.800       38584.0581       -634.492          27.000  
  20836984.250     -957083.982        2429.413          46.000  
  23536881.066     -162752.802         167.720          43.000  
  21692670.824     -506723.544        4915.806          37.000  
 15  4  3 19 50  5.0000000  0  8G 3G23G 7G27G32G16G 8G 9
  20996961.285      -61978.609         547.545          45.000  
  20579409.561    -1321170.494        3657.748          47.000  
  22592395.796     -470231.232        4898.483          34.000  
  24755206.879      -14564.6403       5234.892          26.000  
  24270667.364       39218.4621       -635.021          27.000  
  20836522.465     -959511.690        2426.367          46.000  
  23536848.853     -162919.193         165.551          42.000  
  21691736.661     -511638.444        4913.732          38.000  
 15  4  3 19 50  6.0000000  0  8G 3G23G 7G27G32G16G 8G 9
  20996857.317      -62524.154         544.122          45.000  
  20578713.611    -1324826.668        3654.994          47.000  
  22591464.915     -475127.562        4894.954          34.000  
  24754210.193      -19798.8263       5231.733          26.000  
  24270786.898       39855.5391       -638.891          27.000  
  20836060.854     -961936.228        2423.218          45.000  
  23536817.984     -163083.072         162.917          42.000  
  21690803.336     -516550.732        4911.522          39.000  
 15  4  3 19 50  7.0000000  0  8G 3G23G 7G27G32G16G 8G 9
  20996754.186      -63066.046         540.124          45.000  
  20578018.883    -1328479.416        3651.188          47.000  
  22590534.905     -480020.521        4891.975          34.000  
  24753216.769      -25029.8333       5229.701          27.000  
  24270909.905       40495.8271       -641.258          27.000  
  20835599.750     -964356.889        2418.872          45.000  
  23536787.359     -163243.798         159.270          42.000  
  21689871.163     -521459.732        4907.769          39.000  
 15  4  3 19 50  8.0000000  0  8G 3G23G 7G27G32G16G 8G 9
  20996651.613      -63603.162         533.920          45.000  
  20577324.085    -1332127.589        3644.902          47.000  
  22589606.833     -484908.945        4885.022          34.000  
  24752221.985      -30256.3993       5223.190          28.000  
  24271035.476       41140.4341       -647.257          28.000  
  20835140.146     -966772.569        2412.415          45.000  
  23536757.292     -163400.213         153.258          42.000  
  21688938.414     -526364.270        4901.822          41.000  
 15  4  3 19 50  9.0000000  0  8G 3G23G 7G27G32G16G 8G 9
  20996551.624      -64132.594         525.054          46.000  
  20576630.439    -1335768.334        3636.706          47.000  
  22588679.685     -489790.025        4876.908          35.000  
  24751226.380      -35475.7743       5214.997          28.000  
  24271157.994       41792.4331       -656.339          28.000  
  20834681.973     -969180.361        2403.424          46.000  
  23536728.202     -163549.466         145.115          42.000  
  21688006.101     -531261.543        4892.920          38.000  
 15  4  3 19 50 10.0000000  0  8G 3G23G 7G27G32G16G 8G 9
  20996453.204      -64653.356         518.208          45.000  
  20575939.515    -1339400.587        3629.624          47.000  
  22587754.562     -494662.660        4869.771          36.000  
  24750234.824      -40686.9622       5208.829          30.000  
  24271282.746       42452.5631       -662.789          27.000  
  20834224.882     -971579.239        2396.167          45.000  
  23536701.434     -163690.507         138.640          42.000  
  21687075.568     -536150.451        4886.377          39.000  
 15  4  3 19 50 11.0000000  0  9G 3G23G 7G27G32G30G16G 8G 9
  20996355.099      -65168.927         513.928          46.000  
  20575249.377    -1343027.940        3625.803          47.000  
  22586830.329     -499530.428        4866.562          36.000  
  24749245.920      -45893.3952       5204.731          30.000  
  24271406.555       43117.5951       -667.510          27.000  
  25202185.988       -7922.1743       5669.694          26.000  
  20833769.676     -973972.768        2391.699          46.000  
  23536675.101     -163826.861         135.121          42.000  
  21686145.943     -541034.589        4882.581          39.000  
 15  4  3 19 50 12.0000000  0  9G 3G23G 7G27G32G30G16G 8G 9
  20996257.919      -65679.520         507.126          46.000  
  20574559.517    -1346650.494        3619.243          47.000  
  22585906.654     -504393.449        4859.794          37.000  
  24748255.393      -51095.2862       5198.732          30.000  
  24271533.436       43787.0931       -672.837          27.000  
  25201116.691      -13588.6313       5662.926          27.000  
  20833315.656     -976361.063        2384.772          46.000  
  23536650.200     -163958.664         128.464          42.000  
  21685217.434     -545914.112        4876.326          39.000  
 15  4  3 19 50 13.0000000  0  9G 3G23G 7G27G32G30G16G 8G 9
  20996161.751      -66182.597         499.869          46.000  
  20573871.368    -1350265.770        3612.221          47.000  
  22584983.275     -509249.193        4852.255          37.000  
  24747268.426      -56290.0843       5191.911          30.000  
  24271662.114       44463.7551       -679.750          26.000  
  25200033.102      -19247.9953       5656.659          26.000  
  20832862.491     -978741.626        2377.435          46.000  
  23536626.153     -164083.477         122.068          42.000  
  21684291.020     -550786.446        4869.570          39.000  
 15  4  3 19 50 14.0000000  0  9G 3G23G 7G27G32G30G16G 8G 9
  20996067.153      -66680.568         497.118          46.000  
  20573184.161    -1353876.145        3609.280          47.000  
  22584061.520     -514100.122        4849.361          37.000  
  24746280.203      -61480.2293       5189.627          30.000  
  24271791.018       45145.1041       -682.178          26.000  
  25198941.381      -24902.5833       5654.169          26.000  
  20832410.845     -981116.877        2374.097          46.000  
  23536603.416     -164203.629         119.370          42.000  
  21683365.198     -555654.027        4866.671          39.000  
 15  4  3 19 50 15.0000000  0  9G 3G23G 7G27G32G30G16G 8G 9
  20995972.783      -67177.341         496.861          46.000  
  20572497.181    -1357485.572        3609.458          47.000  
  22583138.648     -518950.139        4850.040          37.000  
  24745293.393      -66669.6632       5190.042          30.000  
  24271920.255       45827.1451       -681.174          26.000  
  25197857.915      -30556.2913       5653.771          26.000  
  20831959.006     -983490.722        2373.633          46.000  
  23536580.888     -164323.097         119.757          42.000  
  21682439.517     -560520.786        4867.374          40.000  
 15  4  3 19 50 16.0000000  0  9G 3G23G 7G27G32G30G16G 8G 9
  20995878.272      -67673.068         494.465          46.000  
  20571810.375    -1361094.176        3607.474          47.000  
  22582216.264     -523799.335        4847.060          37.000  
  24744307.107      -71858.4602       5187.436          30.000  
  24272049.386       46509.9431       -683.122          27.000  
  25196782.563      -36209.3433       5651.097          26.000  
  20831508.075     -985863.315        2371.130          46.000  
  23536558.080     -164441.990         117.904          42.000  
  21681514.359     -565386.866        4865.002          40.000  
 15  4  3 19 50 17.0000000  0  8G 3G23G 7G27G32G16G 8G 9
  20995784.355      -68165.274         489.493          46.000  
  20571124.442    -1364699.475        3602.267          47.000  
  22581293.950     -528645.337        4842.559          36.000  
  24743319.966      -77044.2192       5183.579          30.000  
  24272182.130       47195.8751       -688.542          27.000  
  20831058.156     -988232.171        2365.808          46.000  
  23536536.023     -164557.844         113.275          42.000  
  21680588.153     -570249.799        4860.090          39.000  
 15  4  3 19 50 18.0000000  0  8G 3G23G 7G27G32G16G 8G 9
  20995691.293      -68651.748         483.667          46.000  
  20570439.032    -1368299.292        3597.286          47.000  
  22580373.068     -533485.935        4838.762          36.000  
  24742324.710      -82224.7012       5179.162          29.000  
  24272313.094       47887.0601       -693.567          26.000  
  20830608.324     -990595.086        2360.071          46.000  
  23536515.013     -164668.461         108.428          42.000  
  21679663.746     -575107.350        4855.458          40.000  
 15  4  3 19 50 19.0000000  0  8G 3G23G 7G27G32G16G 8G 9
  20995599.610      -69132.741         478.915          46.000  
  20569755.210    -1371893.795        3592.439          47.000  
  22579453.005     -538321.171        4833.283          35.000  
  24741345.386      -87400.0863       5173.916          28.000  
  24272444.616       48583.3461       -697.862          26.000  
  20830159.714     -992952.274        2354.706          46.000  
  23536494.806     -164774.012         104.109          41.000  
  21678739.599     -579959.758        4850.531          39.000  
 15  4  3 19 50 20.0000000  0  8G 3G23G 7G27G32G16G 8G 9
  20995509.357      -69610.072         475.718          46.000  
  20569071.773    -1375484.887        3589.477          46.000  
  22578532.890     -543153.095        4830.342          35.000  
  24740356.639      -92572.3143       5171.527          27.000  
  24272574.446       49282.8601       -700.487          26.000  
  20829712.779     -995305.621        2351.477          46.000  
  23536476.064     -164876.430         101.015          43.000  
  21677816.343     -584808.884        4848.123          39.000  
 15  4  3 19 50 21.0000000  0  8G 3G23G 7G27G32G16G 8G 9
  20995418.686      -70084.292         472.612          46.000  
  20568388.980    -1379073.085        3586.617          47.000  
  22577612.792     -547982.168        4827.681          34.000  
  24739365.746      -97741.8103       5168.566          26.000  
  24272705.863       49985.1421       -704.297          25.000  
  20829265.652     -997655.624        2348.181          46.000  
  23536456.851     -164976.205          98.405          43.000  
  21676893.279     -589655.214        4844.549          39.000  
 15  4  3 19 50 22.0000000  0  8G 3G23G10G 7G27G16G 8G 9
  20995329.027      -70554.034         467.886          46.000  
  20567706.904    -1382657.041        3581.972          47.000  
  23633346.987       -4681.8013       5694.554          29.000  
  22576693.654     -552807.053        4823.317          34.000  
  24738380.280     -102907.3173       5164.443          25.000  
  20828819.415    -1000000.939        2343.115          46.000  
  23536439.070     -165071.986          93.997          42.000  
  21675971.018     -594497.486        4840.790          38.000  
 15  4  3 19 50 23.0000000  0  8G 3G23G10G 7G27G16G 8G 9
  20995240.292      -71021.501         467.205          46.000  
  20567025.194    -1386238.954        3582.042          47.000  
  23632268.371      -10375.7012       5693.174          30.000  
  22575775.633     -557629.839        4822.725          33.000  
  24737394.587     -108070.6953       5165.091          23.000  
  20828373.754    -1002343.780        2342.719          46.000  
  23536421.096     -165165.978          94.014          42.000  
  21675049.576     -599337.819        4840.545          38.000  
 15  4  3 19 50 24.0000000  0  8G 3G23G10G 7G27G16G 8G 9
  20995151.680      -71489.376         467.271          46.000  
  20566343.117    -1389821.479        3582.100          46.000  
  23631183.770      -16070.2832       5694.500          30.000  
  22574857.385     -562453.385        4823.764          34.000  
  24736410.325     -113234.1093       5165.429          22.000  
  20827927.936    -1004686.798        2342.407          46.000  
  23536403.192     -165260.848          94.312          43.000  
  21674128.257     -604178.935        4841.145          38.000  
 15  4  3 19 50 25.0000000  0  8G 3G23G10G 7G27G16G 8G 9
  20995064.185      -71954.944         463.900          47.000  
  20565661.058    -1393401.933        3578.764          46.000  
  23630099.606      -21762.6532       5690.659          32.000  
  22573939.434     -567274.869        4819.625          34.000  
  24735427.913     -118399.0323       5157.371          21.000  
  20827482.764    -1007027.309        2338.617          46.000  
  23536385.986     -165353.902          91.442          43.000  
  21673207.025     -609018.089        4837.678          38.000  
 15  4  3 19 50 26.0000000  0  8G 3G23G10G 7G27G16G 8G 9
  20994976.393      -72415.922         458.019          46.000  
  20564980.848    -1396978.033        3573.738          46.000  
  23629009.334      -27450.6482       5686.053          32.000  
  22573023.001     -572092.099        4814.996          35.000  
  24734447.437     -123556.7723       5151.931          21.000  
  20827037.992    -1009363.030        2333.215          46.000  
  23536369.513     -165442.861          86.715          42.000  
  21672286.439     -613852.988        4832.647          37.000  
 15  4  3 19 50 27.0000000  0  8G 3G23G10G 7G27G16G 8G 9
  20994889.072      -72874.993         458.153          47.000  
  20564300.848    -1400552.417        3573.553          46.000  
  23627934.400      -33136.7382       5684.918          32.000  
  22572106.899     -576907.588        4814.546          35.000  
  24733467.799     -128712.4353       5148.107          21.000  
  20826593.902    -1011696.572        2332.428          46.000  
  23536352.743     -165530.360          86.840          43.000  
  21671366.935     -618686.372        4833.097          38.000  
 15  4  3 19 50 28.0000000  0  8G 3G23G10G 7G27G16G 8G 9
  20994801.978      -73334.433         459.999          47.000  
  20563620.866    -1404127.391        3575.618          46.000  
  23626841.441      -38823.4492       5687.742          33.000  
  22571191.182     -581723.761        4817.400          35.000  
  24732490.046     -133869.6973       5158.226          21.000  
  20826149.933    -1014030.292        2334.131          46.000  
  23536335.503     -165618.701          89.063          42.000  
  21670446.977     -623520.484        4835.119          38.000  
 15  4  3 19 50 29.0000000  0  8G 3G23G10G 7G27G16G 8G 9
  20994713.837      -73794.222         459.215          47.000  
  20562940.569    -1407702.947        3575.121          47.000  
  23625763.454      -44510.6212       5686.968          34.000  
  22570274.661     -586540.524        4816.513          36.000  
  24731508.157     -139028.2653       5148.019          22.000  
  20825705.529    -1016364.165        2333.533          46.000  
  23536318.384     -165707.891          88.718          42.000  
  21669526.181     -628355.264        4834.467          37.000  
 15  4  3 19 50 30.0000000  0  8G 3G23G10G 7G27G16G 8G 9
  20994626.777      -74253.557         459.351          47.000  
  20562260.447    -1411278.258        3575.522          47.000  
  23624687.124      -50197.4822       5686.978          33.000  
  22569358.316     -591357.095        4816.498          36.000  
  24730528.049     -144185.9573       5153.366          22.000  
  20825261.368    -1018697.333        2333.167          46.000  
  23536301.230     -165797.080          89.377          42.000  
  21668606.031     -633189.956        4834.833          36.000  
 15  4  3 19 50 31.0000000  0  8G 3G23G10G 7G27G16G 8G 9
  20994538.741      -74715.559         464.421          46.000  
  20561579.539    -1414856.480        3580.770          46.000  
  23623618.089      -55887.1672       5691.698          33.000  
  22568441.900     -596176.614        4821.923          36.000  
  24729550.854     -149343.7743       5156.288          22.000  
  20824816.545    -1021032.965        2337.921          46.000  
  23536283.955     -165889.436          94.862          43.000  
  21667684.712     -638027.696        4840.100          36.000  
 15  4  3 19 50 32.0000000  0  8G 3G23G10G 7G27G16G 8G 9
  20994449.169      -75183.079         471.059          46.000  
  20560897.113    -1418440.412        3587.217          46.000  
  23622532.302      -61582.5282       5698.565          34.000  
  22567524.123     -601001.909        4828.782          36.000  
  24728567.831     -154512.5303       5180.521          22.000  
  20824370.622    -1023373.896        2344.024          45.000  
  23536265.318     -165987.773         101.922          43.000  
  21666763.114     -642871.283        4846.750          36.000  
 15  4  3 19 50 33.0000000  0 10G 3G23G10G 7G27G 6G30G16G 8G 9
  20994358.847      -75655.009         474.002          46.000  
  20560213.815    -1422028.991        3590.408          46.000  
  23621451.679      -67282.4652       5701.725          33.000  
  22566605.177     -605831.849        4831.814          35.000  
  24727587.844     -159683.5283       5174.145          22.000  
  24709937.402       -2732.3973       1866.772          28.000  
  25178559.841      -10006.3913       5627.563          25.000  
  20823924.176    -1025719.035        2347.003          45.000  
  23536246.018     -166091.032         105.444          43.000  
  21665839.317     -647719.667        4850.215          36.000  
 15  4  3 19 50 34.0000000  0 10G 3G23G10G 7G27G 6G30G16G 8G 9
  20994268.402      -76129.350         475.052          46.000  
  20559530.377    -1425620.218        3592.125          46.000  
  23620368.335      -72984.9862       5704.221          32.000  
  22565685.202     -610664.529        4833.919          35.000  
  24726602.046     -164860.7723       5175.523          22.000  
  24709573.391       -4599.9393       1868.576          29.000  
  25177476.741      -15644.0183       5638.786          25.000  
  20823477.502    -1028066.387        2348.218          45.000  
  23536225.636     -166197.169         107.207          43.000  
  21664915.275     -652570.843        4852.146          35.000  
 15  4  3 19 50 35.0000000  0 10G 3G23G10G 7G27G 6G30G16G 8G 9
  20994176.806      -76607.076         480.872          46.000  
  20558846.486    -1429215.037        3598.175          46.000  
  23619283.891      -78690.9192       5709.029          33.000  
  22564764.808     -615500.786        4839.734          35.000  
  24725617.627     -170039.4193       5180.875          23.000  
  24709205.558       -6470.9233       1874.536          28.000  
  25176384.724      -21286.0543       5645.304          26.000  
  20823030.271    -1030416.873        2353.534          46.000  
  23536203.858     -166307.179         113.567          43.000  
  21663991.461     -657425.705        4857.946          35.000  
 15  4  3 19 50 36.0000000  0  9G 3G23G10G 7G27G 6G16G 8G 9
  20994084.355      -77091.260         487.752          46.000  
  20558161.355    -1432816.526        3605.244          47.000  
  23618198.365      -84403.5132       5716.611          34.000  
  22563842.319     -620343.780        4847.064          35.000  
  24724631.829     -175222.5713       5194.722          25.000  
  24708843.850       -8348.3343       1881.223          28.000  
  20822582.167    -1032773.610        2360.370          46.000  
  23536181.731     -166424.096         120.777          43.000  
  21663066.425     -662287.454        4866.279          35.000  
 15  4  3 19 50 37.0000000  0  9G 3G23G10G 7G27G 6G16G 8G 9
  20993991.398      -77581.475         492.253          46.000  
  20557475.021    -1436424.283        3610.039          47.000  
  23617110.868      -90122.3122       5721.095          34.000  
  22562918.976     -625193.097        4851.248          32.000  
  24723645.072     -180415.2983       5194.498          25.000  
  24708482.403      -10231.8913       1885.678          28.000  
  20822132.440    -1035136.184        2364.410          46.000  
  23536158.959     -166547.553         125.600          43.000  
  21662140.254     -667155.474        4869.529          38.000  
 15  4  3 19 50 38.0000000  0 11G 3G23G10G 7G27G32G 6G30G16G 8G 9
  20993897.166      -78075.327         495.325          46.000  
  20556787.674    -1440035.862        3612.833          46.000  
  23616022.672      -95844.8642       5723.577          34.000  
  22561995.458     -630046.255        4853.717          34.000  
  24722655.051     -185611.9773       5197.479          26.000  
  24274968.162        1625.4943       -674.329          26.000  
  24708123.295      -12119.1143       1888.344          27.000  
  25173135.459       -9484.6983       5660.220          27.000  
  20821681.578    -1037502.148        2366.949          46.000  
  23536134.790     -166675.102         128.885          43.000  
  21661212.985     -672027.584        4873.694          35.000  
 15  4  3 19 50 39.0000000  0 11G 3G23G10G 7G27G32G 6G30G16G 8G 9
  20993802.586      -78571.688         498.431          46.000  
  20556100.258    -1443650.220        3616.640          46.000  
  23614933.901     -101570.1142       5727.176          34.000  
  22561070.893     -634902.243        4857.416          33.000  
  24721666.688     -190811.4823       5202.569          27.000  
  24275100.313        2298.3223       -669.987          26.000  
  24707760.907      -14008.8403       1891.656          25.000  
  25172058.588      -15146.8053       5664.256          27.000  
  20821230.892    -1039870.433        2369.971          46.000  
  23536110.081     -166805.670         132.770          43.000  
  21660284.912     -676902.561        4877.602          32.000  
 15  4  3 19 50 40.0000000  0 11G 3G23G10G 7G27G32G 6G30G16G 8G 9
  20993707.727      -79072.231         502.670          46.000  
  20555411.288    -1447268.955        3621.109          46.000  
  23613844.117     -107299.6322       5731.790          33.000  
  22560145.229     -639762.624        4861.673          32.000  
  24720676.598     -196015.7703       5206.868          27.000  
  24275228.868        2966.4823       -665.489          27.000  
  24707398.029      -15903.1643       1896.411          24.000  
  25170980.322      -20813.4733       5669.042          26.000  
  20820779.018    -1042242.681        2374.194          46.000  
  23536083.923     -166940.896         137.705          43.000  
  21659353.175     -681781.999        4881.043          33.000  
 15  4  3 19 50 41.0000000  0 11G 3G23G10G 7G27G32G 6G30G16G 8G 9
  20993611.594      -79575.591         503.226          46.000  
  20554722.354    -1450890.728        3621.749          46.000  
  23612753.967     -113032.1362       5733.133          33.000  
  22559216.581       -2542.1933       4863.246          33.000  
  24719683.366     -201223.3363       5208.170          28.000  
  24275359.291        3631.1753       -663.608          27.000  
  24707031.540      -17800.4693       1904.258          22.000  
  25169907.674      -26483.6303       5669.450          26.000  
  20820326.743    -1044617.542        2374.579          46.000  
  23536057.084     -167079.406         138.453          43.000  
  21658424.963     -686664.733        4882.797          33.000  
 15  4  3 19 50 42.0000000  0 11G 3G23G10G 7G27G32G 6G30G16G 8G 9
  20993515.565      -80078.687         503.006          46.000  
  20554032.878    -1454512.430        3621.532          46.000  
  23611663.765     -118764.4782       5731.741          33.000  
  22558291.597       -7405.7462       4864.209          32.000  
  24718691.444     -206431.0002       5207.433          30.000  
  24275481.059        4295.9893       -664.444          27.000  
  24706672.170      -19697.2333       1892.434          20.000  
  25168828.291      -32153.6633       5668.608          26.000  
  20819874.172    -1046991.885        2373.962          45.000  
  23536031.310     -167218.102         138.783          43.000  
  21657498.741     -691547.475        4883.015          34.000  
 15  4  3 19 50 43.0000000  0 11G 3G23G10G 7G27G32G 6G30G16G 8G 9
  20993419.851      -80581.969         505.050          46.000  
  20553343.211    -1458134.545        3623.834          46.000  
  23610573.632     -124497.696        5734.732          33.000  
  22557364.781      -12269.6922       4865.931          32.000  
  24717703.674     -211639.3872       5210.473          30.000  
  24275611.534        4960.1583       -662.411          28.000  
  24706309.712      -21591.5103       1896.847          19.000  
  25167753.567      -37824.1913       5671.759          26.000  
  20819422.473    -1049366.217        2375.806          45.000  
  23536004.716     -167357.507         141.550          43.000  
  21656568.627     -696430.782        4885.640          34.000  
 15  4  3 19 50 44.0000000  0 11G 3G23G10G 7G27G32G 6G30G16G 8G 9
  20993323.717      -81088.084         508.256          46.000  
  20552653.421    -1461759.743        3627.452          46.000  
  23609483.256     -130233.421        5738.424          32.000  
  22556433.864      -17136.7252       4869.360          32.000  
  24716709.256     -216850.9992       5214.064          30.000  
  24275738.537        5621.1013       -658.752          28.000  
  24705949.504      -23487.8973       1907.414          19.000  
  25166681.914      -43497.7953       5676.890          25.000  
  20818969.937    -1051743.174        2378.998          45.000  
  23535977.442     -167500.205         145.080          43.000  
  21655640.135     -701317.253        4888.405          34.000  
 15  4  3 19 50 45.0000000  0 10G 3G23G10G 7G27G32G 6G16G 8G 9
  20993226.380      -81597.287         509.770          46.000  
  20551963.352    -1465388.245        3629.199          46.000  
  23608391.203     -135972.347        5739.911          32.000  
  22555505.809      -22007.1752       4871.325          32.000  
  24715716.984     -222066.1302       5215.313          31.000  
  24275869.256        6278.4813       -656.702          28.000  
  24705582.142      -25393.6203       1911.119          18.000  
  20818516.807    -1054123.009        2380.347          45.000  
  23535949.800     -167646.488         147.177          43.000  
  21654705.170     -706207.181        4890.951          32.000  
 15  4  3 19 50 46.0000000  0 10G 3G23G10G 7G27G32G 6G16G 8G 9
  20993129.462      -82106.943         509.696          45.000  
  20551272.708    -1469017.390        3629.112          46.000  
  23607299.326     -141711.832        5738.625          32.000  
  22554579.203      -26878.3102       4871.261          32.000  
  24714724.433     -227282.2152       5216.350          31.000  
  24275995.072        6935.0653       -656.542          29.000  
  24705220.486      -27295.3243       1895.459          18.000  
  20818063.555    -1056503.058        2379.785          45.000  
  23535922.194     -167793.681         147.527          43.000  
  21653772.613     -711097.890        4890.481          31.000  
 15  4  3 19 50 47.0000000  0 10G 3G23G10G 7G27G32G 6G16G 8G 9
  20993032.595      -82616.852         511.249          45.000  
  20550581.714    -1472647.028        3631.134          46.000  
  23606209.246     -147451.762        5741.740          31.000  
  22553651.828      -31749.9502       4873.443          33.000  
  24713734.430     -232499.0072       5219.571          31.000  
  24276116.701        7591.0123       -654.965          29.000  
  24704858.743      -29194.4913       1904.409          17.000  
  20817610.687    -1058883.165        2381.421          45.000  
  23535894.117     -167941.605         149.344          42.000  
  21652833.826     -715989.2391       4892.799          30.000  
 15  4  3 19 50 48.0000000  0 10G 3G23G10G 7G27G32G 6G16G 8G 9
  20992935.642      -83129.982         515.797          45.000  
  20549890.458    -1476280.089        3635.756          46.000  
  23605117.473     -153195.076        5746.819          30.000  
  22552723.826      -36625.0732       4877.906          33.000  
  24712740.762     -237719.3892       5224.136          31.000  
  24276241.539        8243.2792       -649.735          30.000  
  24704496.372      -31099.6183       1907.755          16.000  
  20817157.016    -1061266.246        2385.437          45.000  
  23535865.132     -168093.237         154.359          42.000  
  21651901.217     -720884.1841       4897.968          29.000  
 15  4  3 19 50 49.0000000  0 10G 3G23G10G 7G27G32G 6G16G 8G 9
  20992836.961      -83648.140         520.057          45.000  
  20549197.999    -1479918.405        3640.319          46.000  
  23604023.903     -158943.485        5749.541          30.000  
  22551794.951      -41505.5032       4882.484          33.000  
  24711746.152     -242945.248        5228.446          31.000  
  24276363.516        8890.0812       -644.618          30.000  
  24704130.040      -33008.3143       1911.244          15.000  
  20816702.647    -1063654.170        2389.771          45.000  
  23535835.083     -168250.366         159.109          42.000  
  21650969.515     -725784.4181       4902.260          27.000  
 15  4  3 19 50 50.0000000  0 10G 3G23G10G 7G27G32G 6G16G 8G 9
  20992737.704      -84169.235         521.908          46.000  
  20548505.225    -1483559.882        3642.495          46.000  
  23602926.947     -164695.018        5752.654          30.000  
  22550865.081      -46389.1412       4884.996          34.000  
  24710750.391     -248174.466        5230.346          31.000  
  24276492.212        9533.5802       -642.200          30.000  
  24703765.644      -34921.4573       1915.085          14.000  
  20816247.336    -1066044.788        2391.284          45.000  
  23535804.597     -168410.927         161.740          42.000  
  21650028.809     -730688.0821       4905.394          26.000  
 15  4  3 19 50 51.0000000  0 11G 3G23G10G 7G27G32G 6G30G16G 8G 9
  20992638.535      -84691.979         523.995          46.000  
  20547812.068    -1487203.218        3644.595          46.000  
  23601833.010     -170448.3531       5755.005          29.000  
  22549934.897      -51274.6742       4886.787          34.000  
  24709754.210     -253405.788        5232.783          30.000  
  24276613.386       10175.0322       -639.930          31.000  
  24703403.622      -36813.5723       1915.085          11.000  
  25159127.628       -6701.0133       5694.363          27.000  
  20815791.798    -1068436.868        2393.317          45.000  
  23535773.204     -168573.595         164.090          42.000  
  21649094.559     -735593.5523       4906.036          26.000  
 15  4  3 19 50 52.0000000  0 10G 3G23G10G 7G27G32G30G16G 8G 9
  20992538.510      -85217.752         527.044          46.000  
  20547117.985    -1490849.809        3647.864          46.000  
  23600746.385     -176204.854        5758.097          29.000  
  22549004.102      -56163.4982       4889.674          34.000  
  24708760.211     -258640.6251       5236.417          29.000  
  24276734.229       10813.0392       -636.608          31.000  
  25158034.721      -12397.2893       5697.915          27.000  
  20815336.452    -1070831.748        2396.167          45.000  
  23535742.248     -168739.786         167.671          42.000  
  21648160.152     -740501.9083       4910.618          26.000  
 15  4  3 19 50 53.0000000  0  9G 3G23G10G 7G27G32G16G 8G 9
  20992437.822      -85746.567         529.608          46.000  
  20546423.554    -1494499.660        3650.740          46.000  
  23599644.805     -181964.540        5760.411          29.000  
  22548073.517      -61055.6392       4892.992          35.000  
  24707764.641     -263878.8511       5238.701          29.000  
  24276855.892       11447.5592       -633.368          31.000  
  20814879.832    -1073229.435        2398.370          45.000  
  23535709.685     -168909.488         170.723          43.000  
  21647225.222     -745414.3013       4913.149          26.000  
 15  4  3 19 50 54.0000000  0 10G 3G23G10G 7G27G32G 6G16G 8G 9
  20992337.239      -86275.222         527.773          46.000  
  20545729.227    -1498149.553        3648.904          46.000  
  23598551.078     -187724.1681       5758.536          29.000  
  22547142.705      -65947.9022       4891.417          36.000  
  24706767.815     -269117.4801       5238.211          27.000  
  24276977.642       12081.8552       -634.440          31.000  
  24702310.540      -42536.3143       1915.085           8.000  
  20814424.312    -1075626.776        2396.436          45.000  
  23535677.595     -169079.508         169.280          43.000  
  21646287.517     -750326.4903       4912.207          25.000  
 15  4  3 19 50 55.0000000  0 11G 3G23G10G 7G27G32G 6G30G16G 8G 9
  20992237.162      -86801.830         525.462          46.000  
  20545035.249    -1501797.644        3647.109          46.000  
  23597456.339     -193481.9871       5756.870          28.000  
  22546211.754      -70838.3982       4889.830          37.000  
  24705772.699     -274354.4731       5236.023          26.000  
  24277098.345       12717.8272       -637.880          32.000  
  24701950.455      -44448.1613       1910.679           8.000  
  25154778.650      -29495.3283       5697.724          28.000  
  20813967.954    -1078021.855        2394.012          45.000  
  23535645.347     -169247.985         167.727          43.000  
  21645412.650     -755237.3173       4910.487          26.000  
 15  4  3 19 50 56.0000000  0 11G 3G23G10G 7G27G32G 6G30G16G 8G 9
  20992137.452      -87328.624         527.672          46.000  
  20544341.010    -1505446.124        3649.745          46.000  
  23596367.393     -199240.1341       5759.955          27.000  
  22545281.395      -75729.2962       4891.491          38.000  
  24704773.115     -279592.1151       5238.898          26.000  
  24277218.944       13353.1492       -633.764          32.000  
  24701589.777      -46358.6173       1910.227          13.000  
  25153692.775      -35194.1663       5700.378          28.000  
  20813512.398    -1080416.870        2395.807          45.000  
  23535613.029     -169417.109         170.730          43.000  
  21644515.622     -760148.7313       4913.270          28.000  
 15  4  3 19 50 57.0000000  0 11G 3G23G10G 7G27G32G 6G30G16G 8G 9
  20992037.217      -87858.273         530.868          46.000  
  20543646.107    -1509097.671        3652.814          46.000  
  23595284.118     -205000.6153       5759.420          24.000  
  22544350.670      -80623.3472       4895.381          38.000  
  24703775.521     -284833.1141       5243.081          25.000  
  24277339.455       13985.2462       -630.530          31.000  
  24701225.556      -48268.6213       1909.775          13.000  
  25152608.226      -40896.1963       5702.991          28.000  
  20813055.866    -1082814.534        2398.608          45.000  
  23535580.397     -169589.554         173.817          43.000  
  21643578.859     -765063.3193       4915.449          28.000  
 15  4  3 19 50 58.0000000  0 10G 3G23G 7G27G32G 6G30G16G 8G 9
  20991936.634      -88388.836         529.711          47.000  
  20542950.926    -1512750.374        3651.963          46.000  
  22543419.736      -85518.5872       4894.490          39.000  
  24702778.555     -290075.3421       5241.452          24.000  
  24277460.280       14615.9512       -631.446          32.000  
  24700864.389      -50185.7093       1918.135          13.000  
  25151522.107      -46599.5973       5702.739          29.000  
  20812599.595    -1085212.916        2397.430          45.000  
  23535547.660     -169763.413         173.203          43.000  
  21642638.275     -769979.2343       4915.597          29.000  
 15  4  3 19 50 59.0000000  0  9G 3G23G 7G27G32G30G16G 8G 9
  20991836.749      -88917.318         527.010          47.000  
  20542256.477    -1516401.205        3649.374          46.000  
  22542489.325      -90412.0052       4891.713          39.000  
  24701783.282     -295315.9311       5238.725          23.000  
  24277581.821       15248.3073       -632.235          32.000  
  25150437.664      -52301.2413       5700.518          29.000  
  20812144.266    -1087608.995        2394.592          45.000  
  23535514.452     -169935.670         170.968          42.000  
  21641697.586     -774893.3912       4912.958          32.000  
 15  4  3 19 51  0.0000000  0  9G 3G23G 7G27G32G30G16G 8G 9
  20991736.533      -89444.094         526.505          47.000  
  20541562.255    -1520050.538        3649.116          46.000  
  22541558.670      -95303.9472       4892.020          39.000  
  24700786.735     -300555.5893       5245.729          22.000  
  24277706.695       15882.1732       -634.221          32.000  
  25149352.766      -58001.5013       5700.249          28.000  
  20811688.798    -1090003.134        2393.823          45.000  
  23535482.082     -170106.685         171.079          42.000  
  21640750.720     -779806.2442       4912.626          32.000  
 15  4  3 19 51  1.0000000  0  9G 3G23G 7G27G32G30G16G 8G 9
  20991636.735      -89971.689         528.043          48.000  
  20540867.492    -1523700.907        3650.772          46.000  
  22540628.661     -100197.010        4893.798          39.000  
  24699788.844     -305796.4133       5241.934          22.000  
  24277826.944       16514.166        -632.324          32.000  
  25148271.027      -63702.9413       5701.797          28.000  
  20811233.365    -1092397.885        2395.087          45.000  
  23535449.764     -170279.004         173.151          42.000  
  21639821.024     -784720.2172       4914.203          32.000  
 15  4  3 19 51  2.0000000  0  9G 3G23G 7G27G32G30G16G 8G 9
  20991536.693      -90498.486         525.766          47.000  
  20540173.095    -1527350.713        3648.981          46.000  
  22539698.233     -105089.532        4892.043          39.000  
  24698791.320     -311037.2873       5238.223          23.000  
  24277947.420       17147.034        -633.779          31.000  
  25147188.869      -69404.0243       5699.855          28.000  
  20810777.269    -1094791.624        2392.755          45.000  
  23535416.661     -170450.999         171.240          42.000  
  21638875.310     -789633.8192       4913.434          33.000  
 15  4  3 19 51  3.0000000  0 10G 3G23G 7G27G32G 6G30G16G 8G 9
  20991437.000      -91022.211         522.299          47.000  
  20539478.838    -1530997.654        3645.398          46.000  
  22538767.421     -109979.224        4888.419          39.000  
  24697794.511     -316274.9563       5235.451          24.000  
  24278068.926       17782.584        -637.137          32.000  
  24699069.878      -59793.2823       1921.356          13.000  
  25146103.448      -75102.4103       5697.271          27.000  
  20810322.673    -1097182.085        2388.995          45.000  
  23535384.448     -170620.411         168.043          42.000  
  21637934.394     -794544.7032       4909.993          33.000  
 15  4  3 19 51  4.0000000  0 10G 3G23G 7G27G32G 6G30G16G 8G 9
  20991337.638      -91544.161         522.475          47.000  
  20538785.384    -1534643.025        3645.876          45.000  
  22537837.516     -114867.388        4888.589          39.000  
  24696796.359     -321511.1213       5235.542          25.000  
  24278189.839       18419.500        -636.703          31.000  
  24698706.896      -61707.7973       1909.804          15.000  
  25145017.713      -80799.3103       5697.258          27.000  
  20809868.182    -1099570.522        2388.739          45.000  
  23535352.706     -170788.504         168.857          42.000  
  21636993.356     -799454.0992       4910.161          33.000  
 15  4  3 19 51  5.0000000  0 11G 3G23G10G 7G27G32G 6G30G16G 8G 9
  20991237.806      -92067.183         524.221          47.000  
  20538091.249    -1538289.696        3647.722          46.000  
  23586438.114      -10144.5962       5756.929          30.000  
  22536906.216     -119756.902        4890.756          39.000  
  24695797.910     -326748.7083       5236.757          25.000  
  24278309.443       19054.913        -634.022          32.000  
  24698344.926      -63621.3753       1918.251          17.000  
  25143934.770      -86497.7103       5700.157          26.000  
  20809414.005    -1101959.816        2389.996          46.000  
  23535320.371     -170958.160         170.817          43.000  
  21636053.976     -804364.9022       4910.826          34.000  
 15  4  3 19 51  6.0000000  0 11G 3G23G10G 7G27G32G 6G30G16G 8G 9
  20991137.572      -92590.880         522.960          47.000  
  20537396.958    -1541937.287        3647.129          46.000  
  23585345.556      -15900.9912       5755.507          32.000  
  22535974.862     -124647.410        4889.958          39.000  
  24694799.740     -331987.6643       5239.213          26.000  
  24278428.872       19689.238        -635.322          32.000  
  24697979.553      -65541.5313       1921.639          21.000  
  25142847.866      -92197.1123       5698.742          26.000  
  20808958.991    -1104349.615        2388.782          45.000  
  23535288.298     -171128.990         170.038          43.000  
  21635119.168     -809276.8392       4910.324          34.000  
 15  4  3 19 51  7.0000000  0 11G 3G23G10G 7G27G32G 6G30G16G 8G 9
  20991037.809      -93113.007         520.744          47.000  
  20536703.695    -1545583.478        3644.939          46.000  
  23584242.981      -21655.9492       5753.215          33.000  
  22535044.260     -129536.556        4888.217          39.000  
  24693801.622     -337225.5103       5237.037          26.000  
  24278549.994       20324.760        -636.706          33.000  
  24697614.111      -67458.4653       1919.742          23.000  
  25141760.979      -97895.4133       5697.960          26.000  
  20808503.959    -1106737.597        2386.542          45.000  
  23535256.556     -171298.701         168.491          43.000  
  21634184.116     -814187.497        4909.132          34.000  
 15  4  3 19 51  8.0000000  0 11G 3G23G10G 7G27G32G 6G30G16G 8G 9
  20990938.674      -93632.281         518.040          47.000  
  20536009.665    -1549227.051        3642.642          45.000  
  23583151.401      -27408.2022       5750.705          34.000  
  22534113.570     -134423.091        4885.684          38.000  
  24692805.354     -342460.6073       5233.938          27.000  
  24278672.058       20962.677        -638.119          33.000  
  24697252.071      -69374.0183       1912.832          26.000  
  25140674.564     -103591.0133       5694.576          25.000  
  20808050.550    -1109122.508        2383.636          45.000  
  23535224.884     -171466.045         166.389          43.000  
  21633249.587     -819095.690        4907.071          35.000  
 15  4  3 19 51  9.0000000  0 11G 3G23G10G 7G27G32G 6G30G16G 8G 9
  20990839.818      -94148.586         514.603          47.000  
  20535316.700    -1552867.876        3639.261          45.000  
  23582055.911      -33157.6162       5747.202          34.000  
  22533183.212     -139306.946        4882.495          38.000  
  24691808.999     -347693.4883       5231.630          28.000  
  24278793.721       21603.261        -642.685          32.000  
  24696888.147      -71285.6193       1909.927          28.000  
  25139585.199     -109284.1403       5691.469          26.000  
  20807598.345    -1111504.233        2379.883          45.000  
  23535193.752     -171630.917         163.511          43.000  
  21632314.552     -824001.225        4903.944          35.000  
 15  4  3 19 51 10.0000000  0 11G 3G23G10G 7G27G32G 6G30G16G 8G 9
  20990742.970      -94660.814         509.671          47.000  
  20534624.676    -1556504.832        3634.493          45.000  
  23580963.981      -38903.1282       5742.786          35.000  
  22532253.063     -144186.982        4877.529          38.000  
  24690815.698     -352922.6433       5226.979          29.000  
  24278916.518       22247.424        -646.109          33.000  
  24696524.135      -73192.8283       1903.129          29.000  
  25138501.121     -114973.5983       5687.281          26.000  
  20807146.158    -1113881.673        2374.731          46.000  
  23535163.511     -171792.157         159.142          43.000  
  21631380.354     -828903.034        4898.704          35.000  
 15  4  3 19 51 11.0000000  0 11G 3G23G10G 7G27G32G 6G30G16G 8G 9
  20990646.418      -95166.899         502.849          47.000  
  20533934.398    -1560135.862        3628.035          45.000  
  23579872.644      -44642.5982       5736.393          37.000  
  22531323.542     -149061.128        4871.244          38.000  
  24689818.226     -358146.0782       5221.021          30.000  
  24279039.577       22897.330        -652.462          33.000  
  24696161.712      -75094.6183       1898.315          30.000  
  25137415.962     -120657.1353       5679.984          26.000  
  20806695.122    -1116252.741        2367.883          46.000  
  23535133.968     -171947.753         152.772          43.000  
  21630447.570     -833799.061        4893.032          35.000  
 15  4  3 19 51 12.0000000  0 11G 3G23G10G 7G27G32G 6G30G16G 8G 9
  20990551.506      -95667.482         499.237          47.000  
  20533244.242    -1563761.593        3624.438          45.000  
  23578783.018      -50376.7122       5732.800          37.000  
  22530395.365     -153930.058        4867.776          37.000  
  24688825.518     -363364.4492       5217.296          31.000  
  24279164.084       23552.366        -656.291          32.000  
  24695796.339      -76990.3622       1893.789          30.000  
  25136335.672     -126335.6303       5677.457          26.000  
  20806244.994    -1118618.092        2363.806          45.000  
  23535105.105     -172098.315         149.352          43.000  
  21629515.153     -838689.966        4889.624          35.000  
 15  4  3 19 51 13.0000000  0 11G 3G23G10G 7G27G32G 6G30G16G 8G 9
  20990456.996      -96164.945         495.811          47.000  
  20532554.889    -1567384.437        3621.427          45.000  
  23577693.217      -56107.8442       5729.621          37.000  
  22529467.990     -158796.142        4865.021          37.000  
  24687833.753     -368580.1272       5214.789          32.000  
  24279289.237       24210.075        -659.172          33.000  
  24695441.105      -78883.1162       1891.402          31.000  
  25135253.269     -132011.3301       5674.362          27.000  
  20805795.685    -1120980.110        2360.394          45.000  
  23535076.993     -172246.243         146.695          42.000  
  21628583.852     -843578.098        4887.107          35.000  
 15  4  3 19 51 14.0000000  0 11G 3G23G10G 7G27G32G 6G30G16G 8G 9
  20990362.572      -96659.503         492.492          47.000  
  20531865.849    -1571004.587        3618.277          45.000  
  23576603.660      -61836.1902       5726.000          37.000  
  22528541.628     -163659.508        4861.111          36.000  
  24686847.693     -373793.3542       5212.118          31.000  
  24279414.896       24870.297        -662.131          33.000  
  24695082.224      -80772.9593       1887.732          30.000  
  25134173.188     -137684.5311       5671.404          27.000  
  20805346.552    -1123338.995        2356.647          46.000  
  23535049.736     -172391.725         143.476          43.000  
  21627653.092     -848463.628        4883.332          36.000  
 15  4  3 19 51 15.0000000  0 11G 3G23G10G 7G27G32G 6G30G16G 8G 9
  20990269.196      -97149.300         487.019          47.000  
  20531177.822    -1574620.177        3612.840          45.000  
  23575515.447      -67559.9572       5720.349          37.000  
  22527616.313     -168518.442        4856.612          36.000  
  24685855.107     -379002.1762       5205.721          32.000  
  24279541.428       25534.848        -667.068          32.000  
  24694721.284      -82658.1052       1882.067          30.000  
  25133096.265     -143353.3031       5666.846          27.000  
  20804898.186    -1125692.917        2350.995          45.000  
  23535022.775     -172532.941         138.436          43.000  
  21626722.804     -853344.824        4879.377          36.000  
 15  4  3 19 51 16.0000000  0 11G 3G23G10G 7G27G32G 6G30G16G 8G 9
  20990176.920      -97633.432         481.645          47.000  
  20530490.249    -1578230.337        3608.082          45.000  
  23574427.199      -73278.1882       5715.982          37.000  
  22526691.608     -173371.937        4851.236          36.000  
  24684862.853     -384205.8542       5200.974          31.000  
  24279668.692       26204.669        -671.754          32.000  
  24694361.530      -84537.7282       1878.408          30.000  
  25132019.465     -149016.7201       5661.148          27.000  
  20804451.722    -1128040.948        2345.740          45.000  
  23534996.931     -172668.979         133.848          42.000  
  21625793.789     -858220.639        4873.622          36.000  
 15  4  3 19 51 17.0000000  0 11G 3G23G10G 7G27G32G 6G30G16G 8G 9
  20990084.329      -98113.910         478.414          47.000  
  20529804.036    -1581837.067        3604.798          45.000  
  23573341.394      -78992.8802       5712.782          37.000  
  22525767.305     -178222.088        4848.230          36.000  
  24683874.403     -389406.3262       5198.851          31.000  
  24279796.480       26877.796        -675.112          32.000  
  24694005.109      -86413.6173       1873.653          30.000  
  25130943.310     -154676.7931       5657.617          27.000  
  20804005.537    -1130385.102        2342.114          45.000  
  23534972.361     -172801.836         131.136          42.000  
  21624865.455     -863093.198        4870.690          36.000  
 15  4  3 19 51 18.0000000  0 11G 3G23G10G 7G27G32G 6G30G16G 8G 9
  20989994.233      -98590.034         473.300          47.000  
  20529118.574    -1585439.638        3599.902          45.000  
  23572254.699      -84703.3522       5707.330          37.000  
  22524844.590     -183068.088        4843.310          37.000  
  24682886.145     -394602.7872       5194.323          30.000  
  24279925.368       27554.811        -679.359          32.000  
  24693655.180      -88285.2713       1869.179          29.000  
  25129867.679     -160333.0121       5653.414          27.000  
  20803560.278    -1132724.678        2336.804          45.000  
  23534948.490     -172930.802         126.509          43.000  
  21623938.220     -867961.725        4865.956          36.000  
 15  4  3 19 51 19.0000000  0 11G 3G23G10G 7G27G32G 6G30G16G 8G 9
  20989903.824      -99060.931         468.391          47.000  
  20528433.583    -1589037.213        3595.247          45.000  
  23571169.174      -90408.7642       5702.807          38.000  
  22523921.997     -187909.154        4838.948          37.000  
  24681897.380     -399794.5071       5189.413          30.000  
  24280055.215       28236.597        -683.597          31.000  
  24693298.934      -90151.7383       1863.906          27.000  
  25128794.002     -165984.3141       5649.058          28.000  
  20803116.309    -1135058.819        2331.653          45.000  
  23534924.897     -173055.033         121.850          43.000  
  21623011.823     -872825.407        4861.638          36.000  
 15  4  3 19 51 20.0000000  0 11G 3G23G10G 7G27G32G 6G30G16G 8G 9
  20989815.142      -99527.198         463.391          47.000  
  20527749.430    -1592630.374        3590.545          45.000  
  23570084.590      -96109.6942       5698.460          38.000  
  22523000.678     -192745.863        4834.229          38.000  
  24680907.028     -404982.020        5184.274          30.000  
  24280185.550       28922.637        -688.651          31.000  
  24692941.274      -92013.6243       1859.794          25.000  
  25127717.690     -171631.3841       5644.322          27.000  
  20802673.143    -1137388.117        2326.288          45.000  
  23534901.985     -173175.123         117.724          43.000  
  21622086.037     -877684.807        4857.108          36.000  
 15  4  3 19 51 21.0000000  0 11G 3G23G10G 7G27G32G 6G30G16G 8G 9
  20989726.320      -99990.197         462.331          47.000  
  20527066.167    -1596220.458        3589.102          45.000  
  23569000.216     -101807.4422       5696.623          37.000  
  22522080.336     -197579.496        4832.637          37.000  
  24679924.354     -410166.7641       5184.053          29.000  
  24280316.654       29611.572        -689.490          31.000  
  24692585.866      -93872.5083       1857.952          24.000  
  25126644.484     -177275.5361       5643.474          28.000  
  20802230.204    -1139713.915        2324.780          45.000  
  23534879.317     -173292.395         116.641          42.000  
  21621161.891     -882541.211        4855.789          37.000  
 15  4  3 19 51 22.0000000  0 11G 3G23G10G 7G27G32G 6G30G16G 8G 9
  20989638.022     -100452.939         463.330          47.000  
  20526382.956    -1599810.524        3590.451          45.000  
  23567915.807     -107505.0902       5698.101          37.000  
  22521160.046     -202413.177        4834.134          37.000  
  24678936.864     -415351.6811       5185.890          29.000  
  24280447.286       30300.335        -687.527          30.000  
  24692233.703      -95731.4473       1849.942          22.000  
  25125571.767     -182919.8611       5645.677          26.000  
  20801787.492    -1142039.238        2325.409          45.000  
  23534857.207     -173409.898         118.057          43.000  
  21620237.081     -887397.789        4857.326          37.000  
 15  4  3 19 51 23.0000000  0 11G 3G23G10G 7G27G32G 6G30G16G 8G 9
  20989550.876     -100915.887         461.738          47.000  
  20525699.413    -1603401.018        3589.497          44.000  
  23566830.840     -113203.1282       5696.895          37.000  
  22520239.949     -207247.372        4833.467          37.000  
  24677945.971     -420537.1921       5184.873          29.000  
  24280578.756       30988.533        -689.725          30.000  
  24691880.406      -97593.1743       1862.668          22.000  
  25124498.090     -188564.5821       5643.913          26.000  
  20801344.588    -1144364.568        2324.133          45.000  
  23534835.569     -173528.107         117.336          43.000  
  21619312.447     -892254.885        4855.995          37.000  
 15  4  3 19 51 24.0000000  0 11G 3G23G10G 7G27G32G 6G30G16G 8G 9
  20989463.816     -101376.191         458.709          46.000  
  20525016.656    -1606989.056        3586.615          44.000  
  23565746.815     -118898.6332       5693.578          38.000  
  22519320.497     -212079.104        4829.623          37.000  
  24676963.802     -425720.4661       5181.647          27.000  
  24280710.732       31678.933        -692.368          31.000  
  24691537.631      -99449.5943       1857.313          22.000  
  25123424.587     -194207.1081       5640.171          25.000  
  20800902.592    -1146687.023        2320.947          45.000  
  23534813.669     -173644.102         114.444          43.000  
  21618388.336     -897109.697        4852.843          37.000  
 15  4  3 19 51 25.0000000  0 10G 3G23G10G 7G27G32G30G16G 8G 9
  20989376.181     -101834.300         458.571          46.000  
  20524334.649    -1610575.083        3585.671          44.000  
  23564664.553     -124592.527        5693.037          38.000  
  22518401.952     -216908.950        4830.140          40.000  
  24675978.633     -430902.0301       5182.197          27.000  
  24280842.691       32371.074        -692.188          30.000  
  25122351.678     -199849.0763       5668.818          24.000  
  20800461.084    -1149006.996        2319.788          44.000  
  23534792.816     -173758.392         114.474          42.000  
  21617464.957     -901962.722        4853.757          39.000  
 15  4  3 19 51 26.0000000  0 10G 3G23G10G 7G27G32G30G16G 8G 9
  20989288.494     -102293.059         459.058          41.000  
  20523652.154    -1614162.008        3586.883          42.000  
  23563581.487     -130286.808        5694.215          35.000  
  22517483.617     -221739.857        4832.135          36.000  
  24674992.608     -436084.6241       5182.450          25.000  
  24280973.672       33061.9661       -689.955          30.000  
  25121279.816     -205493.0463       5646.302          23.000  
  20800020.117    -1151327.581        2320.441          35.000  
  23534770.567     -173873.833         115.671          37.000  
  21616539.502     -906816.765        4854.774          30.000  
 15  4  3 19 51 27.0000000  0 11G 3G23G10G 7G27G32G 6G30G16G 8G 9
  20989200.440     -102751.595         457.188          39.000  
  20522969.781    -1617748.879        3585.819          41.000  
  23562496.450     -135980.848        5692.848          35.000  
  22516565.753     -226570.625        4830.064          34.000  
  24674007.090     -441266.9463       5181.298          23.000  
  24281106.329       33753.0361       -692.370          29.000  
  24690515.101     -105013.1473       1848.148          20.000  
  25120206.994     -211133.9083       5637.395          22.000  
  20799578.801    -1153647.555        2318.298          38.000  
  23534747.742     -173989.453         114.283          38.000  
  21615615.915     -911670.716        4853.137          34.000  
 15  4  3 19 51 28.0000000  0 11G 3G23G10G 7G27G32G 6G30G16G 8G 9
  20989113.381     -103207.962         456.228          40.000  
  20522287.861    -1621333.742        3583.407          39.000  
  23561412.321     -141672.964        5692.159          34.000  
  22515646.929     -231399.484        4826.542          30.000  
  24673020.472     -446451.2683       5185.470          20.000  
  24281239.229       34445.731        -694.735          29.000  
  24690177.038     -106863.9243       1853.303          18.000  
  25119133.631     -216774.7223       5643.445          22.000  
  20799138.794    -1155965.287        2318.500          36.000  
  23534725.720     -174103.541         113.936          38.000  
  21614692.344     -916523.074        4852.556          37.000  
 15  4  3 19 51 29.0000000  0 10G 3G23G10G 7G27G32G30G16G 8G 9
  20989026.846     -103664.075         459.123          40.000  
  20521605.331    -1624918.754        3585.130          42.000  
  23560326.306     -147364.956        5691.874          37.000  
  22514728.158     -236228.295        4829.527          39.000  
  24672035.215     -451631.9843       5183.061          17.000  
  24281369.251       35138.7703       -691.343          28.000  
  25118057.371     -222414.0833       5636.833          20.000  
  20798696.326    -1158282.340        2316.711          42.000  
  23534704.675     -174217.734         114.305          41.000  
  21613770.380     -921375.454        4852.695          38.000  
 15  4  3 19 51 30.0000000  0  9G 3G23G10G 7G27G32G16G 8G 9
  20988940.921     -104121.112         457.143          44.000  
  20520923.271    -1628504.858        3586.574          43.000  
  23559243.520     -153058.007        5693.230          38.000  
  22513810.730     -241058.404        4830.679          40.000  
  24671049.226     -456813.9993       5181.630          15.000  
  24281495.940       35829.9692       -689.948          30.000  
  20798253.998    -1160600.285        2318.506          41.000  
  23534682.845     -174333.355         116.535          43.000  
  21612847.769     -926229.104        4854.006          39.000  
 15  4  3 19 51 31.0000000  0 10G 3G23G10G 7G27G32G30G16G 8G 9
  20988854.333     -104577.654         454.471          42.000  
  20520240.968    -1632090.689        3584.311          41.000  
  23558160.158     -158750.736        5691.000          37.000  
  22512893.163     -245888.275        4827.812          40.000  
  24670063.655     -461996.0693       5189.425          14.000  
  24281630.830       36521.2632       -692.683          29.000  
  25115909.790     -233691.6173       5653.536          16.000  
  20797812.315    -1162917.472        2315.454          41.000  
  23534662.201     -174448.990         114.224          43.000  
  21611924.321     -931082.685        4851.650          40.000  
 15  4  3 19 51 32.0000000  0  9G 3G23G10G 7G27G32G16G 8G 9
  20988768.146     -105030.845         452.349          43.000  
  20519558.874    -1635673.314        3581.940          41.000  
  23557077.093     -164440.193        5688.877          37.000  
  22511975.735     -250715.050        4825.891          40.000  
  24669075.362     -467178.5743       5182.547          17.000  
  24281770.152       37215.5492       -695.000          29.000  
  20797372.012    -1165231.067        2312.555          42.000  
  23534641.174     -174561.683         111.969          43.000  
  21611001.746     -935933.170        4849.351          39.000  
 15  4  3 19 51 33.0000000  0  9G 3G23G10G 7G27G32G16G 8G 9
  20988681.767     -105482.420         452.173          43.000  
  20518877.303    -1639254.559        3581.953          42.000  
  23555994.883     -170128.174        5688.130          37.000  
  22511057.487     -255540.461        4825.988          40.000  
  24668091.902     -472355.4963       5189.534          18.000  
  24281900.226       37911.0103       -695.090          29.000  
  20796931.952    -1167542.808        2312.323          41.000  
  23534620.007     -174673.275         112.261          42.000  
  21610078.210     -940782.448        4850.120          39.000  
 15  4  3 19 51 34.0000000  0 10G 3G23G10G 7G27G32G30G16G 8G 9
  20988596.296     -105935.451         453.398          43.000  
  20518195.035    -1642837.491        3583.974          42.000  
  23554911.853     -175817.822        5690.163          36.000  
  22510139.204     -260367.602        4827.671          40.000  
  24667105.791     -477538.0053       5187.371          17.000  
  24282029.951       38604.4983       -692.230          29.000  
  25112684.048     -250622.7953       5639.876          19.000  
  20796492.800    -1169855.791        2313.440          41.000  
  23534599.049     -174786.799         114.501          42.000  
  21609156.001     -945633.533        4852.088          41.000  
 15  4  3 19 51 35.0000000  0 10G 3G23G10G 7G27G32G30G16G 8G 9
  20988511.069     -106388.936         451.637          43.000  
  20517512.679    -1646421.064        3582.024          42.000  
  23553829.957     -181507.981        5688.469          35.000  
  22509220.625     -265195.452        4825.762          43.000  
  24666119.731     -482721.5223       5181.440          18.000  
  24282157.914       39297.2943       -694.464          28.000  
  25111611.714     -256264.8253       5639.978          21.000  
  20796053.142    -1172169.048        2311.316          41.000  
  23534576.521     -174901.234         112.808          42.000  
  21608232.902     -950485.370        4849.549          40.000  
 15  4  3 19 51 36.0000000  0 10G 3G23G10G 7G27G32G30G16G 8G 9
  20988427.378     -106838.305         446.592          43.000  
  20516831.283    -1650000.705        3576.710          42.000  
  23552749.090     -187194.222        5683.552          34.000  
  22508302.900     -270019.446        4821.468          41.000  
  24665131.578     -487899.3583       5173.545          20.000  
  24282283.555       39993.7073       -699.522          27.000  
  25110539.364     -261904.6183       5632.417          22.000  
  20795613.379    -1174477.953        2306.256          41.000  
  23534555.266     -175012.049         108.507          43.000  
  21607310.239     -955333.457        4845.150          39.000  
 15  4  3 19 51 37.0000000  0 10G 3G23G10G 7G27G32G30G16G 8G 9
  20988343.670     -107282.440         442.141          44.000  
  20516150.497    -1653575.398        3572.897          42.000  
  23551668.276     -192875.303        5678.480          34.000  
  22507386.310     -274838.483        4817.419          41.000  
  24664148.345     -493071.5323       5174.102          21.000  
  24282419.841       40694.3601       -702.655          26.000  
  25109469.945     -267536.5123       5629.285          23.000  
  20795174.540    -1176781.419        2301.282          41.000  
  23534535.059     -175118.110         104.342          43.000  
  21606387.960     -960176.725        4841.332          39.000  
 15  4  3 19 51 38.0000000  0 10G 3G23G10G 7G27G32G30G16G 8G 9
  20988260.188     -107723.784         440.693          44.000  
  20515470.811    -1657147.472        3571.608          42.000  
  23550588.142     -198553.724        5678.078          33.000  
  22506469.040     -279654.970        4816.066          41.000  
  24663162.582     -498245.7863       5169.830          21.000  
  24282553.702       41397.9911       -704.218          26.000  
  25108397.158     -273165.2173       5627.221          25.000  
  20794736.278    -1179081.879        2299.750          40.000  
  23534515.951     -175221.861         103.271          43.000  
  21605466.798     -965017.528        4840.793          40.000  
 15  4  3 19 51 39.0000000  0 10G 3G23G10G 7G27G32G30G16G 8G 9
  20988176.252     -108162.900         436.899          44.000  
  20514791.527    -1660717.514        3568.023          42.000  
  23549508.114     -204230.020        5673.576          32.000  
  22505552.153     -284469.469        4812.194          40.000  
  24662178.495     -503417.2393       5169.805          21.000  
  24282684.771       42103.3921       -707.083          25.000  
  25107328.192     -278791.8993       5624.993          27.000  
  20794298.505    -1181379.864        2295.782          41.000  
  23534496.477     -175323.840          99.901          43.000  
  21604546.212     -969856.392        4836.768          40.000  
 15  4  3 19 51 40.0000000  0 10G 3G23G10G 7G27G32G30G16G 8G 9
  20988093.765     -108597.202         431.204          44.000  
  20514112.608    -1664282.960        3562.307          42.000  
  23548428.469     -209901.692        5668.243          32.000  
  22504635.633     -289279.447        4806.822          40.000  
  24661197.827     -508583.3503       5161.349          22.000  
  24282815.106       42813.2141       -712.646          25.000  
  25106258.511     -284414.2023       5619.412          28.000  
  20793862.162    -1183672.829        2289.526          41.000  
  23534478.189     -175421.491          94.823          43.000  
  21603626.411     -974690.827        4831.692          39.000  
 15  4  3 19 51 41.0000000  0 10G 3G23G10G 7G27G32G30G16G 8G 9
  20988011.470     -109025.130         424.741          44.000  
  20513434.493    -1667842.252        3556.501          42.000  
  23547350.255     -215567.108        5661.876          31.000  
  22503720.718     -294083.320        4801.369          39.000  
  24660219.184     -513741.1973       5155.787          23.000  
  24282950.956       43529.1221       -718.900          24.000  
  25105189.738     -290030.5283       5613.666          28.000  
  20793427.372    -1185959.194        2282.886          41.000  
  23534460.896     -175513.262          88.839          43.000  
  21602707.465     -979519.197        4825.337          39.000  
 15  4  3 19 51 42.0000000  0  9G 3G23G10G 7G27G30G16G 8G 9
  20987930.553     -109448.426         421.443          44.000  
  20512758.733    -1671397.097        3552.713          42.000  
  23546268.446     -221228.028        5659.259          30.000  
  22502806.571     -298882.751        4797.251          39.000  
  24659239.494     -518894.6843       5152.540          25.000  
  25104120.545     -295642.5263       5610.221          28.000  
  20792993.560    -1188240.718        2279.510          41.000  
  23534444.091     -175600.849          85.816          43.000  
  21601789.182     -984343.331        4822.393          39.000  
 15  4  3 19 51 43.0000000  0  9G 3G23G10G 7G27G30G16G 8G 9
  20987851.364     -109866.901         415.389          44.000  
  20512083.689    -1674947.364        3547.488          42.000  
  23545191.645     -226884.3221       5653.755          30.000  
  22501892.982     -303677.677        4791.773          39.000  
  24658262.107     -524044.6053       5147.054          26.000  
  25103052.330     -301250.0773       5604.313          28.000  
  20792560.341    -1190517.212        2273.260          41.000  
  23534428.525     -175684.100          80.119          43.000  
  21600872.208     -989162.986        4816.482          40.000  
 15  4  3 19 51 44.0000000  0  9G 3G23G10G 7G27G30G16G 8G 9
  20987772.437     -110277.476         405.619          44.000  
  20511409.413    -1678489.924        3537.561          42.000  
  23544116.659     -232532.7341       5643.465          30.000  
  22500981.051     -308464.982        4782.330          39.000  
  24657285.454     -529187.0613       5137.840          27.000  
  25101987.972     -306850.1243       5595.392          28.000  
  20792128.710    -1192785.573        2263.263          40.000  
  23534414.862     -175759.950          71.213          43.000  
  21599956.683     -993975.107        4807.724          40.000  
 15  4  3 19 51 45.0000000  0  9G 3G23G10G 7G27G30G16G 8G 9
  20987695.534     -110678.120         396.118          43.000  
  20510736.707    -1682022.769        3528.328          42.000  
  23543036.299     -238171.3791       5634.300          29.000  
  22500071.441     -313242.574        4772.999          38.000  
  24656307.648     -534319.8263       5128.442          27.000  
  25100922.810     -312440.5933       5585.630          28.000  
  20791699.993    -1195043.776        2253.491          41.000  
  23534402.141     -175826.323          62.119          43.000  
  21599042.361     -998777.611        4798.357          39.000  
 15  4  3 19 51 46.0000000  0  9G 3G23G10G 7G27G30G16G 8G 9
  20987620.306     -111071.369         390.734          44.000  
  20510066.060    -1685548.444        3523.264          42.000  
  23541971.906     -243802.7731       5628.817          29.000  
  22499163.070     -318013.041        4767.638          38.000  
  24655333.472     -539445.6763       5123.854          28.000  
  25099860.877     -318024.0513       5581.003          28.000  
  20791271.782    -1197294.393        2247.919          40.000  
  23534390.868     -175885.783          57.076          43.000  
  21598129.889    -1003573.076        4792.848          39.000  
 15  4  3 19 51 47.0000000  0  9G 3G23G10G 7G27G30G16G 8G 9
  20987546.107     -111460.227         386.599          44.000  
  20509395.291    -1689069.944        3519.632          42.000  
  23540890.638     -249429.8861       5625.057          28.000  
  22498255.449     -322779.415        4764.991          38.000  
  24654357.202     -544567.3793       5119.747          28.000  
  25098798.334     -323603.4303       5577.427          28.000  
  20790845.037    -1199540.363        2244.000          41.000  
  23534379.543     -175941.332          53.705          43.000  
  21597218.290    -1008364.524        4789.853          39.000  
 15  4  3 19 51 48.0000000  0  9G 3G23G10G 7G27G30G16G 8G 9
  20987473.322     -111843.628         380.171          43.000  
  20508726.075    -1692586.185        3513.120          42.000  
  23539813.296     -255051.3243       5623.711          25.000  
  22497347.654     -327540.552        4758.085          38.000  
  24653381.665     -549684.1393       5113.657          29.000  
  25097736.697     -329177.7493       5570.788          28.000  
  20790419.007    -1201780.664        2236.609          41.000  
  23534370.137     -175991.918          47.549          43.000  
  21596307.842    -1013150.843        4783.621          39.000  
 15  4  3 19 51 49.0000000  0  9G 3G23G10G 7G27G30G16G 8G 9
  20987401.375     -112220.600         373.867          44.000  
  20508058.343    -1696096.230        3507.101          42.000  
  23538743.790     -260668.0763       5611.628          23.000  
  22496441.481     -332295.492        4751.148          37.000  
  24652405.797     -554794.8513       5106.967          29.000  
  25096674.991     -334745.9881       5564.737          28.000  
  20789994.618    -1204014.338        2230.316          41.000  
  23534361.970     -176036.534          41.744          43.000  
  21595398.180    -1017931.085        4777.213          39.000  
 15  4  3 19 51 50.0000000  0  9G 3G23G10G 7G27G30G16G 8G 9
  20987330.667     -112592.155         370.020          44.000  
  20507391.570    -1699601.030        3503.200          42.000  
  23537678.279     -266279.6553       5605.683          23.000  
  22495537.106     -337045.310        4748.006          37.000  
  24651437.013     -559900.6513       5104.418          29.000  
  25095616.810     -340309.3483       5562.374          27.000  
  20789571.223    -1206242.333        2226.465          40.000  
  23534354.973     -176076.185          38.151          43.000  
  21594490.576    -1022706.261        4773.871          39.000  
 15  4  3 19 51 51.0000000  0 10G 3G23G10G 7G27G32G30G16G 8G 9
  20987260.081     -112961.247         368.182          43.000  
  20506724.413    -1703103.613        3502.088          42.000  
  23536609.820     -271883.0683       5615.167          22.000  
  22494632.592     -341792.939        4747.038          37.000  
  24650465.315     -565004.4102       5103.324          30.000  
  24284367.914       51001.9843       -773.009          23.000  
  25094559.746     -345870.3983       5561.688          26.000  
  20789147.445    -1208467.706        2224.567          40.000  
  23534347.905     -176113.906          37.390          43.000  
  21593582.519    -1027479.332        4772.760          40.000  
 15  4  3 19 51 52.0000000  0 10G 3G23G10G 7G27G32G30G16G 8G 9
  20987189.076     -113328.408         366.666          43.000  
  20506056.942    -1706604.446        3500.092          41.000  
  23535547.119     -277490.4543       5605.170          25.000  
  22493728.548     -346538.880        4745.400          37.000  
  24649497.317     -570106.6212       5102.596          30.000  
  24284511.529       51775.7243       -775.870          22.000  
  25093504.880     -351429.8923       5558.232          25.000  
  20788723.527    -1210690.872        2221.973          39.000  
  23534341.379     -176150.137          35.750          43.000  
  21592673.869    -1032250.801        4771.207          39.000  
 15  4  3 19 51 53.0000000  0 10G 3G23G10G 7G27G32G30G16G 8G 9
  20987118.682     -113693.899         363.816          43.000  
  20505391.164    -1710103.828        3498.444          41.000  
  23534485.623     -283095.1583       5603.548          26.000  
  22492825.203     -351283.328        4743.183          37.000  
  24648522.949     -575207.5782       5099.708          30.000  
  24284659.210       52547.5083       -777.715          22.000  
  25092454.237     -356988.1423       5558.479          24.000  
  20788301.668    -1212912.257        2220.233          40.000  
  23534334.713     -176185.191          34.240          42.000  
  21591765.987    -1037020.924        4768.833          37.000  
 15  4  3 19 51 54.0000000  0  9G 3G23G10G 7G27G30G16G 8G 9
  20987048.148     -114058.551         365.373          42.000  
  20504725.020    -1713602.546        3498.666          41.000  
  23533419.973     -288698.8133       5604.037          27.000  
  22491922.433     -356027.265        4744.175          37.000  
  24647562.053     -580308.1113       5100.906          30.000  
  25091401.919     -362544.6463       5559.006          23.000  
  20787878.849    -1215132.411        2220.605          40.000  
  23534327.907     -176219.840          35.208          42.000  
  21590858.558    -1041790.548        4769.915          39.000  
 15  4  3 19 51 55.0000000  0  8G 3G23G10G 7G27G16G 8G 9
  20986977.754     -114423.742         364.184          42.000  
  20504059.451    -1717102.085        3498.678          41.000  
  23532355.056     -294303.4673       5603.338          27.000  
  22491018.722     -360772.064        4743.844          36.000  
  24646583.549     -585409.6651       5100.474          29.000  
  20787455.489    -1217352.961        2219.562          40.000  
  23534321.276     -176255.554          35.031          42.000  
  21589950.937    -1046561.102        4769.787          38.000  
 15  4  3 19 51 56.0000000  0  9G 3G23G10G 7G27G30G16G 8G 9
  20986908.110     -114785.735         359.223          41.000  
  20503394.458    -1720598.602        3494.123          42.000  
  23531290.819     -299904.9463       5599.270          28.000  
  22490116.423     -365513.870        4739.340          35.000  
  24645603.894     -590508.4721       5096.956          29.000  
  25089280.549     -373658.8163       5545.948          19.000  
  20787033.595    -1219570.126        2214.544          40.000  
  23534315.151     -176288.535          30.621          42.000  
  21589043.194    -1051328.807        4765.693          38.000  
 15  4  3 19 51 57.0000000  0  9G 3G23G10G 7G27G30G16G 8G 9
  20986840.525     -115141.502         351.799          41.000  
  20502730.041    -1724089.091        3486.735          41.000  
  23530226.949     -305500.3483       5592.019          27.000  
  22489214.491     -370249.709        4731.440          35.000  
  24644637.833     -595601.3581       5089.169          29.000  
  25088237.811     -379206.1493       5556.524          18.000  
  20786612.801    -1221780.798        2206.567          40.000  
  23534310.457     -176315.752          23.409          42.000  
  21588136.394    -1056090.592        4757.976          38.000  
 15  4  3 19 51 58.0000000  0  9G 3G23G10G 7G27G30G16G 8G 9
  20986774.302     -115489.770         345.336          42.000  
  20502067.072    -1727572.299        3480.254          42.000  
  23529164.754     -311088.2603       5584.985          28.000  
  22488314.357     -374978.341        4725.605          35.000  
  24643669.747     -600687.2961       5082.997          28.000  
  25087186.034     -384753.3503       5552.698          16.000  
  20786192.372    -1223983.776        2199.927          40.000  
  23534306.915     -176335.967          17.493          42.000  
  21587229.715    -1060845.231        4751.487          37.000  
 15  4  3 19 51 59.0000000  0 10G 3G23G10G 7G27G32G30G16G 8G 9
  20986709.683     -115831.671         338.116          42.000  
  20501406.163    -1731049.362        3473.387          42.000  
  23528110.343     -316670.0723       5579.146          28.000  
  22487415.199     -379700.848        4719.185          35.000  
  24642706.687     -605767.2061       5076.112          27.000  
  24285538.300       57226.1083       -796.135          22.000  
  25086131.727     -390293.0823       5548.799          16.000  
  20785773.620    -1226180.155        2192.328          39.000  
  23534304.489     -176350.283          10.976          42.000  
  21586324.695    -1065593.921        4746.244          36.000  
 15  4  3 19 52  0.0000000  0 10G 3G23G10G 7G27G32G30G16G 8G 9
  20986645.903     -116165.832         329.084          42.000  
  20500745.916    -1734518.896        3464.474          42.000  
  23527048.410     -322244.2453       5570.091          27.000  
  22486517.281     -384415.836        4709.601          34.000  
  24641740.887     -610839.8263       5067.709          26.000  
  24285691.181       58027.1973       -803.222          22.000  
  25085075.849     -395841.9443       5529.113          15.000  
  20785355.617    -1228368.600        2183.392          39.000  
  23534303.477     -176357.339           2.307          42.000  
  21585420.773    -1070335.104        4736.184          36.000  
 15  4  3 19 52  1.0000000  0 10G 3G23G10G 7G27G32G30G16G 8G 9
  20986583.431     -116490.630         320.594          42.000  
  20500087.572    -1737979.241        3455.822          42.000  
  23525991.781     -327809.1381       5561.219          27.000  
  22485621.718     -389121.746        4701.301          35.000  
  24640774.825     -615903.6173       5060.115          25.000  
  24285842.579       58834.1333       -810.652          22.000  
  25084023.566     -401368.2953       5524.049          14.000  
  20784940.040    -1230547.411        2174.292          39.000  
  23534304.088     -176355.480          -6.201          43.000  
  21584518.527    -1075067.330        4728.572          35.000  
 15  4  3 19 52  2.0000000  0  9G 3G23G10G 7G27G32G16G 8G 9
  20986522.966     -116808.247         315.693          42.000  
  20499430.571    -1741432.633        3451.279          42.000  
  23524933.094     -333366.9991       5555.291          27.000  
  22484727.098     -393820.820        4698.859          35.000  
  24639815.360     -620960.4863       5055.143          24.000  
  24285997.694       59647.1763       -821.024          23.000  
  20784527.046    -1232718.848        2169.427          39.000  
  23534305.379     -176346.947          -9.985          42.000  
  21583617.084    -1079792.754        4723.877          34.000  
 15  4  3 19 52  3.0000000  0  9G 3G23G10G 7G27G32G16G 8G 9
  20986463.967     -117122.408         313.517          42.000  
  20498774.530    -1744882.758        3449.173          43.000  
  23523881.561     -338921.5461       5553.310          28.000  
  22483834.118     -398516.530        4695.189          33.000  
  24638853.103     -626014.3183       5052.925          25.000  
  24286219.382       60468.0303       -820.810          25.000  
  20784114.104    -1234886.589        2166.669          39.000  
  23534308.171     -176335.381         -12.325          42.000  
  21582717.019    -1084514.997        4722.008          33.000  
 15  4  3 19 52  4.0000000  0  9G 3G23G10G 7G27G32G16G 8G 9
  20986404.811     -117434.112         310.511          42.000  
  20498118.943    -1748330.644        3446.493          43.000  
  23522828.476     -344473.7871       5551.132          27.000  
  22482941.033     -403210.067        4692.456          35.000  
  24637887.041     -631066.2243       5050.416          24.000  
  24286354.167       61290.6103       -822.557          25.000  
  20783702.000    -1237051.668        2163.641          39.000  
  23534310.126     -176321.848         -14.735          42.000  
  21581817.077    -1089235.110        4718.329          32.000  
 15  4  3 19 52  5.0000000  0  9G 3G23G10G 7G27G32G16G 8G 9
  20986346.701     -117743.466         308.498          42.000  
  20497462.954    -1751776.426        3444.716          42.000  
  23521777.781     -350023.7381       5549.118          27.000  
  22482048.455     -407901.595        4690.789          36.000  
  24636922.899     -636116.2503       5050.319          22.000  
  24286505.932       62115.1623       -825.284          26.000  
  20783290.838    -1239214.215        2161.481          40.000  
  23534312.342     -176306.496         -16.449          42.000  
  21580914.447    -1093953.3101       4717.401          31.000  
 15  4  3 19 52  6.0000000  0  9G 3G23G10G 7G27G32G16G 8G 9
  20986288.435     -118052.741         310.505          43.000  
  20496806.913    -1755222.233        3447.353          43.000  
  23520728.202     -355573.7651       5551.554          26.000  
  22481156.138     -412593.208        4692.184          36.000  
  24635958.565     -641161.0413       5046.792          20.000  
  24286660.523       62939.4693       -822.394          27.000  
  20782878.681    -1241376.428        2163.251          37.000  
  23534315.448     -176291.453         -13.816          42.000  
  21580016.232    -1098671.704        4720.181          31.000  
 15  4  3 19 52  7.0000000  0 10G 3G23G10G 7G27G32G 6G16G 8G 9
  20986230.151     -118364.055         312.438          43.000  
  20496151.291    -1758670.362        3449.156          44.000  
  23519670.964     -361126.1713       5554.334          25.000  
  22480263.577     -417287.204        4695.128          37.000  
  24634995.470     -646208.6463       5050.500          17.000  
  24286816.808       63761.2513       -820.097          28.000  
  24676848.806       -3253.7933       1710.456          25.000  
  20782466.856    -1243540.482        2164.728          37.000  
  23534317.769     -176279.003         -11.089          43.000  
  21579121.192    -1103392.478        4722.413          33.000  
 15  4  3 19 52  8.0000000  0 10G 3G23G10G 7G27G32G 6G16G 8G 9
  20986171.222     -118676.492         311.745          44.000  
  20495494.744    -1762119.907        3449.789          43.000  
  23518613.585     -366679.8243       5554.437          25.000  
  22479371.015     -421982.587        4694.944          36.000  
  24634031.259     -651267.4153       5068.518          15.000  
  24286972.865       64581.5443       -820.592          28.000  
  24676519.345       -4963.9733       1710.695          24.000  
  20782054.804    -1245705.462        2164.606          38.000  
  23534319.514     -176268.168         -10.994          43.000  
  21578222.175    -1108114.771        4721.911          33.000  
 15  4  3 19 52  9.0000000  0  9G 3G23G10G 7G27G32G16G 8G 9
  20986112.450     -118987.166         309.430          45.000  
  20494839.297    -1765567.837        3446.737          44.000  
  23517553.921     -372231.8153       5551.450          24.000  
  22478477.739     -426676.482        4692.896          36.000  
  24633069.071     -656319.3093       5059.720          14.000  
  24287128.765       65403.1763       -822.877          28.000  
  20781645.387    -1247868.450        2161.584          40.000  
  23534322.079     -176256.015         -13.314          43.000  
  21577321.307    -1112835.661        4720.505          32.000  
 15  4  3 19 52 10.0000000  0 10G 3G23G10G 7G27G32G30G16G 8G 9
  20986054.271     -119296.243         310.164          45.000  
  20494184.739    -1769014.400        3448.217          44.000  
  23516494.710     -377782.0453       5553.886          23.000  
  22477585.893     -431369.059        4694.891          37.000  
  24632106.657     -661371.9673       5054.567          15.000  
  24287283.880       66225.9563       -821.273          29.000  
  25074588.443      -14291.2473       5503.907          22.000  
  20781235.307    -1250029.635        2162.604          40.000  
  23534324.732     -176242.766         -11.708          43.000  
  21576420.946    -1117555.248        4721.356          32.000  
 15  4  3 19 52 11.0000000  0  9G 3G23G10G 7G27G32G16G 8G 9
  20985994.905     -119608.345         314.374          45.000  
  20493528.175    -1772464.144        3452.363          43.000  
  23515433.579     -383335.4703       5555.262          25.000  
  22476693.454     -436064.871        4699.150          37.000  
  24631144.853     -666426.3153       5058.446          17.000  
  24287439.396       67045.3333       -816.585          29.000  
  20780824.389    -1252193.582        2166.461          40.000  
  23534326.215     -176232.989          -7.112          43.000  
  21575528.542    -1122278.1401       4726.059          31.000  
 15  4  3 19 52 12.0000000  0  9G 3G23G10G 7G27G32G16G 8G 9
  20985935.644     -119924.913         318.311          46.000  
  20492871.174    -1775918.596        3456.506          44.000  
  23514379.534     -388893.6313       5560.118          27.000  
  22475798.921     -440765.379        4702.690          37.000  
  24630180.554     -671485.6573       5058.496          20.000  
  24287596.099       67859.8483       -812.572          29.000  
  20780412.250    -1254361.769        2170.105          40.000  
  23534326.075     -176228.163          -2.648          42.000  
  21574629.681    -1127005.928        4729.925          31.000  
 15  4  3 19 52 13.0000000  0 10G 3G23G10G 7G27G32G30G16G 8G 9
  20985875.825     -120243.872         319.731          45.000  
  20492213.754    -1779375.620        3458.067          44.000  
  23513324.267     -394454.3252       5560.736          28.000  
  22474904.196     -445468.530        4704.021          37.000  
  24629218.733     -676548.2493       5066.629          23.000  
  24287749.958       68671.0751       -811.108          29.000  
  25071455.081      -11332.4603       5520.365          25.000  
  20779999.988    -1256532.127        2170.807          41.000  
  23534327.332     -176226.197          -0.937          43.000  
  21573740.296    -1131736.386        4731.712          32.000  
 15  4  3 19 52 14.0000000  0 10G 3G23G10G 7G27G32G30G16G 8G 9
  20985815.604     -120563.921         321.372          46.000  
  20491555.497    -1782833.971        3459.652          44.000  
  23512263.747     -400016.1903       5563.580          28.000  
  22474009.401     -450173.041        4705.766          37.000  
  24628258.308     -681612.1373       5066.740          25.000  
  24287907.638       69481.2881       -809.233          29.000  
  25070414.577      -16852.7093       5522.565          26.000  
  20779587.500    -1258703.367        2172.327          41.000  
  23534328.344     -176225.796           0.936          43.000  
  21572833.198    -1136468.416        4732.395          32.000  
 15  4  3 19 52 15.0000000  0 10G 3G23G10G 7G27G32G30G16G 8G 9
  20985754.965     -120886.898         324.482          46.000  
  20490896.839    -1786295.439        3463.004          44.000  
  23511210.836     -405581.1502       5567.136          29.000  
  22473113.228     -454880.754        4709.110          37.000  
  24627294.654     -686680.3553       5069.257          28.000  
  24288064.219       70288.1371       -805.711          29.000  
  25069352.191      -22376.2393       5525.812          26.000  
  20779173.685    -1260877.329        2175.238          41.000  
  23534328.082     -176228.813           4.797          43.000  
  21571932.785    -1141203.681        4736.594          33.000  
 15  4  3 19 52 16.0000000  0 10G 3G23G10G 7G27G32G30G16G 8G 9
  20985693.522     -121212.795         326.758          46.000  
  20490238.111    -1789760.038        3465.619          44.000  
  23510153.859     -411149.0993       5569.285          29.000  
  22472216.531     -459591.656        4711.828          36.000  
  24626333.252     -691751.5142       5071.321          30.000  
  24288220.346       71091.6901       -802.624          29.000  
  25068306.835      -27903.1533       5528.526          26.000  
  20778759.417    -1263053.946        2177.112          40.000  
  23534326.808     -176235.216           7.489          43.000  
  21571034.762    -1145942.210        4739.531          34.000  
 15  4  3 19 52 17.0000000  0 10G 3G23G10G 7G27G32G30G16G 8G 9
  20985631.888     -121539.492         326.804          46.000  
  20489579.051    -1793225.658        3466.221          44.000  
  23509089.466     -416718.7103       5580.005          30.000  
  22471319.118     -464303.626        4712.331          33.000  
  24625372.338     -696824.0112       5073.293          31.000  
  24288372.512       71893.9571       -801.636          29.000  
  25067257.868      -33431.2663       5532.175          25.000  
  20778345.847    -1265231.163        2177.197          40.000  
  23534325.133     -176242.888           8.065          43.000  
  21570134.138    -1150681.825        4739.757          35.000  
 15  4  3 19 52 18.0000000  0 10G 3G23G10G 7G27G32G30G16G 8G 9
  20985570.132     -121867.031         328.874          45.000  
  20488919.607    -1796692.300        3468.276          43.000  
  23508033.099     -422287.4153       5572.391          29.000  
  22470420.991     -469016.547        4713.636          32.000  
  24624406.591     -701897.7673       5077.755          31.000  
  24288521.956       72695.0481       -799.557          28.000  
  25066205.532      -38960.5033       5530.469          25.000  
  20777931.038    -1267409.041        2179.285          40.000  
  23534322.498     -176251.902          10.498          43.000  
  21569231.700    -1155422.612        4741.483          32.000  
 15  4  3 19 52 19.0000000  0 10G 3G23G10G 7G27G32G30G16G 8G 9
  20985507.503     -122198.327         333.865          45.000  
  20488258.942    -1800162.915        3473.193          44.000  
  23506974.569     -427861.2513       5577.219          30.000  
  22469522.828     -473733.7343       4720.591          34.000  
  24623442.990     -706975.5583       5080.875          32.000  
  24288673.615       73492.0191       -794.591          27.000  
  25065152.202      -44493.6503       5537.188          24.000  
  20777516.281    -1269590.409        2183.832          40.000  
  23534320.090     -176265.126          16.052          43.000  
  21568328.896    -1160167.594        4747.097          35.000  
