     2.12           OBSERVATION DATA    M (MIXED)           RINEX VERSION / TYPE
RTKCONV 2.4.2                           20150401 035300 UTC PGM / RUN BY / DATE 
log: D:\auto_jyr_matt.ubx                                   COMMENT             
format: u-blox                                              COMMENT             
                                                            MARKER NAME         
                                                            MARKER NUMBER       
                                                            OBSERVER / AGENCY   
                                                            REC # / TYPE / VERS 
                                                            ANT # / TYPE        
 -2508066.6415 -4659962.3978  3548411.0387                  APPROX POSITION XYZ 
        0.0000        0.0000        0.0000                  ANTENNA: DELTA H/E/N
     1     1                                                WAVELENGTH FACT L1/2
     4    CA    LA    DA    SA                              # / TYPES OF OBSERV 
  2015     3    30    21    12   14.0000000     GPS         TIME OF FIRST OBS   
  2015     3    30    22    36   41.0000000     GPS         TIME OF LAST OBS    
                                                            END OF HEADER       
 15  3 30 21 12 14.0000000  0  7G23G 9G27G28G10G16G19
  20592021.383     3003720.392       -5292.534          49.000  
  20572214.845        7006.3242      -3560.821          43.000  
  23372022.403        2978.2223      -3308.175          37.000  
  25243212.994        6512.5703      -1043.250          23.000  
  22256950.837       27475.6222      -3720.480          32.000  
  22237450.725     4015880.662       -7388.943          47.000  
  23984133.550      167727.5181      -1902.659          28.000  
 15  3 30 21 12 15.0000000  0  8G23G 9G27G28G 7G10G16G19
  20593026.289     3009001.949       -5270.143          50.000  
  20572892.664        1303.9303      -3538.143          43.000  
  23372652.103        6274.9752      -3285.427          38.000  
  25243412.084        7547.1833      -1022.900          23.000  
  21491089.678        1498.6783      -3404.317          34.000  
  22257657.117       31185.5702      -3698.654          33.000  
  22238854.892     4023258.725       -7366.782          47.000  
  23984493.356      169618.7601      -1880.604          27.000  
 15  3 30 21 12 16.0000000  0  6G23G27G28G10G16G19
  20594026.396     3014259.045       -5242.447          50.000  
  23373272.615        9547.2822      -3257.528          39.000  
  25243601.977        8557.3233       -997.372          23.000  
  22258358.162       34871.2552      -3671.211          34.000  
  22240253.823     4030612.263       -7338.612          47.000  
  23984854.375      171485.1851      -1852.081          27.000  
 15  3 30 21 12 17.0000000  0  7G23G 9G27G28G10G16G19
  20595021.259     3019487.051       -5211.303          50.000  
  20574223.871        4406.5903      -3479.106          42.000  
  23373890.929       12790.5352      -3226.767          39.000  
  25243785.850        9540.4463       -971.655          23.000  
  22259054.557       38527.9592      -3640.075          34.000  
  22241647.441     4037936.679       -7307.628          47.000  
  23985200.884      173322.3071      -1819.915          27.000  
 15  3 30 21 12 18.0000000  0  6G23G27G28G10G16G19
  20596010.520     3024683.875       -5183.360          50.000  
  23374501.634       16002.6082      -3198.544          40.000  
  25243965.526       10489.4973       -933.933          23.000  
  22259746.083       42153.7312      -3612.387          34.000  
  22243035.423     4045229.882       -7279.893          47.000  
  23985543.842      175128.0841      -1793.335          26.000  
 15  3 30 21 12 19.0000000  0  7G23G 9G27G28G10G16G19
  20596994.198     3029854.359       -5156.796          50.000  
  20575537.951        3788.6233      -3424.532          42.000  
  23375107.200       19188.3802      -3172.179          40.000  
  25244139.959       11410.7853       -905.443          23.000  
  22260432.400       45753.2812      -3585.876          35.000  
  22244418.841     4052496.660       -7253.122          47.000  
  23985880.622      176907.2161      -1768.831          25.000  
 15  3 30 21 12 20.0000000  0  7G23G 9G27G28G10G16G19
  20597973.644     3034997.255       -5132.924          50.000  
  20576181.733        1099.7473      -3400.415          42.000  
  23375708.273       22346.5712      -3148.214          41.000  
  25244308.973       12307.8443       -876.006          23.000  
  22261112.609       49325.4362      -3562.270          36.000  
  22245796.492     4059735.805       -7229.172          47.000  
  23986214.881      178663.1953      -1746.635          23.000  
 15  3 30 21 12 21.0000000  0  6G23G27G28G10G16G19
  20598949.992     3040129.8563      -5126.361          50.000  
  23376306.676       25493.9733      -3141.568          42.000  
  25244477.882       13187.8233       -874.722          23.000  
  22261791.414       52886.9293      -3555.876          36.000  
  22247171.098     4066964.1013      -7222.158          47.000  
  23986548.695      180402.4543      -1734.879          23.000  
 15  3 30 21 12 22.0000000  0  6G23G27G28G10G16G19
  20599921.324     3045237.2833      -5085.511          50.000  
  23376901.571       28616.7343      -3100.777          42.000  
  25244638.625       14044.1263       -836.906          24.000  
  22262465.272       56421.3773      -3520.577          36.000  
  22248541.211     4074165.2353      -7184.886          47.000  
  23986871.044      182122.7463      -1694.879          22.000  
 15  3 30 21 12 23.0000000  0  7G23G 9G27G28G10G16G19
  20600888.136     3050318.3062      -5068.839          50.000  
  20578108.194        3332.1233      -3336.579          41.000  
  23377490.551       31713.1092      -3084.280          42.000  
  25244795.555       14873.5293       -823.851          24.000  
  22263133.920       59932.2703      -3498.855          36.000  
  22249906.969     4081342.3433      -7164.719          47.000  
  23987188.001      183813.9113      -1688.404          20.000  
 15  3 30 21 12 24.0000000  0  7G23G27G28G 7G10G16G19
  20601852.853     3055386.1903      -5066.453          50.000  
  23378077.105       34796.3353      -3081.614          42.000  
  25244951.690       15690.5293       -818.016          24.000  
  21496707.924        1115.3413      -3191.767          33.000  
  22263799.315       63430.0323      -3496.518          36.000  
  22251270.180     4088506.2803      -7162.600          47.000  
  23987508.361      185492.3253      -1676.184          18.000  
 15  3 30 21 12 25.0000000  0  7G23G 9G27G28G10G16G19
  20602814.517     3060437.3493      -5040.104          50.000  
  20579379.276        3607.4483      -3307.079          42.000  
  23378660.248       37862.8803      -3055.314          42.000  
  25245105.104       16493.7333       -789.554          24.000  
  22264462.484       66910.8083      -3471.243          35.000  
  22252630.189     4095653.4523      -7136.045          47.000  
  23987827.334      187165.0483      -1658.723          16.000  
 15  3 30 21 12 26.0000000  0  6G23G27G28G10G16G19
  20603772.194     3065469.1952      -5028.389          50.000  
  23379240.659       40910.1142      -3043.688          42.000  
  25245252.602       17274.3343       -768.291          24.000  
  22265121.902       70372.9132      -3459.187          35.000  
  22253986.830     4102781.2573      -7124.339          47.000  
  23988134.841      188808.1133      -1630.097          17.000  
 15  3 30 21 12 27.0000000  0  7G23G 9G27G28G10G16G19
  20604726.285     3070486.8763      -5001.136          49.000  
  20580623.625        3012.2753      -3264.496          42.000  
  23379817.546       43942.0253      -3012.608          40.000  
  25245401.121       18039.4113       -736.319          24.000  
  22265777.314       73821.9283      -3430.775          34.000  
  22255340.086     4109893.6113      -7093.436          47.000  
  23988443.178      190434.9293      -1617.493          19.000  
 15  3 30 21 12 28.0000000  0  7G23G27G28G 7G10G16G19
  20605673.509     3075461.4413      -4954.687          50.000  
  23380386.031       46935.5673      -2970.792          40.000  
  25245537.512       18767.5383       -685.196          23.000  
  21499115.522        3707.2603      -3082.951          35.000  
  22266426.026       77228.8313      -3374.003          34.000  
  22256686.449     4116967.2183      -7050.985          47.000  
  23988746.882      192037.6883      -1549.023          19.000  
 15  3 30 21 12 29.0000000  0  8G23G 9G27G28G 7G10G16G19
  20606612.313     3080395.3303      -4923.468          50.000  
  20581851.867        3044.5063      -3181.174          42.000  
  23380946.933       49887.2283      -2936.745          39.000  
  25245668.196       19451.0083       -669.395          24.000  
  21499685.359        6770.9173      -3044.778          35.000  
  22267066.824       80596.5123      -3343.715          34.000  
  22258024.793     4123998.7923      -7037.039          47.000  
  23989040.167      193581.1383      -1531.099          21.000  
 15  3 30 21 12 30.0000000  0  7G23G 9G27G28G10G16G19
  20607542.383     3085284.5513      -4887.853          50.000  
  20582454.999        6201.3473      -3157.183          42.000  
  23381499.014       52791.2373      -2901.302          39.000  
  25245791.046       20087.7493       -625.225          24.000  
  22267700.363       83915.8623      -3313.165          35.000  
  22259353.226     4130984.7943      -6978.065          47.000  
  23989326.840      195078.3233      -1483.910          22.000  
 15  3 30 21 12 31.0000000  0  7G23G 9G27G28G10G16G19
  20608471.747     3090169.4173      -4872.890          50.000  
  20583056.194        9353.6482      -3139.908          42.000  
  23382050.022       55691.5743      -2888.373          38.000  
  25245909.524       20721.2423       -618.181          24.000  
  22268332.846       87231.4773      -3303.578          36.000  
  22260681.790     4137964.9823      -6968.451          47.000  
  23989608.364      196567.7643      -1480.830          23.000  
 15  3 30 21 12 32.0000000  0  7G23G 9G27G28G10G16G19
  20609396.111     3095027.3462      -4840.405          50.000  
  20583652.102       12478.4012      -3107.295          42.000  
  23382596.153       58564.9902      -2855.637          37.000  
  25246022.549       21328.8223       -594.883          24.000  
  22268959.876       90520.6962      -3271.585          36.000  
  22262005.197     4144918.5712      -6936.129          48.000  
  23989882.847      198033.4033      -1446.577          24.000  
 15  3 30 21 12 33.0000000  0  9G23G 9G27G28G 7G10G16G30G19
  20610313.312     3099848.6942      -4801.873          50.000  
  20584239.214       15566.5352      -3068.669          42.000  
  23383135.086       61401.8832      -2817.539          36.000  
  25246128.612       21899.2793       -551.675          24.000  
  21501964.994        2357.0913      -2928.597          36.000  
  22269579.324       93773.4842      -3233.452          36.000  
  22263321.310     4151835.5252      -6897.518          47.000  
  23392339.037        1809.6613      -1881.137          32.000  
  23990153.352      199460.1083      -1407.187          24.000  
 15  3 30 21 12 34.0000000  0  9G23G 9G27G28G 7G10G16G30G19
  20611223.324     3104631.1532      -4763.061          50.000  
  20584818.701       18615.6822      -3029.791          42.000  
  23383666.864       64199.8662      -2778.760          35.000  
  25246230.085       22429.9413       -508.117          24.000  
  21502516.936        5266.2262      -2890.106          36.000  
  22270191.181       96987.5592      -3194.625          36.000  
  22264630.093     4158713.5202      -6858.552          48.000  
  23392711.233        3669.4572      -1840.193          33.000  
  23990422.478      200847.0523      -1367.451          24.000  
 15  3 30 21 12 35.0000000  0  7G23G 9G27G28G10G16G19
  20612125.273     3109374.4962      -4724.489          49.000  
  20585390.711       21625.6262      -2990.894          41.000  
  23384191.234       66958.7982      -2740.698          33.000  
  25246321.445       22922.0093       -479.351          23.000  
  22270795.081      100162.6742      -3156.085          35.000  
  22265930.614     4165552.3522      -6819.946          48.000  
  23990691.560      202202.5063      -1347.294          21.000  
 15  3 30 21 12 36.0000000  0  7G23G 9G27G28G10G16G19
  20613020.766     3114077.3982      -4686.115          50.000  
  20585954.981       24595.1072      -2952.465          41.000  
  23384708.746       69677.2472      -2701.029          31.000  
  25246407.798       23373.1703       -433.293          22.000  
  22271392.986      103297.6052      -3118.721          34.000  
  22267224.635     4172350.6992      -6781.839          48.000  
  23990962.274      203516.2273      -1293.359          21.000  
 15  3 30 21 12 37.0000000  0  6G23G 9G28G10G16G19
  20613908.807     3118739.3612      -4644.597          50.000  
  20586512.742       27523.5262      -2910.954          41.000  
  25246486.664       23782.5173       -392.434          22.000  
  22271981.844      106391.6492      -3076.653          34.000  
  22268510.551     4179108.0482      -6740.050          48.000  
  23991203.811      204786.5203      -1249.323          21.000  
 15  3 30 21 12 38.0000000  0  7G23G 9G28G 7G10G16G19
  20614786.396     3123353.2202      -4589.220          50.000  
  20587061.412       30403.7952      -2855.758          42.000  
  25246554.947       24148.3613       -336.571          22.000  
  21504655.434        8081.6852      -2714.399          35.000  
  22272560.092      109437.7562      -3020.980          34.000  
  22269786.833     4185817.2342      -6684.275          48.000  
  23991437.068      206007.8833      -1193.366          24.000  
 15  3 30 21 12 39.0000000  0  7G23G 9G28G 7G10G16G19
  20615656.010     3127922.0632      -4548.930          50.000  
  20587601.182       33238.9692      -2815.212          42.000  
  25246613.065       24463.3923       -288.861          22.000  
  21505165.957       10775.8052      -2674.114          35.000  
  22273130.714      112439.1002      -2981.232          34.000  
  22271055.639     4192481.3592      -6644.223          48.000  
  23991661.557      207180.6643      -1156.417          22.000  
 15  3 30 21 12 40.0000000  0  7G23G 9G28G 7G10G16G19
  20616517.013     3132448.8792      -4508.904          50.000  
  20588132.550       36032.0322      -2775.422          43.000  
  25246667.893       24752.2563       -288.861          19.000  
  21505671.883       13427.6022      -2633.229          36.000  
  22273694.007      115398.5902      -2941.531          34.000  
  22272315.972     4199103.4032      -6604.235          48.000  
  23991882.529      208337.0773      -1125.167          18.000  
 15  3 30 21 12 41.0000000  0  7G23G 9G28G 7G10G16G19
  20617370.564     3136932.5102      -4468.421          49.000  
  20588656.589       38781.8072      -2734.490          43.000  
  25246721.134       25041.1213       -288.861          15.000  
  21506167.870       16035.9912      -2592.734          35.000  
  22274247.676      118314.9842      -2900.880          34.000  
  22273568.444     4205682.2072      -6563.772          48.000  
  23992064.927      209427.0633      -1071.619          22.000  
 15  3 30 21 12 42.0000000  0  7G23G 9G28G 7G10G16G19
  20618216.088     3141377.5492      -4425.268          49.000  
  20589172.836       41492.9412      -2691.444          45.000  
  25246777.603       25329.9863       -288.861          10.000  
  21506656.162       18605.4992      -2549.927          34.000  
  22274794.147      121192.9762      -2858.718          33.000  
  22274812.496     4212222.3422      -6520.292          48.000  
  23992235.625      210475.7113      -1029.685          23.000  
 15  3 30 21 12 43.0000000  0  7G23G 9G28G 7G10G16G19
  20619053.699     3145777.123       -4377.328          49.000  
  20589680.306       44158.5272      -2643.313          45.000  
  25246830.390       25618.8503       -288.861           8.000  
  21507135.502       21129.3082      -2501.606          35.000  
  22275332.661      124025.111       -2809.958          33.000  
  22276048.102     4218716.486       -6472.578          48.000  
  23992415.153      211483.8473       -987.462          23.000  
 15  3 30 21 12 44.0000000  0  7G23G 9G28G 7G10G16G19
  20619880.926     3150126.075       -4325.601          49.000  
  20590177.140       46773.3862      -2591.156          45.000  
  25246884.651       25907.7153       -288.861           8.000  
  21507605.332       23602.2462      -2449.650          33.000  
  22275860.355      126807.348       -2758.756          33.000  
  22277273.718     4225160.425       -6420.558          48.000  
  23992598.651      212437.1713       -925.593          25.000  
 15  3 30 21 12 45.0000000  0  6G23G 9G 7G10G16G19
  20620699.464     3154428.814       -4282.785          49.000  
  20590666.252       49341.9992      -2548.741          44.000  
  21508066.227       26028.5662      -2405.931          34.000  
  22276380.974      129543.587       -2716.150          33.000  
  22278491.351     4231558.124       -6377.816          48.000  
  23992768.075      213341.7763       -887.682          26.000  
 15  3 30 21 12 46.0000000  0  7G23G 9G27G 7G10G16G19
  20621510.689     3158691.114       -4238.780          50.000  
  20591147.555       51870.1012      -2504.571          45.000  
  23389438.628        2185.2293      -2255.238          31.000  
  21508519.907       28414.2052      -2361.870          36.000  
  22276894.412      132239.546       -2672.534          34.000  
  22279700.965     4237915.324       -6333.778          48.000  
  23992932.142      214204.8523       -841.493          26.000  
 15  3 30 21 12 47.0000000  0  6G23G 9G 7G10G16G19
  20622314.516     3162912.167       -4196.208          50.000  
  20591621.215       54356.8862      -2461.992          46.000  
  21508964.931       30758.4762      -2319.493          34.000  
  22277398.959      134894.413       -2630.205          34.000  
  22280902.448     4244231.223       -6291.040          48.000  
  23993086.768      215027.5183       -805.232          25.000  
 15  3 30 21 12 48.0000000  0  6G23G 9G 7G10G16G19
  20623108.876     3167085.829       -4148.288          50.000  
  20592085.783       56796.1772      -2413.765          46.000  
  21509400.907       33054.9792      -2270.887          34.000  
  22277894.911      137501.988       -2582.174          33.000  
  22282095.292     4250499.674       -6243.036          48.000  
  23993234.912      215811.7993       -752.100          23.000  
 15  3 30 21 12 49.0000000  0  7G23G 9G27G 7G10G16G19
  20623893.892     3171210.989       -4100.710          50.000  
  20592540.405       59186.398       -2366.392          46.000  
  23390689.171        8752.4422      -2116.231          32.000  
  21509827.181       35302.7222      -2223.011          35.000  
  22278381.292      140061.306       -2535.510          34.000  
  22283278.775     4256719.583       -6195.540          48.000  
  23993371.198      216545.2993       -716.738          23.000  
 15  3 30 21 12 50.0000000  0  6G23G 9G 7G10G16G19
  20624669.528     3175287.360       -4054.974          50.000  
  20592985.804       61528.219       -2320.225          44.000  
  21510245.419       37501.3992      -2177.416          34.000  
  22278858.626      142572.031       -2490.234          33.000  
  22284453.157     4262890.630       -6149.629          48.000  
  23993498.995      217228.6383       -656.119          22.000  
 15  3 30 21 12 51.0000000  0  6G23G 9G 7G10G16G19
  20625436.325     3179317.122       -4007.163          50.000  
  20593422.060       63823.440       -2272.464          44.000  
  21510654.452       39653.1952      -2129.550          35.000  
  22279327.810      145036.286       -2441.973          35.000  
  22285617.688     4269015.032       -6101.699          47.000  
  23993622.682      217859.8413       -608.332          26.000  
 15  3 30 21 12 52.0000000  0  7G23G 9G27G 7G10G16G19
  20626194.965     3183305.253       -3970.068          50.000  
  20593851.143       66076.918       -2235.381          44.000  
  23391848.869       14894.2882      -1986.510          35.000  
  21511056.392       41763.0662      -2091.628          35.000  
  22279789.865      147459.068       -2405.090          34.000  
  22286775.310     4275097.754       -6064.595          48.000  
  23993736.527      218447.2793       -567.580          26.000  
 15  3 30 21 12 53.0000000  0  7G23G 9G27G 7G10G16G19
  20626947.854     3187258.149       -3935.558          50.000  
  20594272.880       68295.083       -2200.880          45.000  
  23392221.981       16863.0702      -1951.789          35.000  
  21511451.604       43837.4652      -2057.251          36.000  
  22280246.546      149846.862       -2370.891          34.000  
  22287926.658     4281145.190       -6030.276          48.000  
  23993841.551      218999.2383       -534.581          26.000  
 15  3 30 21 12 54.0000000  0  8G23G 9G27G 7G10G16G30G19
  20627692.176     3191178.336       -3900.470          49.000  
  20594688.797       70480.429       -2165.484          46.000  
  23392587.738       18799.0842      -1915.804          36.000  
  21511840.247       45878.8222      -2021.423          33.000  
  22280697.687      152201.944       -2334.209          29.000  
  22289071.706     4287159.820       -5994.892          48.000  
  23398070.649        1342.5183       -971.104          36.000  
  23993939.011      219526.4823       -516.027          25.000  
 15  3 30 21 12 55.0000000  0  7G23G 9G27G10G16G30G19
  20628430.538     3195057.175       -3857.295          49.000  
  20595097.630       72624.385       -2122.309          47.000  
  23392948.591       20693.8602      -1873.509          37.000  
  22281146.803      154515.973       -2292.383          32.000  
  22290207.925     4293133.079       -5951.619          47.000  
  23398226.208        2292.4782       -928.064          36.000  
  23994028.574      220010.6433       -465.560          22.000  
 15  3 30 21 12 56.0000000  0  7G23G 9G27G10G16G30G19
  20629160.987     3198895.926       -3823.879          49.000  
  20595498.714       74728.183       -2088.733          47.000  
  23393301.897       22548.5052      -1840.026          37.000  
  22281570.677      156790.006       -2259.077          33.000  
  22291336.945     4299066.171       -5918.078          48.000  
  23398392.413        3201.9952       -895.016          36.000  
  23994126.225      220451.4273       -424.476          25.000  
 15  3 30 21 12 57.0000000  0  7G23G 9G27G10G16G30G19
  20629886.323     3202707.122       -3797.489          49.000  
  20595894.005       76804.332       -2062.436          47.000  
  23393648.877       24375.5862      -1813.461          38.000  
  22282000.494      159036.689       -2232.985          33.000  
  22292460.669     4304971.673       -5891.776          48.000  
  23398561.427        4083.6922       -867.460          37.000  
  23994199.918      220861.2603       -395.854          27.000  
 15  3 30 21 12 58.0000000  0  8G23G 9G27G 7G10G16G30G19
  20630606.825     3206493.526       -3773.759          49.000  
  20596284.698       78855.615       -2038.628          47.000  
  23393993.143       26177.9212      -1789.527          38.000  
  21513325.129         921.3053      -1892.857          35.000  
  22282418.601      161258.796       -2209.665          33.000  
  22293580.127     4310852.312       -5868.159          48.000  
  23398724.386        4940.2772       -843.999          37.000  
  23994275.774      221245.0793       -370.975          29.000  
 15  3 30 21 12 59.0000000  0  7G23G 9G27G10G16G30G19
  20631322.101     3210252.980       -3744.379          49.000  
  20596669.746       80879.913       -2009.414          48.000  
  23394331.189       27953.3992      -1760.660          38.000  
  22282840.076      163454.029       -2179.663          32.000  
  22294693.486     4316705.971       -5838.559          47.000  
  23398883.933        5769.6452       -814.625          36.000  
  23994346.814      221601.7532       -341.054          30.000  
 15  3 30 21 13  0.0000000  0  7G23G 9G27G10G16G30G19
  20632031.347     3213983.325       -3720.625          49.000  
  20597049.000       82875.052       -1985.418          49.000  
  23394662.944       29699.5062      -1735.505          36.000  
  22283251.648      165620.497       -2156.561          31.000  
  22295803.127     4322530.766       -5815.979          48.000  
  23399037.609        6569.7962       -790.318          36.000  
  23994407.122      221928.0593       -311.943          31.000  
 15  3 30 21 13  1.0000000  0  6G23G 9G10G16G30G19
  20632737.645     3217688.491       -3686.633          50.000  
  20597425.445       84844.922       -1951.312          49.000  
  22283642.289      167762.3193      -2122.427          31.000  
  22296907.351     4328330.483       -5780.789          49.000  
  23399182.114         720.1763       -754.184          35.000  
  23994476.460      222230.1893       -285.689          30.000  
 15  3 30 21 13  2.0000000  0  6G23G 9G10G16G30G19
  20633438.550     3221368.248       -3672.197          50.000  
  20597795.573       86789.263       -1936.587          50.000  
  22284050.414      169879.9713      -2108.892          32.000  
  22298006.156     4334104.265       -5766.282          50.000  
  23399307.546        1468.8263       -741.184          35.000  
  23994526.071      222513.4183       -292.750          29.000  
 15  3 30 21 13  3.0000000  0  7G23G 9G20G10G16G30G19
  20634133.243     3225019.694       -3638.880          50.000  
  20598160.518       88705.239       -1903.407          50.000  
  23473473.127        1058.8593      -1114.906          35.000  
  22284437.949      171967.8922      -2075.559          32.000  
  22299099.631     4339849.668       -5732.850          50.000  
  23399439.531        2188.9612       -707.696          34.000  
  23994568.109      222765.1053       -233.991          28.000  
 15  3 30 21 13  4.0000000  0  7G23G 9G20G10G16G30G19
  20634822.998     3228646.474       -3613.719          49.000  
  20598521.336       90596.464       -1877.992          50.000  
  23473690.425        2162.6712      -1090.400          36.000  
  22284835.517      174031.3122      -2050.021          32.000  
  22300188.428     4345570.361       -5707.459          50.000  
  23399570.914        2884.1152       -682.558          35.000  
  23994614.072      222987.6243       -208.017          29.000  
 15  3 30 21 13  5.0000000  0  7G23G 9G20G10G16G30G19
  20635507.527     3232248.272       -3589.907          49.000  
  20598876.099       92462.649       -1854.211          50.000  
  23473899.793        3241.5252      -1067.698          35.000  
  22285224.011      176069.9582      -2027.118          33.000  
  22301271.624     4351266.013       -5683.773          49.000  
  23399700.185        3554.0032       -657.591          34.000  
  23994642.926      223184.9383       -184.919          28.000  
 15  3 30 21 13  6.0000000  0  6G23G 9G20G10G16G19
  20636189.167     3235827.894       -3568.198          49.000  
  20599226.805       94306.578       -1832.401          50.000  
  23474105.898        4298.3222      -1045.925          33.000  
  22285607.689      178086.6302      -2005.385          33.000  
  22302351.095     4356939.445       -5661.900          49.000  
  23994668.657      223364.1443       -161.772          25.000  
 15  3 30 21 13  7.0000000  0  6G23G 9G20G10G16G19
  20636865.921     3239384.313       -3552.265          49.000  
  20599573.358       96127.238       -1816.609          50.000  
  23474297.414        5331.9122      -1029.263          33.000  
  22285985.775      180080.2782      -1990.080          32.000  
  22303426.386     4362589.607       -5645.918          49.000  
  23994696.167      223516.5693       -143.966          24.000  
 15  3 30 21 13  8.0000000  0  6G23G 9G20G10G16G19
  20637538.043     3242917.1393      -3521.033          49.000  
  20599915.312       97924.7063      -1785.144          50.000  
  23474486.452        6342.0493       -999.228          33.000  
  22286357.290      182042.1263      -1966.034          30.000  
  22304496.782     4368216.6083      -5614.756          49.000  
  23994728.092      223649.0793       -111.104          23.000  
 15  3 30 21 13  9.0000000  0  6G23G 9G20G10G16G19
  20638207.712     3246433.0083      -3499.928          50.000  
  20600253.646       99704.6643      -1763.966          50.000  
  23474673.353        7334.1953       -976.836          31.000  
  22286730.585      183994.3953      -1941.687          31.000  
  22305565.329     4373826.1033      -5593.517          50.000  
  23994754.529      223757.0693        -98.077          26.000  
 15  3 30 21 13 10.0000000  0  6G23G 9G20G10G16G19
  20638870.751     3249926.0893      -3483.442          49.000  
  20600587.241      101461.8063      -1747.486          49.000  
  23474856.545        8306.6183       -964.275          24.000  
  22287098.706      185927.2843      -1920.245          32.000  
  22306628.728     4379413.2033      -5577.848          50.000  
  23994779.753      223844.7453        -79.101          27.000  
 15  3 30 21 13 11.0000000  0  7G23G 9G 3G20G10G16G19
  20639531.503     3253401.3922      -3468.868          49.000  
  20600917.190      103201.3732      -1733.348          50.000  
  23488841.053        1727.1113      -6321.354          31.000  
  23475035.366        9261.7963       -949.755          25.000  
  22287453.870      187841.3133      -1904.659          32.000  
  22307688.628     4384983.2592      -5564.289          49.000  
  23994790.878      223905.1713        -64.318          25.000  
 15  3 30 21 13 12.0000000  0  7G23G 9G 3G20G10G16G19
  20640191.226     3256862.2902      -3454.558          52.000  
  20601246.441      104926.9772      -1719.017          51.000  
  23490061.181        8043.1223      -6308.051          31.000  
  23475216.464       10200.9473       -934.816          24.000  
  22287827.313      189740.2713      -1893.123          27.000  
  22308745.195     4390540.2102      -5550.689          46.000  
  23994802.639      223959.4393        -48.478          30.000  
 15  3 30 21 13 13.0000000  0  8G23G 9G 3G28G20G10G16G19
  20640847.363     3260310.7392      -3439.937          51.000  
  20601572.507      106640.6912      -1704.839          49.000  
  23491237.204       14349.3993      -6288.304          27.000  
  25244222.236       -2131.8233        831.461          20.000  
  23475392.834       11129.6573       -925.713          34.000  
  22288182.774      191627.1713      -1874.099          28.000  
  22309800.549     4396087.6202      -5539.527          48.000  
  23994799.141      224002.8063        -31.009          31.000  
 15  3 30 21 13 14.0000000  0  9G23G 9G 3G28G20G10G16G30G19
  20641501.441     3263747.4942      -3432.172          50.000  
  20601896.348      108343.1192      -1697.997          49.000  
  23492419.587       20642.1333      -6278.828          26.000  
  25244057.873       -2966.6863        844.935          20.000  
  23475562.528       12047.1433       -910.862          26.000  
  22288540.294      193511.0723      -1871.725          29.000  
  22310854.237     4401626.0582      -5535.253          48.000  
  23400644.137         727.2693       -491.052          45.000  
  23994797.832      224027.5973        -17.695          35.000  
 15  3 30 21 13 15.0000000  0 10G23G 9G 3G28G 7G20G10G16G30G19
  20642153.974     3267171.6192      -3416.299          50.000  
  20602217.467      110032.6992      -1681.322          50.000  
  23493596.264       26915.3393      -6279.386          25.000  
  25243896.694       -3815.2253        862.422          19.000  
  21518789.508        1074.1423      -1523.049          40.000  
  23475737.729       12954.0683       -904.159          27.000  
  22288888.016      195370.8673      -1849.735          33.000  
  22311905.455     4407152.2372      -5517.079          47.000  
  23400741.151        1209.5792       -476.081          43.000  
  23994787.658      224041.2443         -6.101          38.000  
 15  3 30 21 13 16.0000000  0 10G23G 9G 3G28G 7G20G10G16G30G19
  20642800.051     3270575.6642      -3391.596          48.000  
  20602535.017      111701.2812      -1655.212          46.000  
  23494794.169       33177.4063      -6243.930          26.000  
  25243724.870       -4684.4633        878.800          19.000  
  21519064.358        2591.4973      -1506.354          46.000  
  23475905.268       13839.1503       -881.925          26.000  
  22289236.166      197219.2983      -1829.228          36.000  
  22312952.800     4412655.3632      -5487.070          48.000  
  23400827.355        1673.3692       -452.195          44.000  
  23994787.798      224035.2162         17.707          41.000  
 15  3 30 21 13 17.0000000  0 10G23G 9G 3G28G 7G20G10G16G30G19
  20643442.804     3273952.3702      -3361.320          48.000  
  20602848.214      113341.6942      -1624.674          50.000  
  23495975.043       39403.7673      -6211.796          32.000  
  25243554.242       -5576.3183        906.204          20.000  
  21519348.761        4082.9892      -1476.234          48.000  
  23476058.935       14698.0983       -840.219          27.000  
  22289576.637      199034.8583      -1800.291          39.000  
  22313993.357     4418126.3282      -5454.212          45.000  
  23400912.539        2113.6722       -425.589          48.000  
  23994787.248      224003.5422         46.650          43.000  
 15  3 30 21 13 18.0000000  0  9G23G 9G27G28G 7G10G16G30G19
  20644081.263     3277301.5082      -3338.296          49.000  
  20603155.948      114954.2682      -1601.625          50.000  
  23399908.837        2986.9032      -1354.751          35.000  
  25243374.610       -6495.8643        933.975          23.000  
  21519627.337        5546.8082      -1452.982          49.000  
  22289915.537      200822.9942      -1777.289          40.000  
  22315029.001     4423568.6322      -5431.557          46.000  
  23400992.234        2526.9992       -402.376          49.000  
  23994780.486      223944.5862         69.862          44.000  
 15  3 30 21 13 19.0000000  0  9G23G 9G27G28G 7G10G16G30G19
  20644714.279     3280625.470       -3313.229          49.000  
  20603457.663      116542.104       -1576.750          50.000  
  23400165.006        4327.7552      -1330.651          34.000  
  25243193.197       -7443.7093        961.956          25.000  
  21519900.624        6985.6722      -1427.460          50.000  
  22290250.800      202586.6712      -1752.435          40.000  
  22316058.991     4428986.148       -5406.374          45.000  
  23401065.027        2915.3522       -377.012          48.000  
  23994763.071      223860.6402         95.233          44.000  
 15  3 30 21 13 20.0000000  0  9G23G 9G27G28G 7G10G16G30G19
  20645342.478     3283924.764       -3288.293          49.000  
  20603755.302      118104.661       -1551.525          50.000  
  23400414.701        5643.3982      -1304.544          35.000  
  25243011.148       -8417.8453        986.137          24.000  
  21520169.855        8399.0952      -1402.456          50.000  
  22290581.368      204325.3462      -1727.595          41.000  
  22317084.793     4434378.464       -5381.276          45.000  
  23401134.819        3278.2212       -351.591          49.000  
  23994742.995      223751.2672        120.297          44.000  
 15  3 30 21 13 21.0000000  0  9G23G 9G27G28G 7G10G16G30G19
  20645963.531     3287197.655       -3258.082          48.000  
  20604046.590      119640.861       -1521.436          49.000  
  23400658.507        6932.2792      -1273.640          33.000  
  25242821.987       -9415.6693       1001.157          22.000  
  21520433.388        9785.6512      -1371.346          47.000  
  22290918.550      206037.5282      -1697.234          42.000  
  22318106.600     4439744.769       -5351.661          47.000  
  23401197.492        3613.9502       -320.246          48.000  
  23994715.633      223614.9932        151.438          43.000  
 15  3 30 21 13 22.0000000  0  8G23G 9G28G 7G10G16G30G19
  20646581.949     3290445.502       -3237.057          49.000  
  20604333.454      121152.155       -1500.292          49.000  
  25242633.761      -10438.4413       1029.727          20.000  
  21520692.166       11146.8472      -1349.569          48.000  
  22291230.132      207724.8102      -1676.151          43.000  
  22319124.166     4445087.146       -5332.633          47.000  
  23401256.029        3923.4942       -297.307          42.000  
  23994681.701      223452.9002        172.667          44.000  
 15  3 30 21 13 23.0000000  0  9G23G 9G27G28G 7G10G16G30G19
  20647195.927     3293670.614       -3216.191          49.000  
  20604617.997      122641.173       -1480.656          50.000  
  23401130.090        1069.9733      -1230.680          42.000  
  25242425.073      -11480.7763       1067.644          18.000  
  21520947.140       12484.3372      -1328.450          50.000  
  22291548.799      209389.0742      -1655.344          49.000  
  22320137.569     4450409.639       -5315.584          48.000  
  23401310.360        4207.6752       -274.835          44.000  
  23994643.886      223266.5162        197.826          40.000  
 15  3 30 21 13 24.0000000  0  9G23G 9G27G28G 7G10G16G30G19
  20647804.931     3296875.050       -3194.577          49.000  
  20604896.608      124110.250       -1459.545          49.000  
  23401360.625        2288.9073      -1212.534          40.000  
  25242228.741      -12548.5463       1072.248          18.000  
  21521197.621       13800.5512      -1307.443          50.000  
  22291861.900      211032.2442      -1631.628          45.000  
  22321147.004     4455714.621       -5297.439          46.000  
  23401360.032        4468.5922       -250.439          44.000  
  23994603.637      223057.7852        220.114          42.000  
 15  3 30 21 13 25.0000000  0  9G23G 9G27G28G 7G10G16G30G19
  20648411.212     3300059.239       -3175.517          49.000  
  20605172.583      125559.521       -1441.577          50.000  
  23401583.098        3490.4083      -1197.034          45.000  
  25242037.897      -13639.4393       1101.042          19.000  
  21521444.070       15095.0442      -1285.825          47.000  
  22292170.786      212654.342       -1613.199          46.000  
  22322152.799     4461002.811       -5281.405          48.000  
  23401405.708        4705.4892       -227.126          42.000  
  23994559.793      222826.659         239.592          39.000  
 15  3 30 21 13 26.0000000  0  9G23G 9G27G28G 7G10G16G30G19
  20649012.878     3303223.841       -3154.308          48.000  
  20605444.073      126989.696       -1419.798          49.000  
  23401807.665        4676.8042      -1177.693          45.000  
  25241797.031      -14764.7923       1144.103          20.000  
  21521686.532       16369.1942      -1263.035          49.000  
  22292475.066      214256.341       -1590.896          46.000  
  22323155.829     4466274.302       -5262.420          48.000  
  23401448.243        4923.7043       -211.164          36.000  
  23994515.522      222575.3603        259.153          30.000  
 15  3 30 21 13 27.0000000  0 10G23G 9G27G28G 7G20G10G16G30G19
  20649612.660     3306372.164       -3141.147          50.000  
  20605713.723      128404.030       -1407.488          50.000  
  23402032.171        5847.9642      -1164.701          40.000  
  25241552.318      -15922.8113       1167.049          25.000  
  21521925.565       17626.2292      -1250.745          47.000  
  23477402.628         865.6513       -624.718          41.000  
  22292776.544      215841.628       -1578.423          47.000  
  22324156.346     4471532.190       -5251.742          47.000  
  23401492.558        5132.8463       -195.684          28.000  
  23994490.080      222324.9653        260.218          24.000  
 15  3 30 21 13 28.0000000  0  9G23G 9G27G28G 7G20G10G16G19
  20650208.654     3309506.800       -3126.466          43.000  
  20605980.842      129805.023       -1394.252          49.000  
  23402252.550        7009.2973      -1154.369          34.000  
  25241330.386      -17101.0583       1190.064          26.000  
  21522162.443       18868.2462      -1234.586          50.000  
  23477521.132        1480.7062       -609.075          44.000  
  22293075.554      217412.3803      -1564.201          43.000  
  22325154.778     4476779.363       -5241.744          47.000  
  23994446.219      222070.4013        280.566          25.000  
 15  3 30 21 13 29.0000000  0  9G23G 9G28G 7G20G10G16G30G19
  20650802.389     3312626.873       -3112.490          47.000  
  20606245.038      131191.948       -1378.986          50.000  
  25241093.159      -18298.4923       1209.586          25.000  
  21522395.395       20094.6852      -1216.276          47.000  
  23477653.509        2076.7563       -574.821          35.000  
  22293372.242      218967.6643      -1549.829          37.000  
  22326151.464     4482015.085       -5228.821          48.000  
  23401564.645         571.2393       -169.223          34.000  
  23994397.219      221794.9773        262.939          25.000  
 15  3 30 21 13 30.0000000  0  7G23G 9G28G 7G10G16G19
  20651393.105     3315732.848       -3098.188          42.000  
  20606505.282      132564.442       -1365.896          47.000  
  25240862.790      -19510.5563       1215.727          22.000  
  21522626.540       21306.0222      -1201.586          50.000  
  22293666.217      220510.4903      -1531.179          44.000  
  22327144.940     4487237.438       -5214.590          47.000  
  23994339.982      221502.5843        298.305          22.000  
 15  3 30 21 13 31.0000000  0 10G23G 9G27G28G 7G20G10G16G30G19
  20651981.204     3318824.399       -3084.733          45.000  
  20606763.955      133921.873       -1350.267          51.000  
  23402910.711        2515.1903      -1078.158          31.000  
  25240631.531      -20728.8603       1228.724          20.000  
  21522853.027       22502.3332      -1189.960          49.000  
  23477882.674         911.0003       -566.325          35.000  
  22293953.239      222036.5703      -1520.339          43.000  
  22328135.851     4492444.158       -5198.713          43.000  
  23401623.696         547.8453       -148.344          32.000  
  23994259.344      221170.0073        336.136          31.000  
 15  3 30 21 13 32.0000000  0  7G23G 9G28G 7G10G16G19
  20652566.711     3321900.270       -3066.943          50.000  
  20607018.641      135263.231       -1331.966          50.000  
  25240395.779      -21966.1353       1236.149          15.000  
  21523077.917       23683.4132      -1172.380          50.000  
  22294244.299      223547.7952      -1502.482          44.000  
  22329123.228     4497632.847       -5179.311          42.000  
  23994178.114      220826.4953        349.304          34.000  
 15  3 30 21 13 33.0000000  0 10G23G 9G 3G28G 7G20G10G16G30G19
  20653148.231     3324954.690       -3044.570          49.000  
  20607270.291      136582.732       -1309.735          51.000  
  23514299.909        8107.9203      -5862.604          32.000  
  25240160.428      -23204.4813       1271.541          13.000  
  21523299.124       24843.7222      -1150.714          50.000  
  23478095.541         817.5503       -532.163          32.000  
  22294524.759      225038.7612      -1481.326          43.000  
  22330106.259     4502796.818       -5154.217          47.000  
  23401694.710         544.0573       -118.816          35.000  
  23994092.337      220464.2043        374.050          38.000  
 15  3 30 21 13 34.0000000  0  9G23G 9G 3G28G 7G20G10G16G19
  20653725.650     3327986.650       -3024.019          50.000  
  20607516.828      137879.760       -1289.083          51.000  
  23515389.274       13963.6823      -5840.135          43.000  
  25239917.660      -24479.0323       1279.490          13.000  
  21523515.385       25981.5022      -1129.387          49.000  
  23478186.631        1328.8083       -495.666          30.000  
  22294805.533      226507.7382      -1460.976          43.000  
  22331084.580     4507938.456       -5134.508          43.000  
  23994026.384      220078.2923        393.296          29.000  
 15  3 30 21 13 35.0000000  0  8G23G 9G 3G28G 7G10G16G19
  20654297.912     3330997.282       -2998.617          49.000  
  20607759.377      139155.638       -1264.049          50.000  
  23516496.787       19789.0412      -5812.551          49.000  
  25239670.845      -25777.2983       1312.157          16.000  
  21523727.710       27096.9872      -1102.415          49.000  
  22295082.215      227954.6982      -1434.730          42.000  
  22332059.497     4513060.733       -5112.005          42.000  
  23993956.618      219675.8763        404.234          29.000  
 15  3 30 21 13 36.0010000  0  8G23G 9G 3G28G 7G10G16G19
  20654867.601     3333991.647       -2980.853          50.000  
  20607999.213      140413.314       -1246.288          51.000  
  23517604.082       25600.1102      -5795.075          33.000  
  25239420.390      -27095.2373       1315.437          17.000  
  21523936.328       28193.7722      -1085.839          49.000  
  22295354.779      229383.6872      -1416.501          43.000  
  22333031.282     4518168.870       -5091.523          45.000  
  23993878.877      219253.0463        442.726          20.000  
 15  3 30 21 13 37.0010000  0  7G23G 9G28G 7G10G16G19
  20655432.682     3336963.7161      -2967.478          33.000  
  20608234.032      141648.908       -1223.314          50.000  
  25239170.695      -28410.6013       1314.102          15.000  
  21524140.373       29268.957       -1062.900          46.000  
  22295624.359      230791.2123      -1394.823          44.000  
  22333997.754     4523250.018       -5067.112          47.000  
  23993800.648      218797.2123        482.443          20.000  
 15  3 30 21 13 38.0010000  0  9G23G 9G27G 3G28G 7G10G16G19
  20655994.065     3339916.3693      -2941.061          50.000  
  20608465.430      142864.195       -1204.829          50.000  
  23404293.876        2249.8953       -968.263          26.000  
  23519863.579        4843.1933      -5795.203          38.000  
  25238920.904      -29726.5553       1345.351          11.000  
  21524338.948       30325.338       -1046.629          47.000  
  22295891.748      232180.3802      -1379.596          42.000  
  22334960.709     4528307.488       -5044.500          47.000  
  23993706.059      218319.1823        446.853          22.000  
 15  3 30 21 13 39.0010000  0  8G23G 9G28G 7G10G16G30G19
  20656555.211     3342849.0612      -2922.190          48.000  
  20608692.798      144059.914       -1184.730          50.000  
  25238659.709      -31081.4583       1357.265          10.000  
  21524537.051       31364.944       -1029.767          48.000  
  22296151.277      233553.5102      -1363.694          43.000  
  22335917.862     4533339.659       -5018.276          47.000  
  23401677.670         445.4543         24.646          39.000  
  23993613.390      217837.4043        499.723          23.000  
 15  3 30 21 13 40.0010000  0  7G23G 9G28G 7G10G16G19
  20657107.205     3345761.6612      -2902.315          48.000  
  20608916.510      145234.642       -1164.373          50.000  
  25238398.444      -32441.4293       1359.420          12.000  
  21524733.768       32385.895       -1010.293          49.000  
  22296407.961      234908.3952      -1344.540          46.000  
  22336870.505     4538345.733       -4995.307          45.000  
  23993525.720      217334.8853        509.082          24.000  
 15  3 30 21 13 41.0010000  0  9G23G 9G 3G28G 7G10G16G30G19
  20657658.030     3348655.6982      -2885.851          49.000  
  20609136.478      146390.654       -1147.164          49.000  
  23523123.097       10459.5673      -5726.263          27.000  
  25238137.782      -33810.5313       1404.895          10.000  
  21524927.090       33387.871        -992.909          51.000  
  22296661.984      236244.7632      -1327.551          46.000  
  22337819.605     4543333.401       -4980.434          46.000  
  23401680.854         412.1243         64.350          33.000  
  23993420.661      216815.5453        526.660          24.000  
 15  3 30 21 13 42.0010000  0  8G23G 9G 3G28G 7G10G16G19
  20658203.672     3351530.8612      -2864.794          49.000  
  20609353.315      147528.515       -1127.972          50.000  
  23524235.077       16181.4113      -5710.039          29.000  
  25237867.661      -35219.2763       1427.556          13.000  
  21525112.839       34369.988        -971.773          48.000  
  22296911.417      237561.7442      -1306.711          43.000  
  22338766.200     4548305.782       -4962.737          47.000  
  23993309.189      216272.9153        558.145          31.000  
 15  3 30 21 13 43.0010000  0  8G23G 9G28G 7G10G16G30G19
  20658749.698     3354387.2892      -2847.948          49.000  
  20609566.801      148648.845       -1112.794          50.000  
  25237595.002      -36647.0673       1427.095          12.000  
  21525294.714       35333.943        -955.990          49.000  
  22297158.416      238861.2532      -1290.465          43.000  
  22339709.489     4553262.462       -4950.320          44.000  
  23401628.373         372.7683        101.956          40.000  
  23993188.233      215710.3453        575.446          36.000  
 15  3 30 21 13 44.0010000  0  9G23G 9G 3G28G 7G10G16G30G19
  20659289.477     3357228.9552      -2835.823          50.000  
  20609777.224      149758.040       -1106.337          49.000  
  23526361.107        5005.5563      -5668.973          28.000  
  25237319.593      -38090.9563       1459.913          14.000  
  21525476.833       36287.506        -953.491          47.000  
  22297403.304      240151.4222      -1291.320          47.000  
  22340650.719     4558208.050       -4941.340          46.000  
  23401602.799         269.2572        103.771          46.000  
  23993076.857      215128.5253        590.106          48.000  
 15  3 30 21 13 45.0010000  0  8G23G 9G28G 7G10G16G30G19
  20659827.956     3360056.4932      -2819.345          50.000  
  20609987.412      150859.170       -1095.580          49.000  
  25237038.060      -39555.0553       1460.998          16.000  
  21525657.818       37236.870        -946.255          48.000  
  22297648.209      241439.5782      -1285.622          48.000  
  22341590.064     4563141.9263      -4917.208          31.000  
  23401581.091         162.5982        109.172          47.000  
  23992962.427      214525.4292        615.192          44.000  
 15  3 30 21 13 46.0010000  0  9G23G 9G28G 3G 7G20G10G30G19
  20660363.355     3362869.5942      -2804.178          49.000  
  20610195.070      151951.680       -1085.814          50.000  
  25236759.948      -41016.0503       1460.998          13.000  
  23528510.328        4649.5043      -5660.700          30.000  
  21525837.878       38183.584        -943.279          49.000  
  23479051.063         708.5953       -326.800          45.000  
  22297892.922      242727.4932      -1285.084          47.000  
  23401564.391          57.2432        106.198          44.000  
  23992846.374      213903.1992        632.721          47.000  
 15  3 30 21 13 47.0010000  0  9G23G 9G28G 3G 7G20G10G30G19
  20660894.601     3365664.7312      -2791.282          49.000  
  20610399.909      153030.517       -1076.979          50.000  
  25236482.070      -42477.0463       1460.998          12.000  
  23529572.104       10287.4683      -5630.474          30.000  
  21526016.629       39122.054        -938.849          48.000  
  23479116.719        1031.9672       -325.186          44.000  
  22298137.068      244008.8912      -1282.170          47.000  
  23401543.486         -52.1562        107.692          46.000  
  23992720.427      213259.2042        651.172          45.000  
 15  3 30 21 13 48.0010000  0  9G23G 9G28G 3G 7G20G10G30G19
  20661424.607     3368447.8552      -2781.261          49.000  
  20610603.125      154101.978       -1071.269          50.000  
  25236204.429      -43938.0413       1460.998          12.000  
  23530641.863       15918.6883      -5608.005          30.000  
  21526194.447       40057.692        -937.444          48.000  
  23479179.714        1354.6222       -325.965          45.000  
  22298381.275      245289.5052      -1283.170          47.000  
  23401523.314        -161.4692        105.503          46.000  
  23992597.045      212599.2352        663.489          45.000  
 15  3 30 21 13 49.0010000  0  9G23G 9G28G 3G 7G20G10G30G19
  20661952.939     3371223.614       -2772.915          49.000  
  20610806.368      155169.954       -1066.270          48.000  
  25235920.993      -45415.8923       1480.590          13.000  
  23531707.906       21539.1723      -5614.891          30.000  
  21526372.771       40992.986        -934.870          48.000  
  23479239.900        1678.7892       -325.576          45.000  
  22298625.212      246571.249       -1281.560          48.000  
  23401503.246        -269.0563        124.869          33.000  
  23992470.121      211929.2312        674.701          46.000  
 15  3 30 21 13 50.0010000  0  9G23G 9G27G28G 3G 7G20G10G19
  20662480.031     3373994.190       -2766.976          49.000  
  20611009.279      156235.124       -1062.490          49.000  
  23406218.530        1955.9102       -759.264          42.000  
  25235638.597      -46907.0593       1493.162          17.000  
  23532776.784       27153.3633      -5576.764          29.000  
  21526550.475       41927.423        -932.740          48.000  
  23479302.887        2003.7132       -322.849          45.000  
  22298869.122      247853.447       -1281.212          47.000  
  23992339.707      211250.2432        684.064          44.000  
 15  3 30 21 13 51.0010000  0 11G23G 9G27G28G 3G 7G20G10G16G30G19
  20663005.990     3376758.151       -2759.914          49.000  
  20611211.728      157295.516       -1056.445          50.000  
  23406359.389        2711.5302       -747.659          32.000  
  25235359.768      -48400.5223       1496.886          19.000  
  23533847.320       32773.5863      -5629.572          28.000  
  21526727.490       42858.242        -926.993          48.000  
  23479364.503        2326.4542       -319.137          44.000  
  22299112.823      249132.955       -1276.305          47.000  
  22347163.376        6704.6823      -4861.617          45.000  
  23401473.075         360.7883        115.458          44.000  
  23992209.240      210562.5102        692.413          46.000  
 15  3 30 21 13 52.0010000  0  9G23G 9G27G28G 7G10G16G30G19
  20663530.910     3379517.484       -2758.753          49.000  
  20611412.405      158351.027       -1054.307          49.000  
  23406481.296         638.3853       -783.766          32.000  
  25235076.961      -49897.1463       1483.861          17.000  
  21526903.502       43783.881        -924.000          48.000  
  22299355.311      250407.622       -1273.199          47.000  
  22348081.921       11564.8433      -4856.849          32.000  
  23401450.642         245.1572        117.044          41.000  
  23992077.814      209870.0762        692.737          46.000  
 15  3 30 21 13 53.0010000  0  8G23G 9G28G 3G 7G20G10G19
  20664055.585     3382273.668       -2753.539          49.000  
  20611612.132      159401.909       -1047.302          49.000  
  25234797.356      -51381.0043       1483.861          13.000  
  23535944.618        6163.1433      -5588.103          45.000  
  21527078.754       44703.966        -915.728          48.000  
  23479482.074         772.4153       -306.790          45.000  
  22299596.831      251676.915       -1264.791          47.000  
  23991945.140      209175.8172        695.642          45.000  
 15  3 30 21 13 54.0010000  0  9G23G 9G28G 3G 7G20G10G30G19
  20664578.839     3385026.845       -2749.803          49.000  
  20611811.379      160447.296       -1040.458          49.000  
  25234508.695      -52892.1533       1515.111           9.000  
  23537005.452       11751.4442      -5585.201          43.000  
  21527252.375       45616.727        -906.754          48.000  
  23479539.965        1075.8522       -297.479          44.000  
  22299836.833      252938.595       -1255.082          47.000  
  23401395.718         348.3983        136.541          43.000  
  23991812.545      208480.6462        697.101          46.000  
 15  3 30 21 13 55.0010000  0  9G23G 9G28G 3G 7G20G10G30G19
  20665103.558     3387780.981       -2755.687          47.000  
  20612009.447      161490.224       -1042.553          48.000  
  25234215.051      -54407.6433       1509.185           9.000  
  23538074.417       17340.9052      -5592.181          42.000  
  21527425.673       46524.481        -905.352          47.000  
  23479598.301        1372.9432       -293.832          42.000  
  22300076.092      254194.847       -1253.240          46.000  
  23401369.359         212.9422        138.429          42.000  
  23991681.127      207789.514         686.304          46.000  
 15  3 30 21 13 56.0010000  0 10G23G 9G27G28G 3G 7G20G10G30G19
  20665627.187     3390535.268       -2752.992          48.000  
  20612206.469      162528.085       -1033.172          49.000  
  23407081.618        2188.2102       -758.323          41.000  
  25233927.376      -55921.2043       1514.504          12.000  
  23539136.839       22930.3572      -5589.525          42.000  
  21527596.258       47423.055        -890.477          48.000  
  23479653.540        1658.8432       -276.680          45.000  
  22300312.936      255440.956       -1237.809          47.000  
  23401340.514          66.7252        154.904          45.000  
  23991550.346      207103.294         683.661          45.000  
 15  3 30 21 13 57.0010000  0  9G23G 9G27G28G 3G 7G20G10G19
  20666151.522     3393288.666       -2749.925          48.000  
  20612402.845      163558.184       -1025.022          49.000  
  23407227.929        2948.0173       -753.036          30.000  
  25233636.673      -57437.4503       1520.834          16.000  
  23540198.903       28519.2213      -5585.051          45.000  
  21527764.897       48308.600        -879.709          48.000  
  23479704.556        1928.6662       -263.242          43.000  
  22300547.859      256672.491       -1225.581          48.000  
  23991421.110      206422.216         683.716          46.000  
 15  3 30 21 13 58.0010000  0  9G23G 9G27G28G 3G 7G10G30G19
  20666674.357     3396033.810       -2742.712          48.000  
  20612597.153      164578.329       -1017.107          49.000  
  23407371.545        3708.3853       -772.873          30.000  
  25233345.263      -58963.5923       1526.811          14.000  
  23541261.551       34098.8882      -5576.400          42.000  
  21527930.883       49182.697        -870.124          48.000  
  22300779.729      257892.575       -1215.803          46.000  
  23401276.123         315.4933        178.807          45.000  
  23991290.565      205734.325         690.808          47.000  
 15  3 30 21 13 59.0010000  0  9G23G 9G28G 7G20G10G16G30G19
  20667194.391     3398768.492       -2729.842          49.000  
  20612789.210      165587.699       -1004.215          49.000  
  25233056.374      -60490.4003       1526.811          11.000  
  21528095.002       50045.616        -858.227          48.000  
  23479798.071         673.2023       -242.683          43.000  
  22301009.627      259101.857       -1204.544          48.000  
  22354546.144       18197.5362      -4824.404          47.000  
  23401238.980         130.7662        189.349          43.000  
  23991157.289      205035.921         702.832          46.000  
 15  3 30 21 14  0.0010000  0  8G23G 9G28G 7G20G10G16G19
  20667712.793     3401492.310       -2718.467          49.000  
  20612979.287      166585.805        -992.907          49.000  
  25232767.320      -62017.2083       1526.811          11.000  
  21528257.167       50896.722        -845.769          49.000  
  23479846.417         908.6022       -230.958          45.000  
  22301237.675      260299.649       -1193.051          47.000  
  22355464.157       23015.7852      -4813.101          48.000  
  23991022.250      204326.641         715.094          46.000  
 15  3 30 21 14  1.0010000  0 10G23G 9G28G 3G 7G20G10G16G30G19
  20668228.849     3404206.169       -2708.709          48.000  
  20613167.068      167573.562        -982.153          49.000  
  25232472.185      -63561.0213       1546.602           9.000  
  23544472.461       10474.5333      -5558.253          25.000  
  21528417.011       51737.095        -834.662          48.000  
  23479888.115        1133.5092       -219.412          44.000  
  22301463.507      261487.087       -1181.962          47.000  
  22356378.949       27823.9392      -4803.563          46.000  
  23401163.255         288.9063        213.493          45.000  
  23990885.371      203607.345         724.158          44.000  
 15  3 30 21 14  2.0010000  0 11G23G 9G27G28G 3G 7G20G10G16G30G19
  20668743.761     3406910.594       -2698.246          49.000  
  20613353.332      168551.365        -971.008          49.000  
  23407953.012         624.3623       -713.295          32.000  
  25232178.122      -65108.5873       1548.591           9.000  
  23545547.168       16020.9683      -5549.319          25.000  
  21528574.857       52566.901        -822.331          48.000  
  23479926.470         548.4633       -206.783          46.000  
  22301687.446      262664.262       -1170.732          48.000  
  22357291.631       32622.6502      -4792.845          48.000  
  23401120.475          70.6122        224.429          48.000  
  23990746.633      202878.904         732.843          45.000  
 15  3 30 21 14  3.0010000  0  9G23G 9G28G 3G 7G20G10G16G19
  20669256.597     3409605.835       -2694.393          49.000  
  20613537.057      169519.238        -966.584          49.000  
  25231885.273      -66658.1433       1550.581           9.000  
  23546585.019       21554.8073      -5523.578          25.000  
  21528730.906       53386.112        -818.070          48.000  
  23479967.932         752.3882       -202.146          45.000  
  22301909.500      263831.051       -1165.218          47.000  
  22358204.138       37411.9152      -4787.940          45.000  
  23990606.543      202141.5943        737.445          47.000  
 15  3 30 21 14  4.0010000  0 10G23G 9G28G 3G 7G20G10G16G30G19
  20669767.583     3412291.890       -2679.349          48.000  
  20613720.005      170479.067        -954.942          49.000  
  25231587.371      -68224.6883       1570.135           9.000  
  23547627.251       27070.6723      -5508.613          27.000  
  21528885.358       54197.729        -808.074          48.000  
  23480005.842         949.8342       -194.913          45.000  
  22302129.922      264991.114       -1156.520          48.000  
  22359113.085       42192.7312      -4775.797          48.000  
  23401033.128         259.6423        239.567          44.000  
  23990464.227      201393.7302        755.463          47.000  
 15  3 30 21 14  5.0010000  0 11G23G 9G27G28G 3G 7G20G10G16G30G19
  20670277.303     3414966.742       -2671.236          48.000  
  20613901.295      171430.362        -949.686          50.000  
  23408322.931        1782.3363       -683.363          33.000  
  25231290.849      -69796.6533       1573.907           9.000  
  23548665.146       32574.9113      -5501.135          34.000  
  21529037.916       55002.411        -803.259          48.000  
  23480040.935        1142.0282       -191.304          45.000  
  22302350.161      266145.362       -1153.500          46.000  
  22360034.351       46962.4173      -4754.715          32.000  
  23400985.027          16.4942        243.645          45.000  
  23990319.303      200631.3752        765.765          46.000  
 15  3 30 21 14  6.0010000  0 10G23G 9G27G28G 3G 7G20G10G16G19
  20670785.829     3417639.620       -2672.000          50.000  
  20614081.495      172380.758        -949.222          51.000  
  23408450.815        2465.2033       -696.106          34.000  
  25230991.586      -71372.3913       1577.679           9.000  
  23549702.640       38076.4453      -5504.344          34.000  
  21529191.016       55806.614        -802.896          48.000  
  23480077.903        1334.7372       -191.390          44.000  
  22302569.938      267299.811       -1153.625          47.000  
  22360944.066       51731.0813      -4785.349          32.000  
  23990173.742      199865.4902        766.699          46.000  
 15  3 30 21 14  7.0010000  0 10G23G 9G28G 3G 7G20G10G16G30G19
  20671293.595     3420308.606       -2666.938          50.000  
  20614262.244      173326.954        -943.111          50.000  
  25230687.533      -72968.7473       1601.177           9.000  
  23550755.909       43582.8243      -5523.284          31.000  
  21529343.740       56606.203        -797.774          48.000  
  23480114.200        1523.0892       -186.439          45.000  
  22302788.694      268450.068       -1148.821          46.000  
  22361847.970       56496.5713      -4767.423          27.000  
  23400893.378         231.1833        252.132          35.000  
  23990027.117      199095.9242        771.136          46.000  
 15  3 30 21 14  8.0010000  0  9G23G 9G28G 3G 7G20G10G16G19
  20671799.390     3422967.009       -2652.763          49.000  
  20614440.271      174261.890        -928.351          49.000  
  25230377.644      -74572.7273       1606.951          12.000  
  23551807.747       49078.7533      -5483.280          29.000  
  21529493.515       57394.172        -781.435          48.000  
  23480147.931        1699.7572       -170.121          46.000  
  22303005.269      269588.994       -1132.180          48.000  
  22362762.283        2567.2043      -4746.179          40.000  
  23989878.493      198316.1492        785.083          46.000  
 15  3 30 21 14  9.0010000  0 11G23G 9G27G28G 3G 7G20G10G16G30G19
  20672304.155     3425618.943       -2650.175          50.000  
  20614615.943      175187.928        -921.436          49.000  
  23408830.444         922.9083       -649.923          35.000  
  25230071.715      -76182.4743       1612.379           5.000  
  23552836.368       54567.9813      -5476.032          30.000  
  21529641.458       58171.546        -770.389          49.000  
  23480179.359        1864.9672       -157.270          46.000  
  22303220.377      270717.176       -1120.582          48.000  
  22363656.598        7315.2913      -4735.679          36.000  
  23400802.358         312.8953        273.759          32.000  
  23989729.189      197531.8052        785.553          44.000  
 15  3 30 21 14 10.0010000  0  9G23G 9G28G 3G 7G20G10G30G19
  20672807.943     3428271.772       -2654.003          48.000  
  20614791.309      176108.151        -917.413          49.000  
  25229738.207      -77817.6413       1639.060          12.000  
  23553865.355       60056.7943      -5481.236          37.000  
  21529787.037       58937.955        -759.260          48.000  
  23480208.466        2016.1992       -141.987          44.000  
  22303432.171      271832.967       -1108.353          46.000  
  23400735.009         327.2853        297.835          34.000  
  23989581.229      196754.7322        771.283          44.000  
 15  3 30 21 14 11.0010000  0 10G23G 9G27G28G 3G 7G20G10G30G19
  20673312.708     3430919.426       -2638.630          50.000  
  20614964.502      177016.064        -898.060          50.000  
  23409074.599        2258.0492       -656.308          36.000  
  25229406.827      -79459.3973       1647.462          19.000  
  23554912.001       65535.3702      -5469.479          37.000  
  21529930.181       59687.070        -738.825          49.000  
  23480231.264        2146.8762       -120.230          44.000  
  22303640.936      272929.944       -1086.636          46.000  
  23400689.979          24.3073        313.581          34.000  
  23989434.595      195979.2042        784.180          46.000  
 15  3 30 21 14 12.0010000  0 11G23G 9G27G28G 3G 7G20G10G16G30G19
  20673812.246     3433548.116       -2616.273          50.000  
  20615133.411      177904.296        -876.042          50.000  
  23409191.908        2904.3852       -633.183          34.000  
  25229079.278      -81122.9183       1676.733          25.000  
  23555952.514       70994.9322      -5447.171          39.000  
  21530069.207       60415.819        -716.555          49.000  
  23480251.123        2257.2532        -98.418          44.000  
  22303844.607      274006.858       -1065.081          45.000  
  22366366.704        9651.1242      -4706.634          38.000  
  23400623.127        -298.8342        334.976          33.000  
  23989283.589      195185.0332        806.964          45.000  
 15  3 30 21 14 13.0010000  0 10G23G 9G27G28G 3G 7G20G10G16G19
  20674307.937     3436150.672       -2590.870          50.000  
  20615297.400      178767.164        -852.197          49.000  
  23409317.750        3524.2162       -607.368          40.000  
  25228760.340      -82809.9403       1690.737          24.000  
  23556973.780       76427.8152      -5420.989          43.000  
  21530203.067       61119.513        -693.493          48.000  
  23480268.276        2343.3222        -76.816          42.000  
  22304045.712      275059.396       -1042.019          47.000  
  22367246.003       14344.0132      -4681.581          38.000  
  23989126.537      194363.657         833.984          45.000  
 15  3 30 21 14 14.0010000  0 10G23G 9G27G28G 3G 7G20G10G16G19
  20674798.821     3438729.579       -2567.204          50.000  
  20615457.034      179606.004        -826.567          50.000  
  23409428.690        4120.5052       -584.648          41.000  
  25228428.175      -84521.9393       1721.123          23.000  
  23558009.188       81836.6622      -5397.224          43.000  
  21530333.124       61798.881        -666.551          49.000  
  23480280.998        2405.3182        -49.158          45.000  
  22304241.678      276088.008       -1015.974          49.000  
  22368121.594       19013.0542      -4657.491          35.000  
  23988966.676      193518.637         856.537          45.000  
 15  3 30 21 14 15.0010000  0 10G23G 9G27G28G 3G 7G20G10G16G19
  20675286.755     3441288.064       -2547.978          50.000  
  20615612.237      180423.796        -807.206          50.000  
  23409536.410        4696.7902       -565.883          40.000  
  25228096.630      -86248.4693       1745.545          21.000  
  23559036.814       87224.8832      -5377.592          43.000  
  21530457.849       62456.550        -646.834          49.000  
  23480289.461        2445.6292        -29.770          45.000  
  22304434.092      277095.179        -996.697          49.000  
  22369001.460       23661.3662      -4638.099          34.000  
  23988802.181      192653.417         876.105          44.000  
 15  3 30 21 14 16.0010000  0 10G23G 9G27G28G 3G 7G20G10G30G19
  20675769.899     3443829.062       -2535.227          51.000  
  20615765.450      181224.497        -795.799          50.000  
  23409642.874        5255.3032       -552.650          41.000  
  25227757.363      -88001.9073       1760.234          22.000  
  23560056.902       92595.2252      -5363.914          43.000  
  21530579.538       63097.263        -636.095          49.000  
  23480293.431        2469.6072        -19.590          44.000  
  22304621.691      278085.975        -986.455          49.000  
  23400329.527           6.4023        416.165          30.000  
  23988632.949      191770.003         890.259          46.000  
 15  3 30 21 14 17.0010000  0 10G23G 9G27G28G 3G 7G20G10G30G19
  20676250.731     3446355.953       -2524.754          51.000  
  20615916.167      182016.714        -792.807          49.000  
  23409749.451        5795.5902       -536.158          43.000  
  25227407.372      -89769.2663       1768.106          22.000  
  23561073.420       97949.0152      -5351.141          41.000  
  21530699.709       63732.969        -638.719          48.000  
  23480298.622        2491.8032        -25.711          45.000  
  22304810.075      279073.671        -991.618          46.000  
  23400265.013        -413.9283        420.196          30.000  
  23988460.777      190866.389         910.156          45.000  
 15  3 30 21 14 18.0010000  0 11G23G 9G27G28G 3G 7G20G10G16G30G19
  20676729.940     3448876.380       -2514.628          49.000  
  20616065.899      182806.975        -784.974          49.000  
  23409850.453        6327.7952       -527.370          46.000  
  25227046.197      -91542.8773       1782.410          30.000  
  23562089.346      103291.3232      -5333.832          41.000  
  21530820.692       64368.380        -629.305          47.000  
  23480303.299        2517.1362        -19.955          42.000  
  22304997.839      280062.517        -981.665          46.000  
  22371658.631        1492.3023      -4603.719          32.000  
  23400185.222        -832.5853        422.759          31.000  
  23988286.449      189951.029         922.443          46.000  
 15  3 30 21 14 19.0010000  0 10G23G 9G27G28G 3G 7G20G10G30G19
  20677208.757     3451392.883       -2526.136          48.000  
  20616216.197      183591.7553       -794.045          49.000  
  23409950.861        6856.9043       -541.922          45.000  
  25226700.621      -93330.5553       1781.926          25.000  
  23563104.791      108624.0823      -5339.500          44.000  
  21530940.191       64996.883        -636.487          47.000  
  23480306.789        2536.2702        -27.190          41.000  
  22305184.635      281044.642        -989.925          47.000  
  23400102.988       -1257.4183        436.813          30.000  
  23988111.188      189029.9003        911.200          43.000  
 15  3 30 21 14 20.0010000  0 10G23G 9G27G28G 3G 7G20G10G30G19
  20677689.126     3453916.158       -2523.289          49.000  
  20616366.548      184382.1523       -788.804          50.000  
  23410053.669        7397.9222       -541.303          47.000  
  25226363.980      -95119.1713       1792.368          31.000  
  23564121.764      113962.9433      -5330.538          45.000  
  21531059.707       65626.378        -625.923          48.000  
  23480309.686        2556.6382        -16.570          46.000  
  22305371.675      282027.329        -978.989          37.000  
  23400028.807       -1670.3803        409.360          25.000  
  23987937.087      188117.8782        909.283          43.000  
 15  3 30 21 14 21.0010000  0 10G23G 9G27G28G 3G 7G20G10G16G19
  20678169.775     3456442.129       -2521.753          50.000  
  20616517.153      185171.9842       -784.596          50.000  
  23410156.634        7943.9903       -543.907          46.000  
  25226022.209      -96910.2692       1798.419          35.000  
  23565137.079      119297.5112      -5330.938          47.000  
  21531178.351       66252.120        -620.637          41.000  
  23480311.073        2572.3782         -9.676          32.000  
  22305566.420      283008.9243       -977.305          30.000  
  22374288.954       15342.4063      -4623.009          45.000  
  23987764.146      187210.8423        911.511          43.000  
 15  3 30 21 14 22.0010000  0 10G23G 9G27G28G 3G 7G20G10G16G19
  20678651.410     3458974.5453      -2548.467          50.000  
  20616667.486      185965.4283       -809.919          50.000  
  23410261.990        8497.5603       -564.122          44.000  
  25225681.886      -98699.3023       1776.852          35.000  
  23566151.320      124634.3633      -5344.144          41.000  
  21531298.147       66878.9353       -644.919          37.000  
  23480314.572        2587.9993        -14.409          27.000  
  22305756.391      283981.2853       -979.097          29.000  
  22375175.076       19977.8183      -4653.022          48.000  
  23987592.393      186310.8393        884.998          42.000  
 15  3 30 21 14 23.0010000  0 10G23G 9G27G28G 3G 7G20G10G16G19
  20679133.237     3461511.4453      -2507.725          41.000  
  20616818.029      186761.5483       -766.553          49.000  
  23410369.606        9053.0233       -532.449          44.000  
  25225336.834     -100492.5283       1816.494          35.000  
  23567167.211      129969.4063      -5313.524          43.000  
  21531416.032       67507.1713       -605.547          42.000  
  23480321.840        2595.3993        -10.631          24.000  
  22305950.193      284951.0003       -943.622          28.000  
  22376053.180       24616.9783      -4610.438          46.000  
  23987421.110      185410.9643        921.493          41.000  
 15  3 30 21 14 24.0010000  0 11G23G 9G27G28G 3G 7G20G10G16G30G19
  20679611.774     3464030.3303      -2510.600          49.000  
  20616965.771      187541.1493       -770.889          49.000  
  23410471.489        9594.1533       -539.422          46.000  
  25224990.622     -102305.9163       1822.800          36.000  
  23568176.322      135285.9353      -5305.770          44.000  
  21531531.657       68117.0723       -601.759          49.000  
  23480334.901        2588.7993          6.481          23.000  
  22306117.585      285901.4213       -958.544          29.000  
  22376933.264       29242.5813      -4624.959          43.000  
  23399677.735        -113.0783        449.339          44.000  
  23987252.218      184496.3343        924.049          37.000  
 15  3 30 21 14 25.0010000  0 10G23G 9G27G28G 3G 7G10G16G30G19
  20680085.626     3466523.6313      -2487.170          49.000  
  20617109.771      188298.7843       -751.985          47.000  
  23410570.868       10119.1753       -517.226          46.000  
  25224640.632     -104143.8583       1851.165          29.000  
  23569183.837      140574.2223      -5274.153          45.000  
  21531643.696       68703.1093       -578.136          50.000  
  22306290.351      286842.3353       -931.009          45.000  
  22377813.130       33848.8393      -4603.204          42.000  
  23399578.984        -582.1503        492.809          45.000  
  23987085.630      183564.6183        948.558          34.000  
 15  3 30 21 14 26.0010000  0 11G23G 9G27G28G 3G 7G20G10G16G30G19
  20680558.448     3469010.9153      -2489.111          50.000  
  20617252.548      189048.0853       -744.205          50.000  
  23410668.109       10634.5623       -509.229          44.000  
  25224286.270     -106000.1533       1865.328          29.000  
  23570186.866      145848.5263      -5268.323          45.000  
  21531751.844       69278.9353       -570.818          49.000  
  23480307.504         419.5153         35.538          40.000  
  22306467.043      287774.0143       -932.856          46.000  
  22378686.592       38451.5833      -4604.908          40.000  
  23399484.369       -1067.7313        494.692          46.000  
  23986889.393      182615.3883        951.426          40.000  
 15  3 30 21 14 27.0010000  0 11G23G 9G27G28G 3G 7G20G10G16G30G19
  20681026.324     3471471.5313      -2446.654          49.000  
  20617389.271      189773.0803       -709.589          50.000  
  23410761.005       11124.8513       -473.859          46.000  
  25223928.288     -107879.9113       1895.624          33.000  
  23571184.242      151098.1573      -5237.079          44.000  
  21531858.299       69830.4653       -537.642          49.000  
  23480295.699         364.6313         67.940          44.000  
  22306639.538      288680.2593       -892.250          46.000  
  22379556.076       43027.9153      -4554.536          38.000  
  23399385.139       -1577.9823        531.637          46.000  
  23986699.657      181640.3093        990.198          43.000  
 15  3 30 21 14 28.0010000  0 11G23G 9G27G28G 3G 7G20G10G16G30G19
  20681490.840     3473909.0353      -2431.456          50.000  
  20617522.652      190472.9713       -693.591          50.000  
  23410848.440       11588.9742       -457.650          45.000  
  25223568.604     -109780.3463       1905.393          32.000  
  23572179.568      156328.1412      -5226.299          46.000  
  21531957.652       70359.3003       -522.847          49.000  
  23480280.273         287.0942         84.023          44.000  
  22306805.673      289563.7013       -877.623          47.000  
  22380422.104       47576.0732      -4540.699          45.000  
  23399281.659       -2114.1743        541.962          46.000  
  23986508.324      180641.6643       1003.497          43.000  
 15  3 30 21 14 29.0010000  0 11G23G 9G27G28G 3G 7G20G10G16G30G19
  20681951.674     3476333.2802      -2421.743          49.000  
  20617652.856      191157.1722       -679.560          49.000  
  23410934.879       12040.4862       -449.403          45.000  
  25223201.477     -111692.7353       1917.726          31.000  
  23573172.817      161547.7522      -5218.344          44.000  
  21532055.303       70871.5502       -506.177          49.000  
  23480261.357         191.7052        103.114          45.000  
  22306971.878      290430.4972       -860.003          47.000  
  22381285.035       52108.3552      -4528.351          47.000  
  23399178.249       -2667.0052        560.134          48.000  
  23986314.827      179632.1852       1009.705          45.000  
 15  3 30 21 14 30.0010000  0 11G23G 9G27G28G 3G 7G20G10G16G30G19
  20682412.010     3478751.8782      -2413.675          50.000  
  20617780.130      191828.7142       -662.387          47.000  
  23411020.970       12490.6202       -448.644          45.000  
  25222838.330     -113611.6893       1920.100          32.000  
  23574164.931      166765.4332      -5216.389          45.000  
  21532149.273       71367.0692       -482.901          46.000  
  23480239.579          76.0102        132.276          37.000  
  22307135.377      291279.1412       -832.192          46.000  
  22382145.086       56631.1022      -4515.132          47.000  
  23399071.418       -3236.9842        583.652          48.000  
  23986125.030      178624.2872       1007.001          44.000  
 15  3 30 21 14 31.0010000  0 11G23G 9G27G28G 3G 7G20G10G16G30G19
  20682869.555     3481154.4533      -2408.422          50.000  
  20617903.869      192474.7853       -649.788          50.000  
  23411105.918       12929.7173       -448.149          49.000  
  25222472.285     -115552.6353       1939.602          26.000  
  23575155.249      171974.9523      -5218.021          35.000  
  21532238.129       71832.5633       -467.584          49.000  
  23480218.630         -71.0553        127.475          29.000  
  22307289.000      292087.6613       -825.513          47.000  
  22383001.621       61131.6203      -4507.945          45.000  
  23398955.715       -3836.8683        600.386          47.000  
  23985934.395      177610.2313       1003.290          45.000  
 15  3 30 21 14 32.0010000  0 11G23G 9G27G28G 3G 7G20G10G16G30G19
  20683327.676     3483561.1713      -2407.213          47.000  
  20618026.945      193120.1253       -645.449          49.000  
  23411191.467       13375.6392       -447.324          46.000  
  25222101.904     -117484.0623       1936.633          30.000  
  23576157.197      177189.0023      -5219.168          30.000  
  21532326.200       72293.6373       -461.387          47.000  
  23480192.830        -221.4803        155.406          28.000  
  22307444.342      292903.8333       -812.897          45.000  
  22383858.767       65633.3992      -4501.534          47.000  
  23398840.273       -4441.9002        604.535          44.000  
  23985743.341      176604.6403       1004.242          45.000  
 15  3 30 21 14 33.0010000  0 10G23G 9G27G28G 3G 7G10G16G30G19
  20683784.671     3485964.7932      -2398.650          48.000  
  20618149.018      193761.7882       -637.250          49.000  
  23411275.708       13818.6073       -438.931          44.000  
  25221727.187     -119419.0283       1937.335          31.000  
  23577138.579      182400.8253      -5206.105          39.000  
  21532413.268       72750.9042       -452.410          48.000  
  22307597.869      293711.9192       -803.182          46.000  
  22384714.360       70131.2222      -4493.191          46.000  
  23398725.861       -5050.3942        612.873          45.000  
  23985550.290      175596.4022       1013.293          44.000  
 15  3 30 21 14 34.0010000  0 10G23G 9G27G28G 3G 7G10G16G30G19
  20684241.989     3488367.9562      -2398.656          49.000  
  20618270.707      194403.4872       -637.164          49.000  
  23411359.792       14260.1303       -436.820          43.000  
  25221367.014     -121354.9213       1936.824          31.000  
  23578130.232      187611.3462      -5206.032          41.000  
  21532500.127       73208.3092       -452.683          47.000  
  22307752.208      294520.8432       -804.469          48.000  
  22385570.363       74628.9592      -4493.327          47.000  
  23398610.654       -5658.8243        611.017          48.000  
  23985358.198      174586.8312       1014.948          44.000  
 15  3 30 21 14 35.0010000  0 10G23G 9G27G28G 3G 7G10G16G30G19
  20684698.704     3490767.0642      -2401.100          49.000  
  20618392.964      195042.3972       -641.299          50.000  
  23411442.986       14697.2492       -437.333          45.000  
  25220999.443     -123294.6863       1928.453          27.000  
  23579120.645      192817.1202      -5206.797          43.000  
  21532586.453       73663.6512       -460.315          49.000  
  22307905.735      295328.4852       -813.591          50.000  
  22386425.930       79123.1192      -4498.213          45.000  
  23398494.619       -6269.1372        606.647          45.000  
  23985165.050      173571.6322       1014.557          44.000  
 15  3 30 21 14 36.0010000  0 11G23G 9G27G28G 3G 7G20G10G16G30G19
  20685155.036     3493163.7952      -2398.238          49.000  
  20618514.286      195680.9862       -640.222          50.000  
  23411524.958       15130.1312       -433.999          45.000  
  25220634.358     -125223.4613       1936.665          27.000  
  23580107.219      198021.2782      -5204.638          43.000  
  21532673.957       74120.4142       -458.647          49.000  
  23480058.123         299.7053        156.099          43.000  
  22308059.515      296138.5342       -811.691          46.000  
  22387282.107       83614.4732      -4493.203          33.000  
  23398378.392       -6876.7582        605.907          46.000  
  23984970.969      172551.9552       1020.331          44.000  
 15  3 30 21 14 37.0010000  0 11G23G 9G27G28G 3G 7G20G10G16G30G19
  20685610.531     3495557.3232      -2391.889          49.000  
  20618635.330      196316.8362       -634.258          50.000  
  23411606.582       15558.8142       -426.110          47.000  
  25220264.702     -127160.7263       1942.710          25.000  
  23581117.133      203223.2952      -5201.594          41.000  
  21532760.545       74575.1362       -452.706          49.000  
  23480031.634         139.0292        161.622          47.000  
  22308213.591      296947.3482       -808.403          45.000  
  22388132.936       88101.6522      -4484.544          46.000  
  23398262.697       -7485.5932        608.394          48.000  
  23984775.779      171528.5392       1025.635          44.000  
 15  3 30 21 14 38.0010000  0 11G23G 9G27G28G 3G 7G20G10G16G30G19
  20686065.449     3497949.4582      -2390.438          48.000  
  20618756.094      196952.1262       -633.831          50.000  
  23411687.490       15984.7902       -423.103          45.000  
  25219898.247     -129099.4613       1941.808          25.000  
  23582095.820      208427.2693      -5200.919          39.000  
  21532846.697       75030.4322       -453.318          45.000  
  23480000.555         -20.5932        157.733          45.000  
  22308367.057      297757.4472       -811.208          46.000  
  22388986.042       92586.6152      -4481.983          47.000  
  23398147.107       -8093.0502        606.691          47.000  
  23984581.096      170502.8222       1027.435          44.000  
 15  3 30 21 14 39.0010000  0 11G23G 9G27G28G 3G 7G20G10G16G30G19
  20686520.106     3500339.0632      -2387.530          48.000  
  20618876.405      197586.4142       -632.769          50.000  
  23411767.351       16406.7012       -418.646          45.000  
  25219517.920     -131040.3953       1940.382          32.000  
  23583081.862      213628.5373      -5197.147          45.000  
  21532933.442       75486.0862       -455.759          50.000  
  23479970.584        -179.0342        159.639          44.000  
  22308521.658      298568.7263       -809.830          46.000  
  22389839.855       97068.5612      -4476.604          45.000  
  23398031.918       -8699.1482        606.488          47.000  
  23984384.763      169473.0362       1031.744          44.000  
 15  3 30 21 14 40.0010000  0 11G23G 9G27G28G 3G 7G20G10G16G30G19
  20686974.239     3502724.5692      -2383.962          47.000  
  20618997.631      198218.4882       -631.449          50.000  
  23411846.915       16822.3242       -412.253          46.000  
  25219152.730     -132987.7143       1938.666          31.000  
  23584078.906      218825.5892      -5195.465          46.000  
  21533019.777       75941.4482       -456.847          48.000  
  23479940.788        -336.4902        155.930          45.000  
  22308676.947      299381.0272       -814.362          46.000  
  22390692.002      101545.7862      -4474.422          40.000  
  23397916.930       -9304.1242        603.120          47.000  
  23984188.475      168436.9972       1038.770          44.000  
 15  3 30 21 14 41.0010000  0 10G23G 9G27G28G 3G 7G20G10G30G19
  20687427.386     3505104.9612      -2379.875          49.000  
  20619117.453      198848.6822       -630.662          50.000  
  23411924.385       17229.5622       -404.273          45.000  
  25218785.412     -134928.1463       1939.514          31.000  
  23585058.195      224019.6652      -5193.274          43.000  
  21533106.879       76398.0262       -459.405          48.000  
  23479911.454        -491.1872        150.982          46.000  
  22308832.158      300196.0022       -819.534          46.000  
  23397802.700       -9905.7262        597.684          46.000  
  23983988.792      167393.0862       1046.619          45.000  
 15  3 30 21 14 42.0010000  0 10G23G 9G27G28G 3G 7G20G10G30G19
  20687879.146     3507477.7992      -2369.166          49.000  
  20619236.237      199475.2392       -624.025          50.000  
  23411999.020       17624.9882       -389.939          45.000  
  25218417.666     -136863.1553       1940.901          32.000  
  23586054.698      229209.3132      -5187.436          46.000  
  21533193.694       76855.0142       -455.648          49.000  
  23479882.321        -643.7152        152.985          45.000  
  22308988.268      301013.0922       -816.220          48.000  
  23397688.227      -10504.1362        598.693          48.000  
  23983787.582      166338.0722       1060.712          44.000  
 15  3 30 21 14 43.0010000  0 10G23G 9G27G28G 3G 7G20G10G30G19
  20688329.362     3509845.674       -2364.611          50.000  
  20619355.029      200099.330        -621.304          49.000  
  23412074.012       18013.7522       -384.558          48.000  
  25218038.412     -138804.4963       1940.744          27.000  
  23587033.699      234395.6482      -5182.846          44.000  
  21533280.989       77311.500        -454.541          50.000  
  23479853.266        -795.7072        153.895          45.000  
  22309143.566      301830.7752       -815.514          46.000  
  23397574.565      -11101.7702        598.862          47.000  
  23983586.451      165276.666        1064.722          46.000  
 15  3 30 21 14 44.0010000  0 11G23G 9G27G28G 3G 7G20G10G16G30G19
  20688779.900     3512210.497       -2365.344          49.000  
  20619472.862      200720.476        -621.933          50.000  
  23412147.460       18398.1002       -385.401          46.000  
  25217696.876     -140746.9633       1940.456          32.000  
  23588023.938      239578.7222      -5183.420          46.000  
  21533367.324       77765.673        -454.611          48.000  
  23479823.776        -949.3072        152.365          43.000  
  22309298.498      302646.9662       -817.365          47.000  
  22394065.330        8584.2042      -4453.982          33.000  
  23397460.702      -11701.1212        598.321          47.000  
  23983382.728      164210.737        1065.748          44.000  
 15  3 30 21 14 45.0010000  0 11G23G 9G27G28G 3G 7G20G10G16G30G19
  20689228.842     3514570.802       -2361.519          48.000  
  20619589.778      201337.497        -618.481          50.000  
  23412218.657       18777.5402       -380.396          45.000  
  25217308.652     -142694.2543       1947.157          27.000  
  23589007.424      244757.2932      -5179.634          46.000  
  21533452.804       78215.889        -451.691          48.000  
  23479793.089       -1106.3692        155.220          43.000  
  22309453.796      303459.7032       -814.695          47.000  
  22394932.448       13032.5512      -4450.064          33.000  
  23397346.264      -12304.1402        601.167          48.000  
  23983179.102      163139.728        1070.300          44.000  
 15  3 30 21 14 46.0010000  0 11G23G 9G27G28G 3G 7G20G10G16G30G19
  20689675.890     3516926.092       -2354.269          49.000  
  20619706.293      201949.879        -611.590          50.000  
  23412290.979       19151.4902       -373.127          46.000  
  25216943.812     -144646.0982       1952.285          30.000  
  23589993.291      249930.8872      -5172.686          46.000  
  21533539.148       78661.834        -445.440          49.000  
  23479761.060       -1267.2632        161.587          43.000  
  22309608.928      304268.7832       -808.648          48.000  
  22395776.594       17475.5922      -4441.733          37.000  
  23397232.279      -12911.1622        608.027          48.000  
  23982974.742      162063.043        1077.760          45.000  
 15  3 30 21 14 47.0010000  0 11G23G 9G27G28G 3G 7G20G10G16G30G19
  20690123.087     3519276.598       -2350.679          49.000  
  20619822.032      202557.468        -607.848          50.000  
  23412361.871       19520.6342       -369.339          47.000  
  25216569.138     -146603.1742       1956.968          31.000  
  23590976.358      255099.3432      -5168.578          46.000  
  21533622.734       79102.785        -441.263          49.000  
  23479728.777       -1432.7432        165.336          43.000  
  22309762.830      305073.3322       -804.858          48.000  
  22396618.558       21913.7732      -4438.196          36.000  
  23397116.471      -13523.1622        612.003          48.000  
  23982768.716      160981.276        1081.885          44.000  
 15  3 30 21 14 48.0010000  0 11G23G 9G27G28G 3G 7G20G10G16G30G19
  20690570.240     3521624.763       -2348.597          49.000  
  20619936.889      203162.632        -605.699          50.000  
  23412431.864       19887.4672       -367.487          47.000  
  25216200.110     -148562.9202       1959.496          32.000  
  23591958.857      260265.0942      -5166.148          46.000  
  21533706.399       79541.112        -438.434          49.000  
  23479697.122       -1600.4862        167.190          43.000  
  22309915.607      305875.7232       -802.973          48.000  
  22397465.766       26349.6102      -4437.496          36.000  
  23396999.877      -14137.8062        614.350          47.000  
  23982561.338      159896.907        1084.032          44.000  
 15  3 30 21 14 49.0010000  0 11G23G 9G27G28G 3G 7G20G10G16G30G19
  20691016.294     3523970.288       -2346.712          48.000  
  20620051.415      203765.087        -603.736          50.000  
  23412501.080       20251.6672       -365.483          47.000  
  25215824.494     -150525.7102       1961.523          32.000  
  23592940.947      265427.8342      -5163.817          46.000  
  21533788.817       79976.542        -436.682          49.000  
  23479664.054       -1770.8232        169.031          43.000  
  22310067.572      306675.139        -801.323          48.000  
  22398309.205       30782.6172      -4434.593          36.000  
  23396882.245      -14755.3992        616.431          48.000  
  23982353.986      158809.613        1086.099          44.000  
 15  3 30 21 14 50.0010000  0 11G23G 9G27G28G 3G 7G20G10G16G30G19
  20691461.554     3526314.117       -2345.447          48.000  
  20620165.827      204365.784        -602.463          50.000  
  23412569.947       20614.2062       -364.308          47.000  
  25215449.323     -152490.6052       1963.744          31.000  
  23593923.054      270588.5072      -5162.016          46.000  
  21533871.792       80409.996        -435.104          49.000  
  23479631.701       -1942.7622        170.044          43.000  
  22310219.075      307473.533        -800.244          48.000  
  22399152.356       35213.9182      -4433.075          37.000  
  23396764.500      -15375.0012        618.052          48.000  
  23982145.499      157720.361        1087.572          44.000  
 15  3 30 21 14 51.0010000  0 11G23G 9G27G28G 3G 7G20G10G16G30G19
  20691907.459     3528656.674       -2339.672          48.000  
  20620280.170      204965.118        -596.335          50.000  
  23412638.448       20975.4752       -358.290          46.000  
  25215077.616     -154457.0982       1969.418          31.000  
  23594904.725      275747.5262      -5155.651          45.000  
  21533954.088       80841.880        -428.595          49.000  
  23479598.921       -2115.9262        176.127          44.000  
  22310370.211      308270.800        -794.110          48.000  
  22399996.144       39643.8642      -4426.878          37.000  
  23396646.754      -15996.1752        624.364          48.000  
  23981937.754      156629.560        1093.886          43.000  
 15  3 30 21 14 52.0010000  0 11G23G 9G27G28G 3G 7G20G10G16G30G19
  20692353.557     3530999.897       -2343.854          48.000  
  20620394.530      205565.062        -600.419          50.000  
  23412706.870       21337.4462       -362.392          46.000  
  25214702.017     -156423.3682       1965.980          32.000  
  23595886.945      280906.8612      -5159.690          45.000  
  21534036.531       81274.170        -432.550          49.000  
  23479565.643       -2288.3712        172.039          44.000  
  22310522.220      309068.933        -798.679          48.000  
  22400840.630       44074.3992      -4430.951          37.000  
  23396528.826      -16616.9842        620.463          48.000  
  23981729.852      155539.162        1089.986          43.000  
 15  3 30 21 14 53.0010000  0 11G23G 9G27G28G 3G 7G20G10G16G30G19
  20692799.462     3533346.603       -2345.819          48.000  
  20620509.221      206168.423        -602.278          50.000  
  23412776.261       21702.9272       -364.275          46.000  
  25214329.019     -158386.5592       1965.595          32.000  
  23596868.869      286069.2882      -5160.920          45.000  
  21534119.175       81709.639        -433.570          49.000  
  23479533.901       -2457.2382        170.002          43.000  
  22310674.020      309870.687        -800.219          48.000  
  22401684.740       48508.3492      -4432.625          37.000  
  23396411.656      -17234.6372        619.258          48.000  
  23981522.902      154451.955        1088.301          43.000  
 15  3 30 21 14 54.0010000  0 11G23G 9G27G28G 3G 7G20G10G16G30G19
  20693246.650     3535694.808       -2349.725          48.000  
  20620624.672      206773.224        -606.067          50.000  
  23412846.551       22069.9672       -368.528          46.000  
  25213955.759     -160348.5212       1960.885          32.000  
  23597852.084      291232.8582      -5164.848          45.000  
  21534202.282       82146.401        -437.877          49.000  
  23479502.194       -2624.5412        165.996          44.000  
  22310826.875      310674.158        -804.875          47.000  
  22402528.773       52943.7722      -4436.847          37.000  
  23396294.400      -17851.0372        615.192          48.000  
  23981315.558      153365.999        1084.793          43.000  
 15  3 30 21 14 55.0010000  0 11G23G 9G27G28G 3G 7G20G10G16G30G19
  20693693.288     3538042.913       -2347.227          47.000  
  20620739.399      207377.848        -603.562          49.000  
  23412916.526       22436.897        -365.804          46.000  
  25213582.176     -162311.0332       1963.505          32.000  
  23598834.784      296395.9582      -5161.850          45.000  
  21534285.537       82582.739        -434.919          49.000  
  23479470.505       -2792.354         168.187          43.000  
  22310979.940      311477.674        -802.457          47.000  
  22403372.735       57378.9852      -4434.139          37.000  
  23396177.134      -18468.382         617.976          48.000  
  23981108.694      152279.682        1087.264          42.000  
 15  3 30 21 14 56.0010000  0 11G23G 9G27G28G 3G 7G20G10G16G30G19
  20694139.857     3540391.095       -2346.927          47.000  
  20620854.936      207982.476        -603.121          49.000  
  23412986.597       22803.948        -365.646          45.000  
  25213208.942     -164273.8222       1964.268          31.000  
  23599817.066      301558.7632      -5161.296          44.000  
  21534368.260       83018.914        -435.084          48.000  
  23479438.876       -2959.545         168.439          43.000  
  22311132.760      312281.456        -802.701          46.000  
  22404216.200       61814.2212      -4433.641          36.000  
  23396059.720      -19085.437         618.457          47.000  
  23980902.372      151193.142        1088.078          42.000  
 15  3 30 21 14 57.0010000  0 11G23G 9G27G28G 3G 7G20G10G16G30G19
  20694586.565     3542737.389       -2341.554          48.000  
  20620969.741      208585.159        -597.985          49.000  
  23413056.154       23169.121        -360.373          46.000  
  25212835.411     -166238.9192       1969.773          32.000  
  23600798.841      306719.3052      -5155.711          45.000  
  21534450.529       83452.878        -429.136          49.000  
  23479406.986       -3128.549         173.697          43.000  
  22311285.571      313083.498        -797.518          47.000  
  22405059.613       66247.4732      -4428.180          36.000  
  23395941.966      -19704.702         624.235          48.000  
  23980695.220      150104.481        1093.474          43.000  
 15  3 30 21 14 58.0010000  0 11G23G 9G27G28G 3G 7G20G10G16G30G19
  20695032.383     3545079.915       -2339.211          48.000  
  20621083.360      209184.004        -595.673          50.000  
  23413124.402       23530.580        -358.381          47.000  
  25212461.287     -168208.1222       1972.279          32.000  
  23601781.061      311875.7172      -5153.182          46.000  
  21534531.969       83882.836        -426.855          49.000  
  23479374.084       -3301.231         175.613          44.000  
  22311437.912      313881.935        -795.250          47.000  
  22405902.720       70676.9212      -4426.493          37.000  
  23395823.628      -20328.025         626.777          49.000  
  23980486.900      149011.767        1095.876          43.000  
 15  3 30 21 14 59.0010000  0 11G23G 9G27G28G 3G 7G20G10G16G30G19
  20695478.262     3547419.580       -2338.265          48.000  
  20621196.638      209779.907        -594.558          50.000  
  23413192.292       23889.173        -357.165          47.000  
  25212087.120     -170180.6002       1973.561          33.000  
  23602762.357      317028.8912      -5151.855          45.000  
  21534613.636       84309.597        -424.813          49.000  
  23479341.565       -3476.730         176.748          44.000  
  22311589.266      314677.677        -794.145          48.000  
  22406744.414       75103.3142      -4422.731          36.000  
  23395704.582      -20954.533         628.320          49.000  
  23980278.823      147915.944        1096.814          43.000  
 15  3 30 21 15  0.0010000  0 11G23G 9G27G28G 3G 7G20G10G16G30G19
  20695923.889     3549757.304       -2337.866          49.000  
  20621309.584      210373.260        -592.780          50.000  
  23413259.894       24246.436        -358.366          45.000  
  25211708.293     -172155.7253       1976.348          30.000  
  23603738.784      322179.2732      -5149.735          45.000  
  21534694.518       84733.122        -422.675          49.000  
  23479308.401       -3655.394         179.433          47.000  
  22311738.745      315470.441        -791.294          46.000  
  22407587.477       79527.9402      -4424.659          40.000  
  23395581.471      -21584.751         632.726          45.000  
  23980070.721      146818.264        1098.263          45.000  
 15  3 30 21 15  1.0010000  0 11G23G 9G27G28G 3G 7G20G10G16G30G19
  20696368.677     3552092.388       -2336.571          48.000  
  20621422.505      210962.130        -588.765          50.000  
  23413327.775       24602.921        -359.948          47.000  
  25211320.305     -174137.4073       1986.222          30.000  
  23604717.453      327325.279       -5147.468          44.000  
  21534773.279       85149.959        -413.404          49.000  
  23479273.701       -3841.009         188.636          42.000  
  22311887.970      316256.323        -782.465          47.000  
  22408429.825       83950.4542      -4423.248          39.000  
  23395459.372      -22222.785         641.104          47.000  
  23979863.403      145719.221        1097.115          46.000  
 15  3 30 21 15  2.0010000  0 11G23G 9G27G28G 3G 7G20G10G16G30G19
  20696812.750     3554427.792       -2336.402          49.000  
  20621533.183      211548.085        -585.555          50.000  
  23413396.573       24963.273        -362.786          44.000  
  25210956.895     -176120.1253       1976.550          24.000  
  23605696.035      332468.355       -5144.167          43.000  
  21534851.011       85560.370        -407.906          49.000  
  23479237.666       -4033.891         195.491          46.000  
  22312036.297      317035.221        -777.466          47.000  
  22409271.650       88374.2182      -4424.976          41.000  
  23395335.432      -22869.692         649.899          44.000  
  23979655.423      144622.784        1094.333          46.000  
 15  3 30 21 15  3.0010000  0 11G23G 9G27G28G 3G 7G20G10G16G30G19
  20697257.356     3556761.394       -2333.960          49.000  
  20621644.027      212129.693        -581.072          50.000  
  23413465.126       25324.421        -362.703          45.000  
  25210589.385     -178102.0053       1988.278          23.000  
  23606674.347      337607.1903      -5137.130          43.000  
  21534927.120       85963.586        -401.612          47.000  
  23479199.747       -4234.494         203.156          43.000  
  22312182.923      317806.465        -769.052          46.000  
  22410114.094       92796.9362      -4423.663          46.000  
  23395210.785      -23525.477         658.397          47.000  
  23979447.565      143526.269        1095.432          45.000  
 15  3 30 21 15  4.0010000  0 11G23G 9G27G28G 3G 7G20G10G16G30G19
  20697701.062     3559094.080       -2328.892          49.000  
  20621754.181      212707.902        -573.044          51.000  
  23413533.958       25686.6653       -360.149          45.000  
  25210221.211     -180091.2733       1979.827          24.000  
  23607650.241      342742.1303      -5131.922          43.000  
  21535003.238       86360.631        -390.720          47.000  
  23479160.004       -4441.738         213.852          41.000  
  22312328.335      318571.6693       -758.541          47.000  
  22410955.003       97219.3542      -4418.751          47.000  
  23395084.785      -24189.073         670.382          46.000  
  23979238.886      142430.535        1098.346          43.000  
 15  3 30 21 15  5.0010000  0 11G23G 9G27G28G 3G 7G20G10G16G30G19
  20698145.737     3561426.4773      -2335.091          49.000  
  20621864.527      213283.1313       -577.255          51.000  
  23413603.244       26050.5503       -369.606          45.000  
  25209842.786     -182074.5573       1981.333          23.000  
  23608627.838      347873.4393      -5136.135          44.000  
  21535077.663       86752.3613       -393.511          47.000  
  23479119.424       -4654.6063        212.627          45.000  
  22312473.390      319331.2683       -760.062          46.000  
  22411796.618      101641.6353      -4426.698          47.000  
  23394957.198      -24859.0983        670.459          46.000  
  23979030.696      141335.5473       1092.095          44.000  
 15  3 30 21 15  6.0010000  0 11G23G 9G27G28G 3G 7G20G10G16G30G19
  20698588.973     3563759.0502      -2335.885          49.000  
  20621972.457      213856.2532       -575.416          50.000  
  23413673.202       26418.4742       -373.671          44.000  
  25209467.458     -184059.2103       1983.463          23.000  
  23609604.666      353004.5222      -5133.987          43.000  
  21535151.975       87138.7492       -386.858          48.000  
  23479077.648       -4873.6622        219.000          46.000  
  22312617.206      320084.6592       -753.251          47.000  
  22412638.207      106065.3562      -4426.755          49.000  
  23394828.407      -25536.6362        677.319          47.000  
  23978823.143      140243.3602       1086.762          44.000  
 15  3 30 21 15  7.0010000  0 11G23G 9G27G28G 3G 7G20G10G16G30G19
  20699032.749     3566090.8662      -2333.141          48.000  
  20622082.018      214426.6312       -570.796          50.000  
  23413743.867       26787.5982       -370.071          45.000  
  25209095.803     -186046.5373       1998.479          23.000  
  23610579.863      358132.9432      -5128.604          43.000  
  21535224.533       87520.3132       -381.178          48.000  
  23479034.755       -5098.0242        224.407          45.000  
  22312758.902      320833.0272       -747.737          45.000  
  22413480.276      110488.8062      -4424.493          47.000  
  23394698.071      -26220.4002        682.961          45.000  
  23978615.730      139151.5372       1091.062          45.000  
 15  3 30 21 15  8.0010000  0 11G23G 9G27G28G 3G 7G20G10G16G30G19
  20699475.802     3568416.7973      -2333.886          49.000  
  20622188.901      214990.4093       -570.573          48.000  
  23413812.787       27151.7733       -371.948          45.000  
  25208716.968     -188038.0253       1989.614          22.000  
  23611554.824      363253.0703      -5127.506          43.000  
  21535295.311       87894.1723       -379.352          48.000  
  23478991.165       -5329.9353        227.292          46.000  
  22312900.144      321573.7923       -746.312          47.000  
  22414321.071      114906.8493      -4425.676          47.000  
  23394566.505      -26912.6973        687.558          47.000  
  23978406.720      138053.6083       1089.909          45.000  
 15  3 30 21 15  9.0010000  0 11G23G 9G27G28G 3G 7G20G10G16G30G19
  20699918.575     3570743.7242      -2315.280          49.000  
  20622295.722      215553.8742       -551.682          50.000  
  23413882.867       27518.6102       -356.666          42.000  
  25208342.652     -190025.2073       1986.809          23.000  
  23612529.253      368372.8943      -5107.667          43.000  
  21535366.098       88266.0282       -359.107          48.000  
  23478946.440       -5563.8242        246.344          42.000  
  22313041.404      322312.0613       -725.820          47.000  
  22415162.172      119326.5872      -4408.580          47.000  
  23394434.329      -27607.9793        707.517          47.000  
  23978197.850      136957.9602       1106.277          45.000  
 15  3 30 21 15 10.0010000  0 11G23G 9G27G28G 3G 7G20G10G16G30G19
  20700361.060     3573068.6323      -2326.021          49.000  
  20622403.303      216115.0353       -565.540          50.000  
  23413953.069       27884.9073       -369.497          46.000  
  25207964.375     -192016.5173       1985.074          23.000  
  23613503.149      373490.1843      -5119.364          44.000  
  21535436.039       88634.8843       -373.978          48.000  
  23478901.715       -5800.8953        235.482          45.000  
  22313180.735      323047.8373       -737.867          47.000  
  22416003.063      123744.3643      -4420.168          44.000  
  23394301.175      -28306.1283        693.819          46.000  
  23977988.779      135860.8343       1095.276          44.000  
 15  3 30 21 15 11.0010000  0 11G23G 9G27G28G 3G 7G20G10G16G30G19
  20700803.205     3575393.0523      -2322.312          48.000  
  20622509.880      216674.7942       -557.021          50.000  
  23414022.608       28250.1942       -363.669          46.000  
  25207589.701     -194007.7733       1993.230          24.000  
  23614477.011      378607.5533      -5113.455          44.000  
  21535505.787       89001.7142       -363.684          48.000  
  23478856.231       -6039.4013        241.328          45.000  
  22313320.214      323782.4593       -731.346          47.000  
  22416843.561      128161.4763      -4412.943          43.000  
  23394167.628      -29006.9002        704.365          46.000  
  23977780.423      134763.4033       1099.101          44.000  
 15  3 30 21 15 12.0010000  0 10G23G 9G27G 3G 7G20G10G16G30G19
  20701245.838     3577718.7502      -2327.249          49.000  
  20622616.274      217235.2242       -561.367          50.000  
  23414092.426       28616.9402       -367.597          45.000  
  23615451.004      383725.5732      -5119.542          44.000  
  21535575.579       89368.7002       -367.819          48.000  
  23478811.541       -6278.0082        237.580          48.000  
  22313460.924      324517.2112       -735.850          47.000  
  22417684.444      132579.3032      -4418.746          48.000  
  23394033.994      -29707.6852        699.358          47.000  
  23977572.015      133667.1082       1095.244          44.000  
 15  3 30 21 15 13.0010000  0 10G23G 9G27G 3G 7G20G10G16G30G19
  20701687.774     3580042.6203      -2322.202          49.000  
  20622722.607      217793.7953       -557.215          50.000  
  23414161.442       28981.6883       -363.234          46.000  
  23616424.909      388841.6613      -5115.093          45.000  
  21535645.179       89734.1933       -362.998          48.000  
  23478765.455       -6518.4213        242.330          45.000  
  22313600.421      325250.3903       -731.423          47.000  
  22418524.262      136994.8853      -4413.690          47.000  
  23393900.622      -30410.4173        704.503          47.000  
  23977362.831      132568.6923       1100.719          43.000  
 15  3 30 21 15 14.0010000  0 10G23G 9G27G 3G 7G20G10G16G30G19
  20702130.879     3582368.7542      -2326.050          49.000  
  20622829.280      218354.8862       -561.287          50.000  
  23414231.121       29348.1222       -365.696          46.000  
  23617399.390      393960.6592      -5119.753          45.000  
  21535715.504       90102.2172       -369.008          48.000  
  23478720.154       -6755.2532        236.841          42.000  
  22313740.686      325987.3192       -737.815          47.000  
  22419365.013      141412.1542      -4416.077          47.000  
  23393767.643      -31109.4102        697.321          47.000  
  23977154.728      131472.2002       1097.006          45.000  
 15  3 30 21 15 15.0010000  0 10G23G 9G27G 3G 7G20G10G16G30G19
  20702573.259     3584691.1092      -2321.701          49.000  
  20622935.919      218913.3082       -558.508          50.000  
  23414299.997       29709.4192       -359.881          44.000  
  23618373.444      399076.6622      -5114.690          44.000  
  21535785.409       90468.6292       -366.978          48.000  
  23478674.644       -6992.9692        236.426          46.000  
  22313880.916      326723.4202       -737.305          47.000  
  22420205.040      145825.0612      -4412.637          48.000  
  23393634.969      -31809.2532        698.699          46.000  
  23976945.622      130370.7232       1102.532          45.000  
 15  3 30 21 15 16.0010000  0 11G23G 9G27G28G 3G 7G20G10G16G30G19
  20703014.191     3587010.2512      -2316.454          49.000  
  20623041.518      219469.7702       -553.892          50.000  
  23414367.608       30066.5602       -354.220          45.000  
  25205670.674       -6560.2753       1993.051          20.000  
  23619345.945      404189.2232      -5109.799          44.000  
  21535854.853       90833.9132       -363.112          49.000  
  23478628.855       -7230.9122        239.247          44.000  
  22314020.727      327459.2582       -734.087          48.000  
  22421044.064      150234.8432      -4407.107          47.000  
  23393501.169      -32509.7512        702.893          47.000  
  23976734.893      129264.5012       1109.125          45.000  
 15  3 30 21 15 17.0010000  0 11G23G 9G27G28G 3G 7G20G10G16G30G19
  20703454.181     3589322.2793      -2298.384          48.000  
  20623147.014      220020.1693       -537.538          50.000  
  23414434.808       30416.2513       -336.587          45.000  
  25205268.752       -8567.8743       2032.735          19.000  
  23620317.581      409295.3123      -5098.972          43.000  
  21535923.170       91192.7783       -344.717          48.000  
  23478583.353       -7474.4583        256.036          43.000  
  22314160.268      328189.7543       -716.083          47.000  
  22421882.320      154637.7883      -4389.962          44.000  
  23393366.995      -33216.0053        718.869          47.000  
  23976522.638      128150.3853       1127.417          45.000  
 15  3 30 21 15 18.0010000  0 11G23G 9G27G28G 3G 7G20G10G16G30G19
  20703895.122     3591636.7573      -2311.267          48.000  
  20623251.863      220573.3923       -549.797          49.000  
  23414502.219       30767.7793       -347.752          45.000  
  25204865.792      -10585.4193       2043.146          21.000  
  23621288.948      414403.0173      -5103.819          44.000  
  21535992.177       91554.9403       -359.390          48.000  
  23478537.782       -7714.3753        242.107          45.000  
  22314299.625      328923.6483       -731.642          46.000  
  22422720.315      159043.2653      -4401.144          47.000  
  23393233.134      -33919.2693        705.834          46.000  
  23976311.202      127037.9473       1116.467          45.000  
 15  3 30 21 15 19.0010000  0 11G23G 9G27G28G 3G 7G20G10G16G30G19
  20704335.242     3593949.8452      -2310.779          49.000  
  20623357.123      221126.6272       -552.900          49.000  
  23414568.276       31115.9302       -344.281          46.000  
  25204474.192      -12597.1813       2018.599          22.000  
  23622260.471      419510.3012      -5105.907          43.000  
  21536061.419       91919.3512       -365.313          49.000  
  23478493.231       -7950.3802        236.002          36.000  
  22314439.698      329660.8332       -738.292          46.000  
  22423558.562      163446.2472      -4400.250          47.000  
  23393100.259      -34618.7822        696.330          47.000  
  23976098.720      125922.3502       1119.669          44.000  
 15  3 30 21 15 20.0010000  0 11G23G 9G27G28G 3G 7G20G10G16G30G19
  20704774.107     3596257.8902      -2303.993          48.000  
  20623461.920      221678.9312       -550.007          50.000  
  23414632.092       31454.5452       -331.323          44.000  
  25204089.650      -14612.6973       2018.878          23.000  
  23623231.750      424615.7352      -5103.371          43.000  
  21536131.421       92287.1652       -368.390          48.000  
  23478449.370       -8183.5343        227.691          44.000  
  22314581.176      330403.4782       -745.385          46.000  
  22424395.379      167842.6722      -4390.857          47.000  
  23392967.978      -35312.0232        690.224          46.000  
  23975884.605      124798.0002       1131.244          42.000  
 15  3 30 21 15 21.0010000  0 11G23G 9G27G28G 3G 7G20G10G16G30G19
  20705212.351     3598558.5862      -2298.088          48.000  
  20623566.814      222229.6652       -550.842          48.000  
  23414694.406       31779.7072       -319.350          45.000  
  25203700.999      -16634.5053       2029.894          24.000  
  23624202.916      429718.0282      -5102.621          45.000  
  21536202.182       92659.3782       -375.732          49.000  
  23478406.242       -8407.9092        220.631          44.000  
  22314723.168      331152.7712       -753.700          47.000  
  22425229.935      172230.0062      -4384.031          47.000  
  23392837.782      -35997.0082        680.491          46.000  
  23975668.685      123661.2702       1140.800          44.000  
 15  3 30 21 15 22.0010000  0 11G23G 9G27G28G 3G 7G20G10G16G30G19
  20705648.415     3600851.6132      -2290.231          47.000  
  20623670.765      222776.5792       -544.643          48.000  
  23414753.554       32092.9882       -309.666          44.000  
  25203271.741      -18662.5343       2029.214          26.000  
  23625174.326      434815.3842      -5094.861          43.000  
  21536273.614       93031.5732       -370.708          49.000  
  23478364.466       -8630.3112        223.635          46.000  
  22314866.906      331903.8862       -749.977          48.000  
  22426063.445      176608.2762      -4374.954          47.000  
  23392708.423      -36679.2362        683.282          46.000  
  23975451.011      122513.1232       1151.728          45.000  
 15  3 30 21 15 23.0010000  0 11G23G 9G27G28G 3G 7G20G10G16G30G19
  20706083.780     3603141.7802      -2288.308          48.000  
  20623774.114      223321.3572       -542.906          48.000  
  23414812.030       32402.6662       -307.651          44.000  
  25202866.058      -20693.7913       2031.760          25.000  
  23626143.633      439910.0772      -5092.950          43.000  
  21536344.479       93402.2282       -368.594          49.000  
  23478322.560       -8853.6732        225.217          46.000  
  22315009.561      332654.1502       -748.559          48.000  
  22426895.541      180983.4752      -4373.142          47.000  
  23392578.751      -37362.5642        685.666          46.000  
  23975233.756      121361.3102       1153.801          45.000  
 15  3 30 21 15 24.0010000  0 11G23G 9G27G28G 3G 7G20G10G16G30G19
  20706519.687     3605431.7702      -2291.149          48.000  
  20623877.899      223865.8652       -545.625          48.000  
  23414871.011       32712.2292       -310.885          44.000  
  25202469.327      -22725.3823       2031.246          23.000  
  23627112.836      445004.1802      -5094.958          43.000  
  21536414.874       93772.4082       -370.992          49.000  
  23478280.862       -9077.1592        222.267          46.000  
  22315152.243      333404.3832       -751.402          48.000  
  22427728.283      185358.3922      -4375.970          46.000  
  23392448.860      -38046.3672        682.830          46.000  
  23975015.262      120209.0792       1151.514          45.000  
 15  3 30 21 15 25.0010000  0 11G23G 9G27G28G 3G 7G20G10G16G30G19
  20706955.811     3607722.375       -2291.671          48.000  
  20623981.658      224410.934        -546.141          48.000  
  23414929.792       33021.873        -311.355          44.000  
  25202084.934      -24757.0503       2031.265          23.000  
  23628082.056      450098.554       -5095.279          43.000  
  21536485.774       94142.438        -371.615          49.000  
  23478238.633       -9299.9512        221.400          46.000  
  22315295.710      334155.402        -752.233          48.000  
  22428560.920      189733.852       -4376.458          47.000  
  23392318.298      -38730.385         682.663          46.000  
  23974796.305      119056.703        1150.655          45.000  
 15  3 30 21 15 26.0010000  0 11G23G 9G27G28G 3G 7G20G10G16G30G19
  20707391.718     3610013.694       -2288.193          48.000  
  20624085.181      224956.649        -542.547          48.000  
  23414989.114       33332.780        -308.257          44.000  
  25201701.553      -26787.9023       2034.474          22.000  
  23629051.162      455193.250       -5091.568          43.000  
  21536556.508       94513.390        -367.758          49.000  
  23478196.386       -9521.9912        225.134          46.000  
  22315438.880      334907.305        -748.924          48.000  
  22429393.173      194109.960       -4372.973          46.000  
  23392187.500      -39413.487         686.414          46.000  
  23974576.650      117905.245        1154.728          46.000  
 15  3 30 21 15 27.0010000  0 11G23G 9G27G28G 3G 7G20G10G16G30G19
  20707827.389     3612303.542       -2288.331          48.000  
  20624188.975      225500.822        -542.518          48.000  
  23415048.297       33642.243        -307.992          43.000  
  25201317.543      -28821.6043       2034.012          23.000  
  23630019.929      460286.070       -5090.953          43.000  
  21536626.580       94882.605        -367.607          49.000  
  23478153.249       -9745.4092        224.832          45.000  
  22315581.728      335657.894        -749.077          48.000  
  22430225.034      198484.486       -4372.917          47.000  
  23392057.225      -40098.369         686.585          45.000  
  23974357.362      116752.057        1154.735          45.000  
 15  3 30 21 15 28.0010000  0 11G23G 9G27G28G 3G 7G20G10G16G30G19
  20708263.103     3614593.503       -2290.108          48.000  
  20624292.612      226045.048        -544.029          48.000  
  23415107.322       33951.817        -309.284          45.000  
  25200932.460      -30855.0293       2033.322          23.000  
  23630987.971      465378.654       -5092.382          42.000  
  21536697.593       95251.643        -368.937          50.000  
  23478111.107       -9968.6582        223.366          45.000  
  22315724.636      336408.785        -750.783          48.000  
  22431058.011      202859.089       -4374.223          47.000  
  23391926.392      -40783.428         685.179          45.000  
  23974138.065      115598.683        1153.639          45.000  
 15  3 30 21 15 29.0010000  0 11G23G 9G27G28G 3G 7G20G10G16G30G19
  20708698.024     3616882.189       -2286.646          48.000  
  20624396.109      226587.928        -540.738          48.000  
  23415166.409       34260.194        -306.342          44.000  
  25200544.638      -32889.8613       2035.796          23.000  
  23631956.693      470469.607       -5088.690          42.000  
  21536767.804       95619.146        -365.410          50.000  
  23478068.022      -10193.0912        226.599          45.000  
  22315867.170      337158.566        -747.760          48.000  
  22431890.928      207232.366       -4371.195          47.000  
  23391796.362      -41470.072         688.995          45.000  
  23973917.643      114443.845        1156.617          44.000  
 15  3 30 21 15 30.0010000  0 11G23G 9G27G28G 3G 7G20G10G16G30G19
  20709131.950     3619167.208       -2282.666          47.000  
  20624498.603      227127.062        -536.781          48.000  
  23415224.902       34564.896        -301.901          44.000  
  25200157.854      -34928.3393       2038.470          22.000  
  23632925.041      475556.481       -5084.406          42.000  
  21536836.951       95982.647        -360.528          49.000  
  23478024.396      -10421.1602        230.621          45.000  
  22316009.720      337904.817        -743.509          48.000  
  22432721.951      211601.867       -4367.126          47.000  
  23391665.197      -42160.716         693.708          45.000  
  23973697.046      113285.016        1161.119          44.000  
 15  3 30 21 15 31.0010000  0 11G23G 9G27G28G 3G 7G20G10G16G30G19
  20709568.449     3621450.271       -2282.099          49.000  
  20624600.870      227663.544        -535.508          48.000  
  23415281.231       34868.483        -303.780          45.000  
  25199804.365      -36967.9073       2045.134          23.000  
  23633892.952      480640.532       -5083.062          45.000  
  21536903.733       96342.638        -358.167          49.000  
  23477979.767      -10652.674         234.038          46.000  
  22316150.718      338647.785        -741.259          46.000  
  22433552.424      215969.579       -4367.121          45.000  
  23391532.846      -42855.343         696.784          46.000  
  23973474.216      112124.534        1161.698          42.000  
 15  3 30 21 15 32.0010000  0 11G23G 9G27G28G 3G 7G20G10G16G30G19
  20710002.829     3623732.939       -2281.494          48.000  
  20624703.137      228197.897        -532.008          49.000  
  23415339.942       35173.190        -304.475          46.000  
  25199414.501      -39012.6233       2040.707          21.000  
  23634860.663      485722.445       -5078.839          44.000  
  21536971.841       96698.608        -352.610          49.000  
  23477934.266      -10888.455         238.906          46.000  
  22316290.861      339386.639        -735.781          46.000  
  22434384.206      220337.182       -4366.485          44.000  
  23391400.006      -43555.149         704.918          47.000  
  23973252.859      110964.746        1160.071          43.000  
 15  3 30 21 15 33.0010000  0 11G23G 9G27G28G 3G 7G20G10G16G30G19
  20710437.592     3626017.284       -2287.539          47.000  
  20624804.915      228732.456        -536.548          48.000  
  23415398.942       35481.214        -311.229          44.000  
  25199024.681      -41060.0733       2048.781          22.000  
  23635828.146      490804.759       -5084.120          41.000  
  21537039.469       97053.164        -356.790          48.000  
  23477889.044      -11125.807         234.474          44.000  
  22316430.742      340124.041        -739.879          43.000  
  22435215.639      224706.958       -4371.584          42.000  
  23391265.701      -44257.260         700.243          43.000  
  23973032.786      109807.540        1154.869          44.000  
 15  3 30 21 15 34.0010000  0 11G23G 9G27G28G 3G 7G20G10G16G30G19
  20710872.635     3628302.847       -2283.620          46.000  
  20624906.790      229268.257        -534.281          46.000  
  23415457.583       35790.394        -306.555          42.000  
  25198627.374      -43106.8893       2042.069          23.000  
  23636795.482      495887.855       -5082.337          42.000  
  21537106.696       97408.673        -354.479          45.000  
  23477843.438      -11361.862         236.813          43.000  
  22316571.539      340862.811        -738.414          44.000  
  22436048.041      229077.832       -4371.192          37.000  
  23391132.433      -44958.523         701.471          42.000  
  23972812.556      108651.227        1159.222          40.000  
 15  3 30 21 15 35.0010000  0 11G23G 9G27G28G 3G 7G20G10G16G30G19
  20711307.076     3630586.543       -2286.258          48.000  
  20625008.917      229803.795        -539.487          49.000  
  23415516.094       36095.949        -305.761          47.000  
  25198224.536      -45152.6723       2042.704          30.000  
  23637761.962      500970.001       -5085.356          43.000  
  21537174.621       97765.515        -361.930          47.000  
  23477799.027      -11595.602         228.321          38.000  
  22316713.470      341603.964        -746.954          47.000  
  22436879.308      233446.316       -4370.202          40.000  
  23390998.913      -45657.291         693.365          44.000  
  23972591.173      107491.374        1158.791          43.000  
 15  3 30 21 15 36.0010000  0 11G23G 9G27G28G 3G 7G20G10G16G30G19
  20711741.891     3632869.790       -2282.419          49.000  
  20625110.434      230340.448        -536.236          49.000  
  23415574.552       36399.332        -302.538          45.000  
  25197823.582      -47196.4323       2043.965          35.000  
  23638728.486      506052.598       -5082.019          43.000  
  21537241.874       98125.027        -359.039          47.000  
  23477755.288      -11825.670         230.261          38.000  
  22316854.294      342348.777        -744.828          47.000  
  22437711.116      237813.759       -4367.186          37.000  
  23390866.431      -46352.275         695.236          46.000  
  23972370.925      106329.454        1162.552          43.000  
 15  3 30 21 15 37.0010000  0 11G23G 9G27G28G 3G 7G20G10G16G30G19
  20712176.568     3635154.375       -2284.749          49.000  
  20625213.242      230878.657        -538.558          49.000  
  23415632.731       36703.814        -304.885          47.000  
  25197433.587      -49238.5952       2041.874          35.000  
  23639696.580      511136.445       -5084.621          43.000  
  21537309.817       98486.177        -360.985          46.000  
  23477712.535      -12053.653         227.764          40.000  
  22316996.050      343095.797        -747.690          47.000  
  22438543.012      242182.315       -4369.655          38.000  
  23390734.315      -47045.477         692.964          47.000  
  23972150.678      105168.350        1160.789          43.000  
 15  3 30 21 15 38.0010000  0 11G23G 9G27G28G 3G 7G20G10G16G30G19
  20712611.741     3637441.200       -2287.749          48.000  
  20625316.294      231419.032        -541.199          49.000  
  23415691.817       37010.519        -307.611          46.000  
  25197046.088      -51278.9032       2039.218          34.000  
  23640664.230      516222.061       -5086.310          43.000  
  21537379.373       98849.287        -363.988          47.000  
  23477670.558      -12279.333         224.152          40.000  
  22317138.863      343845.206        -750.555          47.000  
  22439376.085      246552.909       -4371.287          39.000  
  23390603.299      -47736.754         690.490          46.000  
  23971930.456      104009.170        1158.219          44.000  
 15  3 30 21 15 39.0010000  0 11G23G 9G27G28G 3G 7G20G10G16G30G19
  20713046.793     3639726.6363      -2289.313          49.000  
  20625418.989      231957.8833       -542.429          49.000  
  23415750.276       37316.5903       -308.705          46.000  
  25196656.014      -53320.9343       2040.023          34.000  
  23641632.499      521305.8603      -5087.887          43.000  
  21537448.563       99211.2993       -364.926          47.000  
  23477627.980      -12506.4263        222.631          40.000  
  22317281.710      344593.6203       -752.405          47.000  
  22440207.335      250921.9603      -4373.134          39.000  
  23390471.340      -48429.1943        689.063          47.000  
  23971709.632      102848.8983       1156.878          43.000  
 15  3 30 21 15 40.0010000  0 11G23G 9G27G28G 3G 7G20G10G16G30G19
  20713482.839     3642017.4313      -2292.472          49.000  
  20625521.561      232502.2153       -545.783          49.000  
  23415809.161       37627.1633       -312.123          46.000  
  25196271.158      -55358.0153       2035.301          35.000  
  23642600.881      526394.8733      -5090.306          43.000  
  21537518.137       99577.7873       -368.398          47.000  
  23477585.070      -12727.9413        220.375          40.000  
  22317425.579      345347.1403       -755.434          47.000  
  22441040.347      255296.1553      -4375.723          40.000  
  23390341.476      -49117.0883        686.288          47.000  
  23971488.765      101693.2273       1154.301          42.000  
 15  3 30 21 15 41.0010000  0 11G23G 9G27G28G 3G 7G20G10G16G30G19
  20713918.309     3644310.4473      -2304.861          48.000  
  20625625.285      233048.6203       -558.404          49.000  
  23415869.687       37940.6843       -324.691          46.000  
  25195885.919      -57394.2953       2026.056          35.000  
  23643570.258      531485.6213      -5102.746          44.000  
  21537588.593       99946.2883       -380.837          46.000  
  23477543.529      -12947.1813        207.213          40.000  
  22317570.416      346103.2723       -768.339          48.000  
  22441874.066      259673.2923      -4388.609          39.000  
  23390210.573      -49803.0843        674.083          47.000  
  23971268.726      100539.5283       1141.582          42.000  
 15  3 30 21 15 42.0010000  0 11G23G 9G27G28G 3G 7G20G10G16G30G19
  20714357.443     3646614.8792      -2305.735          49.000  
  20625731.548      233606.3222       -558.842          49.000  
  23415931.609       38265.1412       -325.553          46.000  
  25195499.292      -59418.4633       2023.214          35.000  
  23644541.668      536587.3602      -5102.658          44.000  
  21537660.784      100325.8742       -380.858          47.000  
  23477504.406      -13154.9912        206.610          41.000  
  22317716.561      346870.9722       -769.178          47.000  
  22442709.173      264061.2762      -4389.468          39.000  
  23390083.457      -50477.9682        673.705          48.000  
  23971050.974       99396.9212       1141.329          42.000  
 15  3 30 21 15 43.0010000  0 11G23G 9G27G28G 3G 7G20G10G16G30G19
  20714796.299     3648920.5962      -2309.182          49.000  
  20625837.768      234165.2842       -562.245          49.000  
  23415993.270       38590.9272       -329.432          47.000  
  25195113.860      -61441.7692       2019.849          35.000  
  23645513.218      541690.0542      -5106.109          44.000  
  21537734.145      100706.4842       -383.978          47.000  
  23477465.431      -13361.4002        203.159          40.000  
  22317863.614      347640.1312       -772.698          48.000  
  22443544.558      268450.4682      -4391.849          38.000  
  23389954.797      -51151.8562        670.546          47.000  
  23970833.413       98255.3762       1137.923          42.000  
 15  3 30 21 15 44.0010000  0 11G23G 9G27G28G 3G 7G20G10G16G30G19
  20715235.146     3651226.5462      -2298.665          49.000  
  20625943.874      234724.4042       -551.716          49.000  
  23416055.375       38916.9382       -318.793          47.000  
  25194728.105      -63465.2182       2030.382          35.000  
  23646483.851      546792.5662      -5095.035          44.000  
  21537805.691      101087.0642       -373.398          47.000  
  23477425.723      -13567.5022        213.278          39.000  
  22318009.934      348409.6852       -762.316          48.000  
  22444380.860      272839.8242      -4382.258          39.000  
  23389826.747      -51825.8452        681.416          47.000  
  23970616.088       97113.7702       1149.016          42.000  
 15  3 30 21 15 45.0010000  0 11G23G 9G27G28G 3G 7G20G10G16G30G19
  20715674.071     3653533.0502      -2310.306          49.000  
  20626050.468      235284.0072       -563.248          49.000  
  23416117.070       39243.5652       -330.656          46.000  
  25194343.572      -65488.5212       2019.570          35.000  
  23647455.288      551895.2682      -5106.068          44.000  
  21537878.179      101467.9092       -384.459          47.000  
  23477386.809      -13773.0672        201.628          40.000  
  22318157.118      349179.9562       -774.082          48.000  
  22445216.315      277229.6122      -4393.263          39.000  
  23389698.880      -52499.5602        670.060          47.000  
  23970398.737       95972.4552       1137.685          42.000  
 15  3 30 21 15 46.0010000  0 11G23G 9G27G28G 3G 7G20G10G16G30G19
  20716114.314     3655843.9562      -2311.271          49.000  
  20626157.482      235847.9502       -564.238          49.000  
  23416180.345       39574.5992       -331.452          47.000  
  25193958.751      -67507.7462       2019.068          35.000  
  23648427.465      557002.0022      -5106.665          45.000  
  21537951.601      101852.8832       -385.088          47.000  
  23477348.680      -13974.0702        200.357          39.000  
  22318305.253      349954.8032       -775.002          48.000  
  22446052.120      281623.7892      -4394.477          40.000  
  23389571.249      -53169.1892        669.301          47.000  
  23970182.790       94835.2762       1137.002          43.000  
 15  3 30 21 15 47.0010000  0 11G23G 9G27G28G 3G 7G20G10G16G30G19
  20716554.068     3658156.4742      -2317.339          48.000  
  20626265.787      236413.4252       -570.355          49.000  
  23416244.117       39907.2782       -337.324          46.000  
  25193575.012      -69525.7892       2013.494          35.000  
  23649400.027      562109.9532      -5112.196          45.000  
  21538025.232      102239.1852       -390.867          47.000  
  23477310.944      -14173.4442        194.859          40.000  
  22318453.187      350731.4302       -781.566          47.000  
  22446888.753      286019.5002      -4400.850          39.000  
  23389444.317      -53837.5182        663.705          47.000  
  23969967.394       93699.4762       1131.056          43.000  
 15  3 30 21 15 48.0010000  0 11G23G 9G27G28G 3G 7G20G10G16G30G19
  20716995.140     3660475.1252      -2321.192          48.000  
  20626374.423      236984.9582       -573.939          49.000  
  23416308.464       40246.1282       -341.336          46.000  
  25193191.535      -71538.0812       2010.309          35.000  
  23650372.597      567223.6752      -5115.825          45.000  
  21538099.806      102631.3342       -394.309          47.000  
  23477273.444      -14366.5902        190.409          40.000  
  22318602.072      351514.3672       -785.355          48.000  
  22447726.424      290421.2032      -4404.044          40.000  
  23389318.867      -54500.0282        660.092          48.000  
  23969752.154       92569.5412       1127.328          43.000  
 15  3 30 21 15 49.0010000  0 11G23G 9G27G28G 3G 7G20G10G16G30G19
  20717436.979     3662798.105       -2325.873          48.000  
  20626483.818      237560.777        -578.632          49.000  
  23416372.978       40589.337        -345.988          46.000  
  25192808.983      -73546.3912       2005.161          35.000  
  23651346.590      572341.351       -5120.176          45.000  
  21538175.496      103027.044        -398.978          47.000  
  23477237.496      -14555.293         185.692          40.000  
  22318752.284      352301.784        -790.353          48.000  
  22448565.265      294827.176       -4408.686          39.000  
  23389193.574      -55158.998         655.605          47.000  
  23969538.109       91443.163        1123.213          42.000  
 15  3 30 21 15 50.0010000  0 11G23G 9G27G28G 3G 7G20G10G16G30G19
  20717879.683     3665125.704       -2330.960          48.000  
  20626594.784      238141.144        -583.904          49.000  
  23416439.027       40937.188        -351.339          45.000  
  25192427.617      -75550.4562       2000.180          35.000  
  23652320.993      577463.263       -5124.992          44.000  
  21538251.544      103427.600        -403.806          47.000  
  23477201.793      -14739.335         180.950          41.000  
  22318903.080      353093.998        -795.884          47.000  
  22449404.813      299237.694       -4413.780          37.000  
  23389069.704      -55813.178         651.074          47.000  
  23969325.522       90321.663        1118.175          42.000  
 15  3 30 21 15 51.0010000  0 11G23G 9G27G28G 3G 7G20G10G16G30G19
  20718323.416     3667457.182       -2331.277          48.000  
  20626705.750      238725.313        -583.952          49.000  
  23416505.442       41288.935        -351.407          46.000  
  25192046.731      -77551.0572       2000.785          35.000  
  23653296.661      582588.678       -5124.826          45.000  
  21538328.595      103831.742        -403.706          47.000  
  23477167.678      -14919.449         180.317          40.000  
  22319054.417      353890.263        -796.180          48.000  
  22450244.849      303652.063       -4414.058          38.000  
  23388945.659      -56463.755         651.141          47.000  
  23969112.385       89203.742        1118.106          42.000  
 15  3 30 21 15 52.0010000  0 11G23G 9G27G28G 3G 7G20G10G16G30G19
  20718767.620     3669791.903       -2336.752          48.000  
  20626817.379      239312.657        -589.480          49.000  
  23416572.931       41643.980        -357.164          46.000  
  25191666.875      -79548.8202       1996.138          35.000  
  23654272.529      587716.961       -5130.214          45.000  
  21538405.647      104238.849        -409.142          47.000  
  23477134.627      -15096.207         174.491          40.000  
  22319206.374      354689.931        -801.959          48.000  
  22451084.963      308069.544       -4419.418          39.000  
  23388822.286      -57111.409         645.641          47.000  
  23968900.295       88088.795        1113.028          43.000  
 15  3 30 21 15 53.0010000  0 11G23G 9G27G28G 3G 7G20G10G16G30G19
  20719212.330     3672129.642       -2338.889          48.000  
  20626929.776      239902.957        -591.319          49.000  
  23416640.280       42002.040        -359.034          45.000  
  25191286.730      -81543.9012       1994.617          35.000  
  23655248.494      592847.890       -5131.598          45.000  
  21538483.169      104648.700        -410.775          47.000  
  23477100.652      -15269.899         172.646          40.000  
  22319358.251      355492.804        -803.955          48.000  
  22451925.435      312489.983       -4421.403          40.000  
  23388699.149      -57756.345         644.020          47.000  
  23968688.921       86976.646        1111.300          43.000  
 15  3 30 21 15 54.0010000  0 11G23G 9G27G28G 3G 7G20G10G16G30G19
  20719658.017     3674471.234       -2344.083          48.000  
  20627043.019      240497.018        -596.736          49.000  
  23416709.348       42363.998        -364.417          46.000  
  25190907.406      -83535.5412       1989.295          35.000  
  23656225.182      597982.234       -5136.311          45.000  
  21538562.097      105062.099        -416.008          47.000  
  23477067.496      -15439.677         167.351          40.000  
  22319511.639      356299.653        -809.476          48.000  
  22452766.449      316914.177       -4427.260          39.000  
  23388577.992      -58397.775         639.162          48.000  
  23968478.175       85868.036        1105.980          43.000  
 15  3 30 21 15 55.0010000  0 11G23G 9G27G28G 3G 7G20G10G16G30G19
  20720104.437     3676814.547       -2343.576          50.000  
  20627156.184      241092.527        -595.274          50.000  
  23416778.268       42727.947        -364.353          47.000  
  25190529.496      -85526.358        1991.937          33.000  
  23657201.819      603117.865       -5135.272          42.000  
  21538640.736      105476.489        -414.050          48.000  
  23477035.685      -15608.155         169.097          43.000  
  22319664.302      357107.858        -807.428          47.000  
  22453607.706      321340.223       -4425.302          43.000  
  23388455.107      -59038.366         641.765          47.000  
  23968267.446       84761.117        1106.552          45.000  
 15  3 30 21 15 56.0010000  0 11G23G 9G27G28G 3G 7G20G10G16G30G19
  20720550.281     3679157.722       -2349.103          49.000  
  20627269.340      241685.350        -596.470          49.000  
  23416847.711       43094.557        -374.894          45.000  
  25190150.067      -87522.2203       1996.136          23.000  
  23658178.795      608250.737       -5136.814          44.000  
  21538719.506      105885.238        -408.982          48.000  
  23477003.218      -15782.943         175.201          44.000  
  22319816.660      357910.075        -802.651          49.000  
  22454450.430      325766.1393      -4432.906          42.000  
  23388331.316      -59686.393         647.928          47.000  
  23968056.237       83655.840        1098.301          43.000  
 15  3 30 21 15 57.0010000  0 11G23G 9G27G28G 3G 7G20G10G16G30G19
  20720996.675     3681506.256       -2348.026          49.000  
  20627382.496      242279.233        -591.987          50.000  
  23416918.829       43470.949        -376.716          46.000  
  25189795.758      -89516.8063       1987.643          24.000  
  23659154.847      613385.086       -5133.436          43.000  
  21538796.471      106290.457        -401.081          48.000  
  23476969.330      -15962.557         183.229          47.000  
  22319967.770      358707.700        -794.346          48.000  
  22455292.141      330198.9952      -4432.790          48.000  
  23388206.232      -60341.001         658.462          46.000  
  23967847.183       82559.116        1097.095          43.000  
 15  3 30 21 15 58.0010000  0 11G23G 9G27G28G 3G 7G20G10G16G30G19
  20721444.649     3683858.280       -2349.306          50.000  
  20627495.512      242873.339        -590.013          49.000  
  23416991.797       43853.076        -379.409          46.000  
  25189431.545      -91514.4633       2001.952          25.000  
  23660132.365      618522.947       -5137.483          44.000  
  21538873.827      106693.374        -398.180          49.000  
  23476934.020      -16145.655         188.927          41.000  
  22320119.221      359502.523        -790.602          47.000  
  22456135.309      334634.7032      -4432.076          47.000  
  23388080.128      -60998.842         661.996          46.000  
  23967639.884       81468.630        1091.217          44.000  
 15  3 30 21 15 59.0010000  0 11G23G 9G27G28G 3G 7G20G10G16G30G19
  20721892.055     3686209.992       -2354.902          49.000  
  20627607.874      243462.773        -590.863          50.000  
  23417064.364       44235.442        -384.636          43.000  
  25189056.357      -93514.5883       1994.073          25.000  
  23661111.837      623667.311       -5152.533          45.000  
  21538949.090      107090.446        -399.010          48.000  
  23476897.880      -16337.357         191.355          43.000  
  22320269.310      360291.268        -790.192          48.000  
  22456977.352      339063.9952      -4428.420          45.000  
  23387953.876      -61660.618         657.284          47.000  
  23967433.439       80382.531        1081.032          42.000  
 15  3 30 21 16  0.0010000  0 11G23G 9G27G28G 3G 7G20G10G16G30G19
  20722339.854     3688563.700       -2349.178          49.000  
  20627719.870      244052.826        -586.814          49.000  
  23417135.875       44616.798        -374.268          45.000  
  25188647.978      -95504.5103       2011.952          26.000  
  23662093.900      628823.847       -5157.242          44.000  
  21539025.356      107490.531        -396.964          45.000  
  23476862.247      -16527.646         193.433          45.000  
  22320419.731      361083.858        -790.793          48.000  
  22457819.072      343488.1612      -4418.581          48.000  
  23387828.453      -62315.282         654.460          44.000  
  23967227.884       79300.917        1084.976          43.000  
 15  3 30 21 16  1.0010000  0 11G23G 9G27G28G 3G 7G20G10G16G30G19
  20722780.602     3690879.2653      -2305.360          40.000  
  20627825.522      244604.6203       -542.462          42.000  
  23417199.848       44957.0293       -328.949          37.000  
  25188264.457      -97509.3383       2021.651          25.000  
  23663069.603      633949.5033      -5117.819          34.000  
  21539095.096      107855.1113       -360.907          39.000  
  23476818.429      -16754.1253        233.154          36.000  
  22320564.943      361841.5863       -753.892          39.000  
  22458652.346      347868.3083      -4371.164          39.000  
  23387697.244      -63001.2693        692.807          37.000  
  23967015.017       78181.8723       1130.058          33.000  
 15  3 30 21 16  2.0010000  0 11G23G 9G27G28G 3G 7G20G10G16G30G19
  20723218.053     3693178.6333      -2309.075          47.000  
  20627927.719      245142.0323       -546.281          48.000  
  23417261.194       45278.3453       -330.521          43.000  
  25187857.440      -99525.6693       2016.341          25.000  
  23664043.211      639063.8913      -5128.365          40.000  
  21539161.547      108207.6983       -363.590          46.000  
  23476772.492      -16991.7363        229.715          43.000  
  22320706.281      362589.4763       -759.800          44.000  
  22459481.467      352230.0413      -4368.092          45.000  
  23387564.344      -63697.0803        682.749          43.000  
  23966798.478       77046.3273       1124.048          44.000  
 15  3 30 21 16  3.0010000  0 11G23G 9G27G28G 3G 7G20G10G16G30G19
  20723660.940     3695508.2593      -2334.157          49.000  
  20628035.823      245706.8463       -571.060          49.000  
  23417327.156       45627.0453       -353.228          46.000  
  25187473.980     -101511.7623       1976.052          26.000  
  23665023.539      644214.8563      -5158.072          43.000  
  21539234.890      108591.1513       -387.323          48.000  
  23476733.185      -17200.0733        203.569          44.000  
  22320854.198      363368.1853       -783.433          47.000  
  22460317.140      356616.7103      -4387.810          35.000  
  23387438.083      -64359.0593        657.201          44.000  
  23966587.286       75941.4283       1099.440          43.000  
 15  3 30 21 16  4.0010000  0  9G23G 9G27G28G 7G20G10G16G30
  20724104.978     3697844.3263      -2332.167          48.000  
  20628144.023      246279.0542       -567.349          49.000  
  23417394.452       45982.9493       -354.298          43.000  
  25187098.277     -103478.4203       1968.218          31.000  
  21539308.137      108980.5173       -383.525          48.000  
  23476694.856      -17402.4533        208.179          44.000  
  22321004.008      364153.8603       -780.497          47.000  
  22461152.317      361001.0753      -4394.333          45.000  
  23387313.217      -65013.7413        659.231          44.000  
 15  3 30 21 16  5.0010000  0 11G23G 9G27G28G 3G 7G20G10G16G30G19
  20724552.149     3700194.6263      -2347.428          47.000  
  20628255.042      246863.4713       -580.131          49.000  
  23417464.550       46349.8573       -372.264          46.000  
  25186728.385     -105436.7443       1967.299          26.000  
  23666990.928        4499.3903      -5187.378          42.000  
  21539385.450      109382.9733       -401.259          47.000  
  23476658.516      -17593.7163        191.670          44.000  
  22321155.415      364951.2513       -796.519          45.000  
  22461988.671      365398.7653      -4405.368          47.000  
  23387190.638      -65657.1103        640.968          44.000  
  23966168.333        -394.8933       1077.302          44.000  
 15  3 30 21 16  6.0010000  0 10G23G 9G28G 3G 7G20G10G16G30G19
  20725004.982     3702571.2453      -2393.036          48.000  
  20628371.051      247471.8723       -624.622          49.000  
  25186361.511     -107371.3343       1915.267          32.000  
  23667982.354        9706.9593      -5226.928          43.000  
  21539465.311      109805.9613       -439.871          48.000  
  23476625.186      -17766.0983        145.883          44.000  
  22321312.144      365769.8533       -836.475          46.000  
  22462834.230      369823.9343      -4442.623          46.000  
  23387073.600      -66277.3403        601.996          44.000  
  23965969.139       -1449.2833       1031.732          44.000  
 15  3 30 21 16  7.0010000  0 10G23G 9G28G 3G 7G20G10G16G30G19
  20725462.012     3704970.2593      -2402.156          49.000  
  20628491.527      248102.3563       -631.704          49.000  
  25186000.388     -109275.4583       1899.148          27.000  
  23668979.014       14942.7083      -5240.415          43.000  
  21539549.936      110249.8483       -447.093          48.000  
  23476596.497      -17918.1853        151.815          45.000  
  22321471.761      366608.8693       -841.664          46.000  
  22463677.477      374269.0933      -4437.684          46.000  
  23386960.418      -66875.2853        595.545          42.000  
  23965775.781       -2475.0123       1022.077          42.000  
 15  3 30 21 16  8.0010000  0 10G23G 9G28G 3G 7G20G10G16G30G19
  20725921.336     3707383.9663      -2426.741          48.000  
  20628613.338      248742.8253       -652.449          49.000  
  25185642.231     -111164.6863       1857.142          27.000  
  23669979.121       20197.9803      -5272.888          43.000  
  21539637.117      110706.4453       -469.760          48.000  
  23476572.591      -18058.6203        130.257          42.000  
  22321635.191      367462.3823       -866.528          47.000  
  22464526.063      378722.2913      -4464.043          47.000  
  23386849.530      -67457.8353        568.540          44.000  
  23965589.623       -3485.0893        996.131          29.000  
 15  3 30 21 16  9.0010000  0 10G23G 9G28G 3G 7G20G10G16G30G19
  20726382.947     3709810.8072      -2431.380          49.000  
  20628737.278      249394.8192       -655.703          50.000  
  25185289.509     -113027.4543       1849.995          35.000  
  23670981.942       25472.9842      -5282.181          43.000  
  21539726.367      111174.6442       -472.216          48.000  
  23476545.054      -18188.5202        125.814          45.000  
  22321799.328      368328.2442       -870.324          47.000  
  22465374.850      383183.7362      -4464.101          47.000  
  23386741.958      -68026.2713        569.098          39.000  
  23965404.258       -4478.5793        982.551          20.000  
 15  3 30 21 16 10.0010000  0 11G23G 9G27G28G 3G 7G20G10G16G30G19
  20726847.969     3712255.7642      -2461.307          49.000  
  20628864.709      250063.6832       -685.112          49.000  
  23417880.773         832.0313       -476.158          41.000  
  25184939.441     -114863.5173       1815.136          37.000  
  23671990.486       30770.2862      -5315.245          43.000  
  21539818.556      111660.1972       -502.099          48.000  
  23476524.594      -18301.6952         97.043          39.000  
  22321967.190      369211.9122       -899.795          47.000  
  22466227.294      387660.3123      -4490.975          47.000  
  23386637.711      -68576.4463        532.899          46.000  
  23965219.582       -5511.0653       1054.198          20.000  
 15  3 30 21 16 11.0010000  0 10G23G 9G27G28G 3G 7G20G10G16G30
  20727316.987     3714720.8623      -2477.816          49.000  
  20628995.210      250751.2832       -700.211          49.000  
  23417964.298        1312.6492       -493.377          45.000  
  25184597.294     -116682.1633       1818.296          25.000  
  23673003.305       36091.2832      -5334.843          43.000  
  21539914.576      112164.5742       -517.892          48.000  
  23476504.831      -18395.4693         86.214          39.000  
  22322139.441      370114.8582       -916.866          44.000  
  22467081.272      392153.4132      -4505.569          47.000  
  23386536.753      -69105.9323        516.828          34.000  
 15  3 30 21 16 12.0010000  0 11G23G 9G27G28G 3G 7G20G10G16G30G19
  20727790.612     3717209.6072      -2493.265          49.000  
  20629130.824      251462.2072       -715.606          49.000  
  23418060.946        1816.6292       -510.364          46.000  
  25184256.858     -118474.7483       1779.095          25.000  
  23674020.583       41437.0482      -5349.964          43.000  
  21540015.299      112692.2072       -532.044          48.000  
  23476490.601      -18472.4443         99.761          30.000  
  22322314.763      371044.1333       -933.080          43.000  
  22467941.516      396669.0872      -4518.276          40.000  
  23386441.361      -69610.6793        498.084          41.000  
  23964853.738       -1241.3693        917.152          34.000  
 15  3 30 21 16 13.0010000  0 10G23G 9G28G 3G 7G20G10G16G30G19
  20728266.078     3719705.0602      -2502.961          49.000  
  20629267.023      252180.1642       -725.341          50.000  
  25183918.568     -120251.5843       1779.173          25.000  
  23675039.292       46788.3902      -5358.462          43.000  
  21540116.859      113226.8142       -541.573          48.000  
  23476480.768      -18539.9293         54.976          42.000  
  22322495.844      371978.2563       -940.677          46.000  
  22468802.134      401191.8082      -4530.402          48.000  
  23386344.268      -70108.4643        492.051          37.000  
  23964675.118       -2166.5803        931.450          39.000  
 15  3 30 21 16 14.0010000  0 11G23G 9G27G28G 3G 7G20G10G16G30G19
  20728743.211     3722211.9173      -2508.913          49.000  
  20629406.023      252910.2403       -731.252          50.000  
  23418252.497         713.5223       -525.575          45.000  
  25183578.681     -122023.3593       1767.869          25.000  
  23676059.239       52150.2083      -5363.358          42.000  
  21540220.347      113772.7173       -548.942          49.000  
  23476471.379      -18591.8613         48.317          43.000  
  22322671.629      372924.7823       -949.095          47.000  
  22469664.925      405726.6613      -4537.625          48.000  
  23386252.358      -70588.1363        484.492          44.000  
  23964508.712       -3071.7893        881.656          25.000  
 15  3 30 21 16 15.0010000  0 11G23G 9G27G28G 3G 7G20G10G16G30G19
  20729224.165     3724740.1013      -2543.357          49.000  
  20629549.219      253661.7563       -766.144          50.000  
  23418364.344        1258.3723       -561.972          40.000  
  25183253.819     -123772.8163       1738.528          23.000  
  23677083.052       57532.1992      -5395.104          42.000  
  21540328.565      114339.4043       -581.665          49.000  
  23476465.202      -18622.8403         14.863          43.000  
  22322858.259      373892.0203       -982.758          47.000  
  22470532.254      410283.5393      -4572.917          48.000  
  23386163.981      -71054.3092        452.523          45.000  
  23964339.236        -246.5713        882.535          37.000  
 15  3 30 21 16 16.0010000  0 11G23G 9G27G28G 3G 7G20G10G16G30G19
  20729710.093     3727293.9102      -2569.814          49.000  
  20629696.901      254438.7562       -793.599          50.000  
  23418471.087         682.0753       -583.602          46.000  
  25182921.559     -125500.7843       1707.826          21.000  
  23678112.022       62937.4802      -5420.336          43.000  
  21540441.354      114931.8882       -609.513          49.000  
  23476465.621      -18628.8723        -11.629          42.000  
  22323046.085      374885.5682      -1010.629          47.000  
  22471404.442      414866.6532      -4598.719          47.000  
  23386082.070      -71497.4323        424.310          45.000  
  23964171.007        -262.1093        881.121          33.000  
 15  3 30 21 16 17.0010000  0 11G23G 9G27G28G 3G 7G20G10G16G30G19
  20730198.646     3729860.9512      -2583.186          49.000  
  20629847.714      255229.2432       -807.129          50.000  
  23418582.455        1264.0383       -594.967          47.000  
  25182593.285     -127213.1803       1721.643          20.000  
  23679143.295       68354.6572      -5432.210          43.000  
  21540556.953      115537.6132       -623.781          48.000  
  23476468.587      -18619.4263        -33.556          34.000  
  22323239.826      375892.4413      -1018.126          42.000  
  22472279.160      419463.8062      -4614.742          47.000  
  23386000.001      -71927.3363        417.503          46.000  
  23964002.700        -236.6673        838.191          44.000  
 15  3 30 21 16 18.0010000  0 11G23G 9G27G28G 3G 7G20G10G16G30G19
  20730689.277     3732439.3343      -2581.306          49.000  
  20630000.639      256032.3382       -804.576          50.000  
  23418694.476        1858.2743       -597.344          46.000  
  25182266.495     -128931.6553       1698.043          19.000  
  23680175.362       73781.6843      -5428.360          42.000  
  21540674.385      116154.0163       -619.005          47.000  
  23476472.313      -18585.7393        -26.290          35.000  
  22323433.750      376914.5003      -1023.045          42.000  
  22473156.147      424072.2603      -4612.098          48.000  
  23385918.090      -72342.7853        425.220          43.000  
  23963847.567       -1081.5373        842.009          44.000  
 15  3 30 21 16 19.0010000  0 11G23G 9G27G28G 3G 7G20G10G16G30G19
  20731182.106     3735027.6452      -2593.907          49.000  
  20630154.890      256844.7632       -819.018          48.000  
  23418809.700        2462.6162       -610.209          46.000  
  25181942.994     -130632.7023       1711.933          17.000  
  23681209.601       79217.2922      -5439.075          43.000  
  21540793.125      116781.0022       -632.577          43.000  
  23476475.943      -18554.3993        -43.929          40.000  
  22323629.402      377945.3383      -1031.803          39.000  
  22474035.428      428691.8432      -4625.599          48.000  
  23385842.199      -72750.8633        399.622          37.000  
  23963684.312       -1916.7262        829.072          42.000  
 15  3 30 21 16 20.0010000  0 10G23G 9G28G 3G 7G20G10G16G30G19
  20731675.048     3737620.4602      -2596.153          49.000  
  20630310.389      257661.7553       -821.740          50.000  
  25181614.895     -132361.9883       1740.783          15.000  
  23682244.975       84655.0883      -5439.647          42.000  
  21540913.653      117412.3573       -637.238          48.000  
  23476484.310      -18506.9483        -50.712          36.000  
  22323825.472      378979.4063      -1040.014          43.000  
  22474915.818      433317.2933      -4629.643          48.000  
  23385762.844      -73152.0903        399.965          37.000  
  23963528.726       -2752.4623        835.794          36.000  
 15  3 30 21 16 21.0010000  0 10G23G 9G28G 3G 7G20G10G16G30G19
  20732169.561     3740216.7622      -2594.612          48.000  
  20630466.996      258483.2342       -820.804          50.000  
  25181295.870     -134066.9203       1690.399          15.000  
  23683279.991       90094.9822      -5440.050          43.000  
  21541034.644      118047.8362       -634.303          46.000  
  23476490.182      -18458.5433        -53.670          35.000  
  22324022.503      380019.7153      -1037.832          40.000  
  22475796.993      437946.9832      -4625.762          43.000  
  23385688.314      -73550.3633        400.424          42.000  
  23963371.203       -3589.3863        824.516          32.000  
 15  3 30 21 16 22.0010000  0 11G23G 9G27G28G 3G 7G20G10G16G30G19
  20732664.362     3742816.6532      -2604.832          49.000  
  20630623.952      259307.1382       -827.745          50.000  
  23419159.769        4312.0273       -610.669          32.000  
  25180974.402     -135760.8853       1687.294          16.000  
  23684316.874       95540.6642      -5451.402          42.000  
  21541156.281      118685.7972       -643.085          47.000  
  23476502.345      -18406.0663        -37.999          33.000  
  22324222.194      381060.4333      -1046.815          43.000  
  22476678.116      442577.9092      -4633.320          47.000  
  23385612.615      -73946.3313        393.833          38.000  
  23963216.149       -4412.5923        818.523          31.000  
 15  3 30 21 16 23.0010000  0 10G23G 9G28G 3G 7G20G10G16G30G19
  20733160.960     3745427.4502      -2610.721          49.000  
  20630782.313      260141.4032       -833.805          50.000  
  25180654.627     -137445.6843       1669.233          17.000  
  23685355.258      100998.5592      -5457.673          42.000  
  21541279.724      119333.7912       -647.137          49.000  
  23476514.796      -18364.7643        -85.277          29.000  
  22324420.376      382113.1012      -1053.152          46.000  
  22477560.774      447218.5832      -4640.434          47.000  
  23385537.457      -74332.3833        406.499          32.000  
  23963061.976       -5226.9403        826.768          30.000  
 15  3 30 21 16 24.0010000  0  9G23G 9G28G 3G 7G20G10G16G30
  20733658.545     3748041.0723      -2625.329          49.000  
  20630941.712      260978.8993       -848.168          49.000  
  25180337.007     -139116.2463       1664.686          18.000  
  23686394.777      106459.7293      -5472.280          44.000  
  21541403.385      119985.5053       -661.480          45.000  
  23476539.845      -18312.9403        -68.147          37.000  
  22324621.438      383170.3823      -1061.885          39.000  
  22478444.531      451862.1203      -4654.194          48.000  
  23385470.823      -74718.1703        368.704          34.000  
 15  3 30 21 16 25.0010000  0  9G23G 9G28G 3G 7G20G10G16G30
  20734157.001     3750661.5063      -2612.796          49.000  
  20631101.600      261822.0713       -835.761          49.000  
  25180021.795     -140782.3663       1675.801          18.000  
  23687435.045      111928.6773      -5461.493          42.000  
  21541528.485      120642.0953       -648.047          49.000  
  23476536.643      -18251.3243        -54.276          45.000  
  22324828.162      384233.2493      -1049.239          39.000  
  22479328.769      456509.9033      -4640.028          46.000  
  23385397.838      -75095.5773        386.907          39.000  
 15  3 30 21 16 26.0010000  0 10G23G 9G28G 3G 7G20G10G16G30G19
  20734656.558     3753286.6452      -2629.532          49.000  
  20631263.223      262669.5752       -851.365          49.000  
  25179703.590     -142454.5343       1661.919          17.000  
  23688476.518      117401.1552      -5476.907          43.000  
  21541654.240      121302.5342       -663.809          49.000  
  23476549.042      -18181.4273        -73.058          39.000  
  22325027.635      385301.7393      -1081.059          40.000  
  22480214.647      461163.3052      -4657.978          49.000  
  23385326.056      -75473.7063        369.882          47.000  
  23962612.877        -784.6113        794.085          25.000  
 15  3 30 21 16 27.0010000  0  9G23G 9G28G 3G 7G20G10G16G19
  20735157.265     3755919.2013      -2638.452          49.000  
  20631425.798      263524.3042       -855.804          50.000  
  25179387.785     -144111.8033       1664.341          17.000  
  23689519.578      122881.9082      -5482.198          44.000  
  21541781.077      121969.9072       -667.205          49.000  
  23476557.173      -18107.5993        -74.564          44.000  
  22325234.368      386375.5713      -1077.594          47.000  
  22481101.318      465823.5422      -4658.934          46.000  
  23962467.177       -1605.8293        863.149          24.000  
 15  3 30 21 16 28.0010000  0 10G23G 9G28G 3G 7G20G10G16G30G19
  20735659.901     3758559.5903      -2654.590          49.000  
  20631589.857      264386.0232       -876.558          50.000  
  25179076.202     -145765.8433       1648.209          18.000  
  23690563.677      128369.9783      -5497.443          43.000  
  21541909.232      122644.2582       -689.690          49.000  
  23476574.161      -18025.5543        -92.536          46.000  
  22325434.391      387456.9263      -1097.500          47.000  
  22481989.848      470489.6253      -4674.360          44.000  
  23385188.217          40.9513        348.018          44.000  
  23962317.157       -2410.3563        779.961          23.000  
 15  3 30 21 16 29.0010000  0 11G23G 9G27G28G 3G 7G20G10G16G30G19
  20736162.773     3761201.6342      -2646.657          49.000  
  20631754.255      265249.8002       -867.790          50.000  
  23420012.317         674.7903       -654.558          46.000  
  25178766.121     -147412.9593       1656.323          18.000  
  23691608.465      133860.4263      -5495.769          43.000  
  21542037.709      123320.5842       -680.001          49.000  
  23476590.215      -17940.8613        -87.141          44.000  
  22325643.942      388541.0793      -1087.403          47.000  
  22482877.916      475158.3163      -4672.309          47.000  
  23385116.523        -316.1813        353.044          44.000  
  23962159.904       -3193.7683        793.574          24.000  
 15  3 30 21 16 30.0010000  0 11G23G 9G27G28G 3G 7G20G10G16G30G19
  20736666.160     3763846.2183      -2641.840          49.000  
  20631919.282      266115.3962       -858.282          50.000  
  23420139.642        1334.6443       -655.202          44.000  
  25178456.362     -149054.2103       1649.529          19.000  
  23692653.175      139354.4123      -5491.543          43.000  
  21542166.596      123998.2922       -668.640          49.000  
  23476606.819      -17855.8873        -81.792          45.000  
  22325850.230      389626.5552      -1076.911          47.000  
  22483766.298      479828.3222      -4661.725          47.000  
  23385047.141        -670.2323        361.386          46.000  
  23961999.511       -4003.9183        789.039          41.000  
 15  3 30 21 16 31.0010000  0 11G23G 9G27G28G 3G 7G20G10G16G30G19
  20737170.916     3766497.6913      -2657.265          49.000  
  20632085.356      266989.8073       -877.255          50.000  
  23420266.427        2001.8453       -675.047          33.000  
  25178144.570     -150697.3243       1624.698          18.000  
  23693700.389      144856.4383      -5507.509          43.000  
  21542296.932      124682.0393       -688.562          49.000  
  23476624.976      -17764.7453        -96.286          45.000  
  22326058.638      390718.3743      -1096.822          47.000  
  22484656.748      484505.6732      -4681.399          47.000  
  23384982.575       -1020.0113        344.023          46.000  
  23961855.695       -4771.5703        766.199          41.000  
 15  3 30 21 16 32.0010000  0 10G23G 9G28G 3G 7G20G10G16G30G19
  20737675.559     3769149.5913      -2659.912          49.000  
  20632251.360      267861.3422       -880.247          50.000  
  25177836.329     -152330.3943       1628.488          18.000  
  23694747.882      150357.3423      -5508.823          43.000  
  21542427.276      125365.1883       -692.980          49.000  
  23476642.767      -17673.6753        -94.820          41.000  
  22326264.838      391810.1362      -1100.944          47.000  
  22485546.212      489181.4743      -4680.428          47.000  
  23384916.439       -1370.2063        341.871          45.000  
  23961709.645       -5545.3363        747.076          26.000  
 15  3 30 21 16 33.0010000  0 10G23G 9G28G 3G 7G20G10G16G30G19
  20738181.187     3771806.3833      -2660.353          49.000  
  20632418.184      268738.6832       -885.500          50.000  
  25177526.405     -153957.3913       1628.698          18.000  
  23695795.697      155863.8143      -5514.485          44.000  
  21542558.537      126053.7212       -696.949          49.000  
  23476660.121      -17576.6603       -105.621          45.000  
  22326474.616      392907.7843      -1106.303          47.000  
  22486437.551      493865.1523      -4689.230          48.000  
  23384850.599       -1713.4773        337.338          45.000  
  23961579.772       -6301.9883        745.492          24.000  
 15  3 30 21 16 34.0010000  0 10G23G 9G28G 3G 7G20G10G16G30G19
  20738688.727     3774472.0463      -2662.415          49.000  
  20632587.128      269625.3742       -882.558          50.000  
  25177219.822     -155584.5573       1613.458          18.000  
  23696844.805      161378.7732      -5510.308          44.000  
  21542690.871      126751.3992       -693.092          49.000  
  23476679.648      -17469.3253       -102.001          45.000  
  22326685.432      394015.0642      -1103.159          47.000  
  22487329.938      498556.0793      -4686.702          48.000  
  23384786.574       -2049.2342        339.958          46.000  
  23961438.896       -7061.5793        731.603          21.000  
 15  3 30 21 16 35.0010000  0 10G23G 9G28G 3G 7G20G10G16G30G19
  20739196.816     3777142.1782      -2678.955          49.000  
  20632756.334      270515.7842       -899.361          50.000  
  25176913.134     -157207.0533       1618.310          19.000  
  23697894.837      166896.1942      -5525.505          43.000  
  21542824.243      127452.5552       -709.801          49.000  
  23476701.504      -17359.3563       -119.922          43.000  
  22326896.876      395126.3622      -1120.871          47.000  
  22488223.311      503251.2932      -4707.075          40.000  
  23384721.991       -2381.7202        321.734          45.000  
  23961297.358       -7801.3063        741.850          21.000  
 15  3 30 21 16 36.0010000  0 10G23G 9G28G 3G 7G20G10G16G30G19
  20739705.167     3779815.5903      -2681.173          49.000  
  20632926.875      271409.3383       -901.097          50.000  
  25176606.299     -158822.7853       1609.386          24.000  
  23698945.846      172415.9703      -5527.891          42.000  
  21542958.592      128156.5833       -711.500          49.000  
  23476724.748      -17245.6213       -121.398          45.000  
  22327109.350      396240.9843      -1122.546          47.000  
  22489116.448      507953.5253      -4705.653          48.000  
  23384659.964       -2712.0333        322.904          44.000  
  23961146.614       -8549.3983        755.593          21.000  
 15  3 30 21 16 37.0010000  0 10G23G 9G28G 3G 7G20G10G16G30G19
  20740216.040     3782498.0013      -2684.380          49.000  
  20633098.184      272311.3133       -906.471          50.000  
  25176301.487     -160427.0053       1601.138          29.000  
  23699997.911      177943.3963      -5530.553          42.000  
  21543094.302      128868.4753       -712.068          49.000  
  23476746.325      -17123.3713       -126.476          45.000  
  22327323.150      397364.0163      -1126.187          47.000  
  22490013.659      512661.4383      -4709.812          48.000  
  23384598.801       -3034.1103        317.356          46.000  
  23961004.988       -9300.0313        757.268          23.000  
 15  3 30 21 16 38.0010000  0 11G23G 9G27G28G 3G 7G20G10G16G30G19
  20740727.663     3785185.1003      -2686.895          49.000  
  20633271.194      273219.6663       -908.093          50.000  
  23421175.121        1084.1713       -702.031          46.000  
  25175998.612     -162026.5253       1603.069          33.000  
  23701050.307      183475.1083      -5530.444          43.000  
  21543230.737      129586.4693       -717.409          49.000  
  23476770.302      -16993.3563       -127.256          40.000  
  22327538.032      398493.9783      -1129.315          47.000  
  22490909.536      517375.8703      -4712.013          46.000  
  23384538.546       -3350.2043        317.049          46.000  
  23960847.596      -10044.8893        740.737          45.000  
 15  3 30 21 16 39.0010000  0 11G23G 9G27G28G 3G 7G20G10G16G30G19
  20741239.792     3787877.2062      -2684.731          49.000  
  20633444.815      274133.6722       -907.483          50.000  
  23421313.230        1791.6702       -700.229          46.000  
  25175687.056     -163623.5213       1592.661          30.000  
  23702103.332      189009.3412      -5525.870          43.000  
  21543368.410      130310.4882       -716.731          49.000  
  23476798.650      -16858.4543       -130.217          44.000  
  22327754.354      399630.2932      -1129.952          47.000  
  22491808.327      522094.8962      -4712.077          47.000  
  23384479.869       -3660.9413        312.059          44.000  
  23960708.064      -10781.1322        745.401          40.000  
 15  3 30 21 16 40.0010000  0 11G23G 9G27G28G 3G 7G20G10G16G30G19
  20741752.287     3790570.3593      -2702.104          49.000  
  20633619.221      275050.2343       -926.205          50.000  
  23421448.819        2500.1003       -716.749          46.000  
  25175386.598     -165224.6473       1592.651          34.000  
  23703156.121      194541.6413      -5539.232          43.000  
  21543506.441      131036.3843       -728.997          46.000  
  23476822.652      -16717.4433       -143.801          40.000  
  22327971.147      400770.0883      -1150.993          43.000  
  22492707.598      526817.6093      -4732.506          47.000  
  23384421.027       -3972.9833        305.352          34.000  
  23960569.308      -11518.3523        730.298          44.000  
 15  3 30 21 16 41.0010000  0 10G23G 9G28G 3G 7G20G10G16G30G19
  20742264.146     3793263.5372      -2693.644          48.000  
  20633793.837      275968.3932       -918.948          50.000  
  25175076.359     -166834.3503       1602.810          30.000  
  23704208.168      200070.7662      -5527.361          43.000  
  21543645.162      131765.2403       -729.909          49.000  
  23476849.665      -16574.6943       -141.348          34.000  
  22328188.236      401911.6863      -1144.208          46.000  
  22493605.062      531544.6053      -4726.078          45.000  
  23384362.778       -4281.0363        307.591          46.000  
  23960428.380      -12257.6672        741.155          45.000  
 15  3 30 21 16 42.0010000  0 11G23G 9G27G28G 3G 7G20G10G16G30G19
  20742776.947     3795956.8132      -2693.972          49.000  
  20633968.461      276888.1962       -920.483          49.000  
  23421734.906        1173.7493       -709.976          36.000  
  25174780.840     -168441.2993       1604.882          25.000  
  23705259.657      205596.8403      -5524.499          44.000  
  21543784.205      132495.5242       -732.413          49.000  
  23476878.833      -16428.0403       -149.704          40.000  
  22328406.059      403055.6133      -1144.129          45.000  
  22494503.347      536271.4863      -4724.334          45.000  
  23384304.547       -4587.3303        305.728          38.000  
  23960287.069      -13004.1953        759.442          33.000  
 15  3 30 21 16 43.0010000  0 11G23G 9G27G28G 3G 7G20G10G16G30G19
  20743289.782     3798650.2163      -2695.523          48.000  
  20634144.211      277809.3853       -923.142          50.000  
  23421850.889        1880.4373       -710.451          46.000  
  25174478.410     -170049.8263       1596.142          24.000  
  23706311.120      211120.6773      -5523.217          43.000  
  21543923.545      133227.1483       -734.379          49.000  
  23476907.277      -16281.2393       -150.642          41.000  
  22328624.343      404202.5153      -1148.541          47.000  
  22495405.253      540998.7983      -4732.105          41.000  
  23384245.775       -4894.5463        304.471          44.000  
  23960146.882      -13758.3013        737.579          42.000  
 15  3 30 21 16 44.0010000  0 10G23G 9G28G 3G 7G20G10G16G30G19
  20743802.068     3801343.3143      -2698.025          48.000  
  20634319.001      278731.0153       -925.854          50.000  
  25174173.311     -171662.3023       1598.330          24.000  
  23707361.344      216641.1853      -5524.139          43.000  
  21544062.423      133958.4123       -735.430          49.000  
  23476935.939      -16131.6433       -154.507          44.000  
  22328842.043      405348.9603      -1152.144          45.000  
  22496306.286      545728.2603      -4734.042          48.000  
  23384188.075       -5201.0203        304.188          38.000  
  23960004.218      -14502.2323        735.510          34.000  
 15  3 30 21 16 45.0010000  0 11G23G 9G27G28G 3G 7G20G10G16G30G19
  20744313.770     3804035.3082      -2692.070          49.000  
  20634494.480      279652.1232       -921.467          50.000  
  23422121.027        1195.4803       -707.658          43.000  
  25173866.754     -173283.2533       1615.736          24.000  
  23708411.280      222159.4603      -5517.781          43.000  
  21544201.693      134689.3482       -732.046          49.000  
  23476963.955      -15981.0483       -149.789          38.000  
  22329060.799      406496.4163      -1149.303          46.000  
  22497203.620      550457.9642      -4730.991          47.000  
  23384129.835       -5508.5383        308.018          46.000  
  23959866.553      -15250.4503        754.018          33.000  
 15  3 30 21 16 46.0010000  0 11G23G 9G27G28G 3G 7G20G10G16G30G19
  20744826.981     3806729.5673      -2697.441          49.000  
  20634670.309      280575.9973       -930.275          50.000  
  23422258.797        1905.4053       -711.247          46.000  
  25173556.489     -174900.9493       1620.876          23.000  
  23709461.548      227677.3483      -5522.770          42.000  
  21544341.112      135422.6042       -739.092          49.000  
  23476993.097      -15827.0783       -156.070          42.000  
  22329279.102      407646.1472      -1156.491          47.000  
  22498105.343      555191.4983      -4738.704          41.000  
  23384070.051       -5815.8083        301.127          45.000  
  23959721.079      -15995.1053        742.170          45.000  
 15  3 30 21 16 47.0010000  0 11G23G 9G27G28G 3G 7G20G10G16G30G19
  20745339.956     3809427.4663      -2702.647          49.000  
  20634847.018      281504.7963       -934.208          49.000  
  23422396.409        2619.1623       -738.602          30.000  
  25173250.910     -176510.6783       1624.868          21.000  
  23710511.143      233194.3733      -5518.933          42.000  
  21544480.992      136156.7423       -743.430          49.000  
  23477022.824      -15671.0043       -162.971          42.000  
  22329498.948      408797.1143      -1160.719          46.000  
  22499008.322      559934.9783      -4746.582          39.000  
  23384012.579       -6119.2993        299.108          45.000  
  23959577.490      -16738.7783        741.190          44.000  
 15  3 30 21 16 48.0010000  0 10G23G 9G28G 3G 7G20G10G16G30G19
  20745853.612     3812125.5073      -2711.011          49.000  
  20635023.641      282435.2903       -942.749          49.000  
  25172943.245     -178126.0843       1632.648          21.000  
  23711561.062      238710.1583      -5525.387          42.000  
  21544621.432      136894.5883       -748.213          49.000  
  23477053.711      -15509.0913       -168.548          39.000  
  22329718.393      409952.7403      -1166.096          46.000  
  22499907.697      564675.4873      -4758.985          34.000  
  23383954.539       -6423.5343        294.803          41.000  
  23959437.068      -17492.2943        731.224          31.000  
 15  3 30 21 16 49.0010000  0 11G23G 9G27G28G 3G 7G20G10G16G30G19
  20746367.425     3814826.3693      -2707.825          49.000  
  20635201.598      283367.4753       -936.677          50.000  
  23422667.900        1230.0463       -719.529          45.000  
  25172634.899     -179744.4463       1612.405          24.000  
  23712610.012      244223.4213      -5515.906          41.000  
  21544762.447      137634.7363       -748.176          49.000  
  23477085.688      -15338.9273       -168.859          38.000  
  22329938.606      411111.2943      -1165.592          43.000  
  22500812.430      569424.2283      -4755.274          46.000  
  23383896.456       -6725.7843        301.332          41.000  
  23959296.891      -18238.9083        755.946          31.000  
 15  3 30 21 16 50.0010000  0 10G23G 9G28G 3G 7G20G10G16G30G19
  20746881.639     3817528.9503      -2697.641          49.000  
  20635379.939      284304.1543       -932.187          50.000  
  25172327.610     -181368.1933       1638.920          24.000  
  23713658.988      249732.6983      -5498.013          43.000  
  21544903.707      138378.4303       -738.775          49.000  
  23477118.303      -15168.7163       -164.440          42.000  
  22330160.137      412273.7103      -1156.091          46.000  
  22501717.337      574177.5043      -4747.976          47.000  
  23383839.202       -7025.4023        282.564          36.000  
  23959152.543      -18984.9033        754.301          44.000  
 15  3 30 21 16 51.0010000  0 10G23G 9G28G 3G 7G20G10G16G30G19
  20747398.096     3820242.2163      -2730.517          48.000  
  20635560.209      285252.8713       -967.257          50.000  
  25172015.234     -183000.8263       1632.339          23.000  
  23714707.092      255243.8203      -5530.590          42.000  
  21545047.313      139131.8773       -774.917          49.000  
  23477150.647      -14987.5873       -207.557          45.000  
  22330383.500      413447.4693      -1191.243          45.000  
  22502626.031      578947.0653      -4784.930          42.000  
  23383783.745       -7310.6883        272.546          38.000  
  23959016.073      -19726.3033        743.560          28.000  
 15  3 30 21 16 52.0010000  0 11G23G 9G27G28G 3G 7G20G10G16G30G19
  20747914.605     3822957.9783      -2723.805          49.000  
  20635741.019      286204.2663       -960.157          50.000  
  23423083.607        1207.5703       -730.144          30.000  
  25171708.249     -184617.0643       1623.713          25.000  
  23715755.649      260756.8833      -5520.196          43.000  
  21545191.434      139890.8263       -766.481          48.000  
  23477188.470      -14798.6453       -195.822          40.000  
  22330607.430      414625.5973      -1186.697          47.000  
  22503532.910      583718.0053      -4780.097          48.000  
  23383728.681       -7597.6443        286.248          45.000  
  23958882.169      -20481.0283        755.787          28.000  
 15  3 30 21 16 53.0010000  0 10G23G 9G28G 3G 7G20G10G16G30G19
  20748431.951     3825675.4243      -2714.770          49.000  
  20635923.138      287159.2543       -952.540          50.000  
  25171398.848     -186233.0813       1610.926          26.000  
  23716805.210      266269.8823      -5508.917          44.000  
  21545337.013      140651.7563       -757.819          50.000  
  23477225.377      -14607.5953       -187.330          45.000  
  22330832.241      415806.4473      -1177.653          46.000  
  22504440.391      588492.6423      -4772.818          46.000  
  23383674.795       -7884.8063        291.280          44.000  
  23958735.526      -21222.6573        755.940          29.000  
 15  3 30 21 16 54.0010000  0 11G23G 9G27G28G 3G 7G20G10G16G30G19
  20748949.272     3828395.2753      -2717.082          49.000  
  20636104.935      288117.4893       -955.748          50.000  
  23423362.889        2681.2653       -737.535          46.000  
  25171091.306     -187852.1273       1616.683          32.000  
  23717854.291      271784.3023      -5511.397          43.000  
  21545482.234      141415.3473       -762.148          49.000  
  23477261.124      -14413.0353       -187.170          44.000  
  22331058.125      416990.4863      -1182.223          47.000  
  22505349.486      593270.9323      -4773.952          45.000  
  23383619.146       -8169.9723        287.320          44.000  
  23958594.616      -21968.2923        730.438          28.000  
 15  3 30 21 16 55.0010000  0 10G23G 9G27G28G 3G 7G20G10G16G30
  20749467.604     3831118.8663      -2718.160          48.000  
  20636287.743      289078.6683       -955.715          50.000  
  23423505.536        3424.0623       -737.334          47.000  
  25170788.501     -189465.8933       1612.951          27.000  
  23718904.297      277302.4173      -5513.254          43.000  
  21545627.690      142181.1573       -761.835          49.000  
  23477298.502      -14215.9023       -192.369          44.000  
  22331283.756      418177.7473      -1182.266          47.000  
  22506258.835      598052.3253      -4778.505          41.000  
  23383564.806       -8451.5913        287.011          45.000  
 15  3 30 21 16 56.0010000  0 11G23G 9G27G28G 3G 7G20G10G16G30G19
  20749986.993     3833846.4022      -2726.393          49.000  
  20636471.817      290042.6603       -964.163          50.000  
  23423647.040        4170.7232       -745.565          46.000  
  25170477.102     -191072.8783       1606.033          36.000  
  23719955.585      282824.8313      -5521.409          43.000  
  21545774.586      142951.1192       -769.421          49.000  
  23477338.053      -14015.1503       -199.291          45.000  
  22331510.007      419368.0523      -1191.226          47.000  
  22507168.401      602838.1863      -4785.591          43.000  
  23383512.560       -8729.5792        278.740          46.000  
  23958316.764      -23431.9893        725.253          45.000  
 15  3 30 21 16 57.0010000  0 11G23G 9G27G28G 3G 7G20G10G16G30G19
  20750506.669     3836576.8793      -2743.703          49.000  
  20636655.672      291010.8053       -981.276          49.000  
  23423790.463        4921.7243       -762.340          45.000  
  25170179.837     -192675.9683       1592.870          32.000  
  23721007.100      288350.3133      -5536.804          43.000  
  21545921.665      143724.0983       -787.032          48.000  
  23477376.461      -13810.6373       -218.620          44.000  
  22331738.012      420563.3913      -1209.400          47.000  
  22508081.519      607628.0233      -4799.492          45.000  
  23383462.207       -9004.1803        261.376          46.000  
  23958176.639      -24155.2593        709.864          44.000  
 15  3 30 21 16 58.0010000  0 11G23G 9G27G28G 3G 7G20G10G16G30G19
  20751026.171     3839307.2633      -2727.348          49.000  
  20636840.252      291979.4502       -967.229          48.000  
  23423932.866        5672.4033       -747.205          41.000  
  25169868.377     -194276.9573       1608.494          35.000  
  23722058.013      293872.5963      -5517.176          43.000  
  21546068.744      144497.9262       -773.344          48.000  
  23477415.768      -13604.2012       -205.989          45.000  
  22331965.388      421759.5942      -1194.752          47.000  
  22508993.677      612416.0353      -4788.060          41.000  
  23383407.667       -9278.2423        276.816          45.000  
  23958042.002      -24879.9793        730.213          44.000  
 15  3 30 21 16 59.0010000  0 11G23G 9G27G28G 3G 7G20G10G16G30G19
  20751546.396     3842039.6402      -2738.527          46.000  
  20637024.936      292951.3612       -978.166          49.000  
  23424075.329        6424.0372       -756.132          42.000  
  25169566.087     -195883.4643       1600.400          32.000  
  23723108.996      299393.0802      -5523.603          44.000  
  21546216.609      145274.6892       -783.342          49.000  
  23477455.851      -13393.3702       -218.479          45.000  
  22332193.907      422959.4032      -1207.310          48.000  
  22509903.269      617209.0423      -4797.367          41.000  
  23383356.468       -9551.4552        267.406          47.000  
  23957902.618      -25605.0232        720.346          45.000  
 15  3 30 21 17  0.0010000  0 11G23G 9G27G28G 3G 7G20G10G16G30G19
  20752067.399     3844776.5552      -2739.254          45.000  
  20637211.087      293929.2102       -979.864          50.000  
  23424219.398        7179.9753       -759.926          47.000  
  25169256.450     -197491.2253       1611.709          27.000  
  23724159.840      304915.0533      -5522.928          42.000  
  21546365.799      146057.2032       -783.950          50.000  
  23477497.496      -13175.4592       -220.016          46.000  
  22332422.994      424165.3742      -1207.258          47.000  
  22510817.268      622008.6453      -4800.516          46.000  
  23383305.060       -9819.7393        265.671          43.000  
  23957764.421      -26328.9293        723.686          40.000  
 15  3 30 21 17  1.0010000  0 11G23G 9G27G28G 3G 7G20G10G16G30G19
  20752588.244     3847517.0793      -2730.377          46.000  
  20637397.952      294911.9063       -971.820          49.000  
  23424364.104        7943.0193       -781.038          39.000  
  25168962.327     -199101.2773       1631.705          28.000  
  23725211.617      310441.6863      -5519.290          42.000  
  21546515.854      146847.0623       -784.299          49.000  
  23477539.429      -12954.3993       -214.133          45.000  
  22332653.442      425376.9043      -1198.015          47.000  
  22511730.970      626812.4583      -4792.250          47.000  
  23383255.702      -10081.1013        273.837          44.000  
  23957632.349      -27047.1373        727.642          40.000  
 15  3 30 21 17  2.0010000  0 11G23G 9G27G28G 3G 7G20G10G16G30G19
  20753113.199     3850271.8863      -2751.256          46.000  
  20637587.680      295907.6973       -992.459          50.000  
  23424511.925        8716.2943       -779.240          44.000  
  25168648.711     -200690.9993       1588.308          27.000  
  23726266.037      315980.7213      -5537.232          42.000  
  21546667.828      147646.7863       -799.347          49.000  
  23477584.721      -12719.1943       -234.283          44.000  
  22332887.135      426602.0733      -1223.133          48.000  
  22512646.609      631628.8913      -4813.470          47.000  
  23383208.368      -10330.3653        251.021          46.000  
  23957495.575      -27751.2533        706.145          45.000  
 15  3 30 21 17  3.0010000  0 11G23G 9G27G28G 3G 7G20G10G16G30G19
  20753637.980     3853027.4673      -2751.024          47.000  
  20637777.835      296906.2362       -994.144          50.000  
  23424660.566        9492.2063       -773.152          37.000  
  25168345.994     -202274.6303       1587.728          32.000  
  23727321.025      321523.7932      -5539.281          43.000  
  21546821.206      148451.0152       -799.551          49.000  
  23477630.423      -12478.2112       -237.126          44.000  
  22333121.186      427831.3443      -1225.989          48.000  
  22513564.604      636446.3392      -4811.802          47.000  
  23383161.462      -10575.4942        248.550          46.000  
  23957361.339      -28455.5733        708.232          41.000  
 15  3 30 21 17  4.0010000  0 11G23G 9G27G28G 3G 7G20G10G16G30G19
  20754158.057     3855760.4042      -2730.838          50.000  
  20637963.671      297880.5502       -969.613          50.000  
  23424802.131       10241.7503       -747.681          43.000  
  25168047.447     -203878.4553       1610.547          31.000  
  23728371.624      327046.1762      -5521.271          45.000  
  21546969.001      149231.9142       -775.791          48.000  
  23477672.068      -12260.7852       -211.807          45.000  
  22333350.560      429038.3532      -1201.541          47.000  
  22514476.238      641237.5262      -4785.480          43.000  
  23383110.350      -10842.6332        272.243          45.000  
  23957221.894      -29188.2143        734.740          42.000  
 15  3 30 21 17  5.0010000  0 11G23G 9G27G28G 3G 7G20G10G16G30G19
  20754683.579     3858518.4153      -2778.094          48.000  
  20638153.442      298877.7623      -1014.796          50.000  
  23424950.624       11017.2803       -797.688          44.000  
  25167747.425     -205462.9753       1583.952          30.000  
  23729428.488      332596.4703      -5567.892          44.000  
  21547122.790      150033.4553       -817.349          49.000  
  23477716.863      -12023.9493       -255.030          42.000  
  22333584.690      430265.8223      -1243.010          47.000  
  22515393.282      646050.8043      -4833.163          48.000  
  23383064.526      -11085.2913        223.954          47.000  
  23957089.028      -29897.2273        684.296          39.000  
 15  3 30 21 17  6.0010000  0 10G23G 9G27G 3G 7G20G10G16G30G19
  20755211.300     3861292.5233      -2782.082          47.000  
  20638345.935      299888.9723      -1019.818          50.000  
  23425101.725       11809.0043       -802.175          47.000  
  23730487.359      338161.8073      -5572.780          41.000  
  21547277.721      150848.0463       -823.056          49.000  
  23477764.877      -11774.1983       -258.476          45.000  
  22333820.721      431506.5743      -1249.362          47.000  
  22516312.978      650880.1623      -4838.357          47.000  
  23383020.272      -11319.1722        224.185          45.000  
  23956957.837      -30577.8673        683.989          42.000  
 15  3 30 21 17  7.0010000  0 11G23G 9G27G28G 3G 7G20G10G16G30G19
  20755740.225     3864072.7353      -2779.467          48.000  
  20638539.833      300906.9152      -1017.738          49.000  
  23425255.208       12608.5393       -798.335          47.000  
  25167163.000     -208586.2633       1537.450          28.000  
  23731547.198      343730.6943      -5567.784          42.000  
  21547433.805      151668.5293       -819.764          49.000  
  23477813.162      -11518.3903       -258.487          40.000  
  22334058.507      432753.0503      -1246.835          46.000  
  22517232.997      655716.7153      -4835.611          47.000  
  23382976.690      -11547.5733        229.098          46.000  
  23956829.273      -31255.4843        677.984          45.000  
 15  3 30 21 17  8.0010000  0 11G23G 9G27G28G 3G 7G20G10G16G30G19
  20756270.537     3866858.5992      -2790.163          47.000  
  20638734.368      301931.4612      -1029.530          48.000  
  23425408.369       13416.5363       -806.995          34.000  
  25166862.341     -210145.8033       1563.082          20.000  
  23732607.499      349301.7832      -5571.907          42.000  
  21547591.084      152495.9692       -832.853          48.000  
  23477863.706      -11254.1242       -268.402          45.000  
  22334296.868      434007.5062      -1259.691          46.000  
  22518154.831      660562.7243      -4850.898          39.000  
  23382934.277      -11769.7743        219.989          43.000  
  23956704.748      -31929.1922        671.907          44.000  
 15  3 30 21 17  9.0010000  0  9G 9G28G 3G 7G20G10G16G30G19
  20638931.774      302966.8212      -1039.344          49.000  
  25166570.862     -211707.2423       1560.516          22.000  
  23733668.359      354875.1383      -5571.844          42.000  
  21547751.181      153333.8732       -842.659          49.000  
  23477916.868      -10976.9613       -281.484          46.000  
  22334537.751      435273.0282      -1270.077          46.000  
  22519079.318      665420.5473      -4862.798          48.000  
  23382893.557      -11983.8992        210.240          42.000  
  23956577.990      -32597.6872        668.877          42.000  
 15  3 30 21 17 10.0010000  0 10G23G 9G28G 3G 7G20G10G16G30G19
  20757323.439        1043.0383      -2797.197          41.000  
  20639129.302      304007.5312      -1042.035          48.000  
  25166276.843     -213269.5163       1561.827          26.000  
  23734728.390      360442.3043      -5563.674          42.000  
  21547911.810      154176.8402       -845.058          50.000  
  23477970.737      -10691.8272       -287.876          43.000  
  22334779.908      436544.2582      -1272.344          47.000  
  22520005.052      670286.5872      -4868.890          48.000  
  23382854.120      -12195.4842        211.130          47.000  
  23956449.678      -33268.1643        671.828          44.000  
 15  3 30 21 17 11.0010000  0 10G23G 9G28G 3G 7G20G10G16G30G19
  20757865.810        3838.1753      -2793.049          49.000  
  20639327.763      305048.5252      -1039.481          50.000  
  25165973.872     -214835.5703       1569.348          32.000  
  23735785.873      366002.5712      -5558.709          42.000  
  21548071.706      155019.8242       -841.129          48.000  
  23478025.304      -10404.8692       -286.066          45.000  
  22335022.134      437816.1262      -1270.356          46.000  
  22520931.274      675154.6192      -4866.674          45.000  
  23382812.798      -12408.5542        214.878          46.000  
  23956318.139      -33943.1473        678.785          29.000  
 15  3 30 21 17 12.0010000  0 10G23G 9G28G 3G 7G20G10G16G30G19
  20758396.541        6632.0582      -2795.135          47.000  
  20639525.587      306088.4152      -1040.099          50.000  
  25165668.964     -216401.3123       1565.810          33.000  
  23736843.949      371562.3162      -5562.342          43.000  
  21548232.458      155861.5812       -842.222          49.000  
  23478080.542      -10119.1592       -285.760          45.000  
  22335264.491      439087.1072      -1272.192          48.000  
  22521857.410      680021.1842      -4866.811          50.000  
  23382771.109      -12622.7822        213.419          47.000  
  23956185.936      -34618.6862        672.935          44.000  
 15  3 30 21 17 13.0010000  0 10G23G 9G28G 3G 7G20G10G16G30G19
  20758929.959        9429.4962      -2797.471          49.000  
  20639723.508      307130.423       -1043.889          50.000  
  25165368.507     -217964.4443       1561.391          31.000  
  23737902.916      377126.9282      -5563.774          42.000  
  21548393.445      156705.6572       -845.079          49.000  
  23478135.825       -9831.1612       -289.401          44.000  
  22335507.015      440360.8192      -1274.784          47.000  
  22522783.825      684889.7302      -4869.592          44.000  
  23382732.413      -12834.0672        210.535          45.000  
  23956063.435      -35290.2742        672.739          43.000  
 15  3 30 21 17 14.0010000  0 10G23G 9G28G 3G 7G20G10G16G30G19
  20759462.618       12229.9102      -2795.861          49.000  
  20639924.691      308177.463       -1042.839          51.000  
  25165070.745     -219525.9253       1563.653          25.000  
  23738961.786      382690.2852      -5557.005          42.000  
  21548553.856      157554.0882       -844.272          49.000  
  23478190.095       -9537.3132       -290.182          45.000  
  22335750.541      441639.5182      -1274.681          47.000  
  22523711.295      689764.2312      -4871.102          45.000  
  23382692.443      -13042.2492        212.964          46.000  
  23955937.314      -35961.1792        676.262          42.000  
 15  3 30 21 17 15.0010000  0 10G23G 9G28G 3G 7G20G10G16G30G19
  20759996.603       15030.0252      -2803.011          50.000  
  20640124.619      309224.653       -1049.992          51.000  
  25164779.361     -221090.7323       1558.821          25.000  
  23740019.016      388251.7192      -5563.749          42.000  
  21548714.878      158402.4442       -851.481          49.000  
  23478245.779       -9242.8052       -297.445          45.000  
  22335992.104      442918.5502      -1282.256          46.000  
  22524638.905      694639.2982      -4878.388          46.000  
  23382652.509      -13250.9642        205.942          46.000  
  23955808.959      -36633.1422        669.072          41.000  
 15  3 30 21 17 16.0010000  0 10G23G 9G28G 3G 7G20G10G16G30G19
  20760528.975       17831.3652      -2802.331          49.000  
  20640324.162      310273.028       -1049.390          51.000  
  25164484.959     -222653.8043       1561.519          32.000  
  23741077.817      393813.9522      -5562.777          42.000  
  21548876.615      159251.7032       -849.844          49.000  
  23478301.157       -8947.0152       -296.681          44.000  
  22336236.774      444198.9502      -1281.235          47.000  
  22525567.003      699515.4272      -4876.899          45.000  
  23382613.019      -13458.7482        207.118          46.000  
  23955679.304      -37304.1682        670.246          41.000  
 15  3 30 21 17 17.0010000  0 10G23G 9G28G 3G 7G20G10G16G30G19
  20761063.030       20635.1462      -2804.577          50.000  
  20640523.627      311323.760       -1051.395          51.000  
  25164196.437     -224215.3062       1561.475          32.000  
  23742136.295      399378.2452      -5564.851          42.000  
  21549038.466      160103.1692       -852.147          49.000  
  23478358.498       -8648.6802       -299.089          44.000  
  22336481.225      445481.9972      -1283.938          47.000  
  22526494.988      704393.9972      -4879.440          45.000  
  23382573.817      -13664.4082        204.823          46.000  
  23955552.310      -37972.9672        668.093          42.000  
 15  3 30 21 17 18.0010000  0 10G23G 9G28G 3G 7G20G10G16G30G19
  20761596.090       23440.5432      -2807.352          49.000  
  20640723.144      312376.044       -1054.152          50.000  
  25163894.164     -225775.4512       1558.742          33.000  
  23743194.895      404943.7492      -5567.056          41.000  
  21549201.250      160955.9632       -854.740          49.000  
  23478415.787       -8348.6692       -299.642          41.000  
  22336725.528      446766.8382      -1286.971          47.000  
  22527422.808      709274.0722      -4882.113          45.000  
  23382535.610      -13868.7552        201.863          47.000  
  23955426.738      -38640.4792        666.066          41.000  
 15  3 30 21 17 19.0010000  0 10G23G 9G28G 3G 7G20G10G16G30G19
  20762130.425       26250.8732      -2812.125          49.000  
  20640924.685      313433.223       -1058.881          50.000  
  25163595.242     -227331.2302       1554.301          32.000  
  23744254.577      410513.328       -5572.130          41.000  
  21549364.453      161812.861        -859.175          49.000  
  23478474.629       -8044.132        -307.031          45.000  
  22336970.739      448056.763       -1291.687          46.000  
  22528352.425      714158.952       -4886.654          43.000  
  23382497.629      -14068.4822        197.798          45.000  
  23955300.669      -39303.2582        661.725          41.000  
 15  3 30 21 17 20.0010000  0 10G23G 9G28G 3G 7G20G10G16G30G19
  20762665.832       29063.9542      -2818.291          49.000  
  20641127.858      314493.068       -1065.005          51.000  
  25163292.786     -228884.5012       1547.861          32.000  
  23745315.027      416085.730       -5577.624          41.000  
  21549529.402      162672.774        -865.414          50.000  
  23478533.175       -7736.296        -312.991          45.000  
  22337216.848      449349.605       -1298.581          47.000  
  22529282.600      719046.545       -4893.110          44.000  
  23382460.164      -14265.7422        191.718          47.000  
  23955174.896      -39963.5342        655.098          41.000  
 15  3 30 21 17 21.0010000  0 10G23G 9G28G 3G 7G20G10G16G30G19
  20763201.877       31879.9682      -2815.729          50.000  
  20641330.280      315555.727       -1062.031          51.000  
  25163003.854     -230435.1422       1551.047          33.000  
  23746375.703      421660.753       -5575.006          41.000  
  21549693.076      163535.242        -861.829          50.000  
  23478591.895       -7425.540        -310.079          45.000  
  22337463.812      450645.461       -1295.145          47.000  
  22530213.159      723936.836       -4889.300          45.000  
  23382422.105      -14460.3962        194.890          46.000  
  23955049.150      -40621.1282        657.842          42.000  
 15  3 30 21 17 22.0010000  0 10G23G 9G28G 3G 7G20G10G16G30G19
  20763739.317       34700.1632      -2821.322          49.000  
  20641531.237      316621.820       -1067.040          50.000  
  25162708.169     -231980.7652       1545.977          31.000  
  23747438.029      427241.186       -5581.347          40.000  
  21549857.335      164400.970        -866.147          49.000  
  23478653.285       -7111.685        -314.218          45.000  
  22337711.064      451944.998       -1300.318          47.000  
  22531145.201      728830.048       -4893.938          47.000  
  23382386.759      -14651.3802        190.465          46.000  
  23954926.545      -41273.7812        650.924          44.000  
 15  3 30 21 17 23.0010000  0 10G23G 9G28G 3G 7G20G10G16G30G19
  20764276.095       37522.1032      -2831.736          48.000  
  20641733.302      317687.734       -1074.462          49.000  
  25162411.576     -233521.7173       1528.018          31.000  
  23748501.663      432827.489       -5599.634          42.000  
  21550021.855      165266.294        -874.222          49.000  
  23478712.075       -6799.229        -319.253          46.000  
  22337958.098      453244.493       -1308.629          47.000  
  22532076.057      733721.420       -4898.298          44.000  
  23382349.538      -14841.3952        179.368          45.000  
  23954801.444      -41922.8322        637.316          42.000  
 15  3 30 21 17 24.0010000  0 10G23G 9G28G 3G 7G20G10G16G30G19
  20764816.476       40361.2612      -2849.460          48.000  
  20641939.188      318768.348       -1090.252          50.000  
  25162122.880     -235040.5643       1503.112          27.000  
  23749570.158      438437.801       -5623.841          41.000  
  21550189.779      166146.477        -890.734          49.000  
  23478774.337       -6473.458        -335.463          44.000  
  22338208.090      454559.333       -1325.125          47.000  
  22533009.216      738624.338       -4910.455          47.000  
  23382316.880      -15014.0002        160.128          47.000  
  23954681.640      -42553.6833        635.123          31.000  
 15  3 30 21 17 25.0010000  0 11G23G 9G27G28G 3G 7G20G10G16G30G19
  20765360.678       43222.3852      -2861.255          49.000  
  20642148.695      319871.827       -1105.987          50.000  
  23428095.450        2443.1223       -875.795          41.000  
  25161842.873     -236531.3593       1489.100          25.000  
  23750643.075      444076.1293      -5641.714          40.000  
  21550361.280      167051.8093       -909.967          49.000  
  23478840.753       -6121.821        -358.639          45.000  
  22338463.404      455900.2953      -1347.750          48.000  
  22533946.074      743544.737       -4917.985          48.000  
  23382290.225      -15157.497         134.832          46.000  
  23954568.458         262.3613        616.617          37.000  
 15  3 30 21 17 26.0010000  0 11G23G 9G27G28G 3G 7G20G10G16G30G19
  20765906.931       46091.5472      -2869.867          49.000  
  20642360.768      320990.161       -1124.507          50.000  
  23428265.990        3322.6193       -877.891          36.000  
  25161561.428     -238004.0133       1470.141          26.000  
  23751719.222      449728.8093      -5650.797          43.000  
  21550537.893      167979.6452       -939.166          49.000  
  23478911.731       -5745.169        -390.692          44.000  
  22338723.796      457267.1892      -1380.063          48.000  
  22534884.067      748471.065       -4928.623          48.000  
  23382268.229      -15274.366         102.892          45.000  
  23954452.963        -343.8103        605.197          30.000  
 15  3 30 21 17 27.0010000  0 11G23G 9G27G28G 3G 7G20G10G16G30G19
  20766449.572       48944.0753      -2859.233          47.000  
  20642572.073      322103.1703      -1121.350          50.000  
  23428427.920        4179.8953       -875.414          46.000  
  25161279.415     -239474.7203       1460.064          32.000  
  23752791.285      455363.5813      -5658.090          32.000  
  21550714.690      168908.8773       -941.298          46.000  
  23478985.075       -5361.5253       -399.075          45.000  
  22338984.773      458638.8713      -1403.903          48.000  
  22535819.015      753384.3173      -4939.876          43.000  
  23382247.629      -15384.0533         97.879          46.000  
  23954334.520         300.4163        627.513          34.000  
 15  3 30 21 17 28.0010000  0 11G23G 9G27G28G 3G 7G20G10G16G30G19
  20766992.204       51792.7323      -2844.358          49.000  
  20642784.834      323217.3093      -1115.320          50.000  
  23428590.006        5030.0773       -841.876          46.000  
  25160998.806     -240951.2083       1471.080          37.000  
  23753863.461      460988.7283      -5619.542          32.000  
  21550893.459      169846.5433       -936.615          48.000  
  23479060.887       -4965.3563       -397.152          44.000  
  22339248.612      460022.4133      -1385.246          47.000  
  22536753.640      758297.2723      -4912.041          46.000  
  23382229.062      -15486.9673         97.848          47.000  
  23954199.010        -346.5873        650.055          37.000  
 15  3 30 21 17 29.0010000  0 11G23G 9G27G28G 3G 7G20G10G16G30G19
  20767533.187       54635.8003      -2846.128          49.000  
  20642997.238      324331.9043      -1119.704          50.000  
  23428749.693        5867.9613       -838.350          46.000  
  25160723.163     -242434.0603       1475.481          23.000  
  23754929.294      466608.3793      -5627.704          44.000  
  21551073.231      170787.2703       -948.197          49.000  
  23479138.069       -4562.1953       -408.219          43.000  
  22339512.703      461410.0273      -1395.220          47.000  
  22537687.357      763203.9993      -4909.660          44.000  
  23382211.419      -15583.4603         89.244          45.000  
  23954083.420       -1004.5423        647.961          33.000  
 15  3 30 21 17 30.0010000  0 11G23G 9G27G28G 3G 7G20G10G16G30G19
  20768074.806       57480.1613      -2846.828          49.000  
  20643210.916      325451.8743      -1124.574          50.000  
  23428909.057        6704.8573       -839.213          45.000  
  25160445.591     -243901.8233       1499.291          24.000  
  23756002.107      472233.6623      -5630.334          37.000  
  21551253.274      171735.2663       -950.770          48.000  
  23479216.491       -4152.4943       -413.908          40.000  
  22339778.662      462806.5273      -1402.134          47.000  
  22538621.738      768111.3423      -4911.169          47.000  
  23382193.978      -15671.2223         73.067          47.000  
  23953958.101       -1656.5363        645.284          43.000  
 15  3 30 21 17 31.0010000  0 11G23G 9G27G28G 3G 7G20G10G16G30G19
  20768617.936       60335.3793      -2855.234          49.000  
  20643426.060      326584.0773      -1133.250          49.000  
  23429069.538        7548.9683       -843.722          46.000  
  25160175.025     -245360.5643       1460.142          25.000  
  23757074.711      477870.3263      -5639.749          43.000  
  21551437.007      172698.4643       -963.804          48.000  
  23479298.838       -3725.3363       -430.300          34.000  
  22340047.936      464219.4873      -1414.732          46.000  
  22539557.899      773029.7083      -4918.376          47.000  
  23382180.419      -15742.2513         69.111          46.000  
  23953838.611       -2303.2203        649.287          38.000  
 15  3 30 21 17 32.0010000  0 11G23G 9G27G28G 3G 7G20G10G16G30G19
  20769161.824       63191.7952      -2862.204          50.000  
  20643641.727      327719.5122      -1141.935          50.000  
  23429229.888        8392.8942       -848.656          47.000  
  25159894.940     -246809.8363       1478.637          26.000  
  23758147.481      483509.9413      -5642.447          45.000  
  21551621.011      173666.1953       -975.905          49.000  
  23479380.697       -3299.4093       -440.543          42.000  
  22340317.996      465638.0653      -1427.770          49.000  
  22540494.906      777948.9413      -4924.363          47.000  
  23382167.925      -15807.5162         57.523          47.000  
  23953713.345       -2949.7743        641.717          39.000  
 15  3 30 21 17 33.0010000  0 10G23G 9G27G28G 7G20G10G16G30G19
  20769706.786       66056.2823      -2862.842          49.000  
  20643859.637      328863.8033      -1140.901          50.000  
  23429391.678        9243.4493       -847.176          46.000  
  25159623.799     -248252.5423       1420.430          26.000  
  21551807.536      174643.9993       -973.469          48.000  
  23479465.584       -2855.0083       -437.218          40.000  
  22340589.984      467067.7803      -1427.186          47.000  
  22541430.944      782875.7673      -4924.233          46.000  
  23382157.996      -15862.2803         59.318          47.000  
  23953595.844       -3583.3903        615.542          30.000  
 15  3 30 21 17 34.0010000  0 11G23G 9G27G28G 3G 7G20G10G16G30G19
  20770252.515       68922.7153      -2866.027          50.000  
  20644077.992      330010.7103      -1147.583          50.000  
  23429553.433       10095.3943       -851.069          45.000  
  25159356.453     -249667.4273       1457.535          26.000  
  23760294.747      494806.0323      -5648.308          43.000  
  21551994.131      175624.6613       -982.331          48.000  
  23479550.444       -2405.1103       -454.227          37.000  
  22340862.713      468501.2163      -1435.422          47.000  
  22542368.501      787804.0903      -4927.735          48.000  
  23382148.433      -15913.5033         49.580          47.000  
  23953470.158       -4219.1823        645.571          31.000  
 15  3 30 21 17 35.0010000  0 10G23G 9G27G 3G 7G20G10G16G30G19
  20770798.489       71795.8633      -2883.509          50.000  
  20644297.672      331164.8743      -1160.114          47.000  
  23429716.967       10953.1723       -869.740          47.000  
  23761373.581      500460.4383      -5663.714          32.000  
  21552182.035      176613.1503       -999.938          42.000  
  23479637.591       -1948.6123       -469.228          41.000  
  22341137.362      469943.3333      -1455.158          43.000  
  22543308.491      792739.4173      -4944.572          47.000  
  23382139.812      -15957.4073         32.514          47.000  
  23953350.685       -4856.4563        626.248          42.000  
 15  3 30 21 17 36.0010000  0 10G23G 9G27G 3G 7G20G10G16G30G19
  20771346.120       74674.7433      -2872.126          49.000  
  20644517.999      332325.5933      -1159.835          46.000  
  23429881.488       11815.7333       -857.577          46.000  
  23762449.771      506124.8853      -5657.955          44.000  
  21552370.314      177601.5183       -986.730          45.000  
  23479726.054       -1487.3753       -457.003          41.000  
  22341411.156      471377.6553      -1451.673          40.000  
  22544249.486      797680.7953      -4940.874          37.000  
  23382132.152      -15996.2163         45.176          45.000  
  23953235.017       -5456.3363        626.063          38.000  
 15  3 30 21 17 37.0010000  0 11G23G 9G27G28G 3G 7G20G10G16G30G19
  20771894.869       77556.8083      -2884.497          50.000  
  20644739.346      333488.0033      -1164.899          50.000  
  23430046.646       12683.0493       -870.737          46.000  
  25158532.445       -2317.9063       1414.861          25.000  
  23763526.432      511789.8833      -5665.561          37.000  
  21552561.342      178602.3723      -1000.807          46.000  
  23479814.038       -1027.8813       -438.141          35.000  
  22341687.637      472825.6723      -1439.409          33.000  
  22545189.686      802624.2593      -4945.516          46.000  
  23382125.660      -16031.1142         32.290          47.000  
  23953119.749       -6059.7603        612.332          25.000  
 15  3 30 21 17 38.0010000  0 11G23G 9G27G28G 3G 7G20G10G16G30G19
  20772443.879       80442.3942      -2893.967          49.000  
  20644960.920      334654.3632      -1174.608          50.000  
  23430211.952       13553.7352       -879.302          46.000  
  25158253.512       -3743.0173       1410.681          32.000  
  23764609.322      517469.4923      -5679.239          28.000  
  21552751.584      179602.6553      -1008.005          48.000  
  23479902.302        -569.0403       -469.679          39.000  
  22341964.433      474278.9923      -1455.206          43.000  
  22546128.516      807578.4153      -4970.672          34.000  
  23382120.111      -16062.2923         23.467          47.000  
  23952993.567       -6679.0763        615.774          38.000  
 15  3 30 21 17 39.0010000  0 10G23G 9G27G28G 3G 7G20G10G16G30
  20772992.496       83327.1342      -2871.493          50.000  
  20645182.861      335819.5712      -1151.483          50.000  
  23430377.502       14423.7612       -857.471          45.000  
  25157990.136       -5154.3723       1402.030          28.000  
  23765689.151      523133.7153      -5670.977          26.000  
  21552938.712      180601.4202       -982.412          47.000  
  23479992.022        -101.8703       -455.646          36.000  
  22342242.101      475733.4383      -1439.066          45.000  
  22547071.849      812525.3613      -4932.316          45.000  
  23382114.030      -16095.1122         47.610          47.000  
 15  3 30 21 17 40.0010000  0 11G23G 9G27G28G 3G 7G20G10G16G30G19
  20773543.408       86218.6403      -2902.082          49.000  
  20645405.499      336989.1863      -1180.146          50.000  
  23430544.256       15300.0693       -888.259          45.000  
  25157728.147       -6557.9763       1392.867          25.000  
  23766764.677      528808.4683      -5685.304          43.000  
  21553131.318      181603.8863      -1012.401          48.000  
  23480081.917         366.8573       -488.339          39.000  
  22342519.629      477192.0793      -1468.276          47.000  
  22548013.210      817474.8473      -4958.176          40.000  
  23382108.332      -16124.1033         18.420          46.000  
  23952775.657       -7885.9403        573.954          24.000  
 15  3 30 21 17 41.0010000  0 10G23G 9G27G28G 3G 7G20G10G16G30
  20774097.287       89129.8882      -2908.793          49.000  
  20645632.396      338178.7722      -1187.296          50.000  
  23430715.041       16197.2022       -893.868          46.000  
  25157463.802       -7942.2553       1365.929          21.000  
  23767848.283      534503.4073      -5692.466          43.000  
  21553325.688      182625.7822      -1019.720          48.000  
  23480174.813         845.0873       -494.205          40.000  
  22342800.691      478669.6032      -1476.470          46.000  
  22548959.334      822445.0482      -4970.640          37.000  
  23382106.858      -16133.5372         10.739          47.000  
 15  3 30 21 17 42.0010000  0 10G23G 9G27G28G 3G 7G20G10G16G30
  20774651.924       92044.5143      -2929.949          50.000  
  20645860.008      339372.3663      -1207.388          47.000  
  23430886.699       17097.4203       -915.046          47.000  
  25157210.896       -9316.5023       1372.209          18.000  
  23768948.240      540240.1343      -5761.364          25.000  
  21553522.273      183653.1563      -1039.302          41.000  
  23480274.270         545.5933       -515.963          42.000  
  22343083.219      480152.9623      -1498.466          45.000  
  22549905.389      827430.8883      -4980.625          46.000  
  23382106.378      -16136.8263        -12.522          47.000  
 15  3 30 21 17 43.0010000  0  9G23G 9G27G28G 7G20G10G16G30
  20775207.984       94964.6493      -2912.082          50.000  
  20646088.126      340574.3343      -1191.991          50.000  
  23431059.334       18003.1843       -897.677          47.000  
  25156955.835      -10701.3603       1376.970          17.000  
  21553718.789      184686.4283      -1024.011          49.000  
  23480374.025         999.2203       -498.117          40.000  
  22343366.540      481643.5643      -1481.184          48.000  
  22550855.082      832412.5053      -4973.146          48.000  
  23382106.666      -16134.8153          7.076          47.000  
 15  3 30 21 17 44.0010000  0 10G23G 9G27G28G 7G20G10G16G30G19
  20775762.386       97881.0593      -2910.922          49.000  
  20646315.354      341771.2513      -1190.877          50.000  
  23431231.219       18905.8943       -897.391          48.000  
  25156700.137      -12073.1533       1371.223          15.000  
  21553913.908      185715.1093      -1023.262          49.000  
  23480468.430        1491.4593       -501.838          38.000  
  22343650.150      483130.5483      -1480.920          47.000  
  22551806.590      837390.7793      -4975.310          45.000  
  23382105.872      -16137.5763          9.386          48.000  
  23952322.257        -582.2843        601.844          30.000  
 15  3 30 21 17 45.0010000  0 10G23G 9G27G28G 7G20G10G16G30G19
  20776317.879      100798.0862      -2921.710          50.000  
  20646543.428      342967.7032      -1200.676          50.000  
  23431402.449       19809.5532       -908.059          47.000  
  25156442.336      -13444.5653       1372.534          13.000  
  21554109.360      186742.8132      -1032.770          49.000  
  23480560.375        1988.9383       -503.022          46.000  
  22343932.494      484615.6982      -1489.015          44.000  
  22552748.963      842369.8573      -4990.158          47.000  
  23382105.200      -16142.6532          1.218          46.000  
  23952196.764       -1174.4903        585.196          44.000  
 15  3 30 21 17 46.0010000  0 10G23G 9G27G28G 7G20G10G16G30G19
  20776873.922      103718.7052      -2930.860          50.000  
  20646771.843      344167.0312      -1208.936          50.000  
  23431576.349       20717.6852       -917.641          48.000  
  25156184.256      -14813.9933       1356.909          10.000  
  21554305.744      187772.3532      -1038.619          45.000  
  23480655.217        2488.7143       -509.358          46.000  
  22344214.560      486102.8243      -1496.226          46.000  
  22553698.395      847360.5933      -4982.657          47.000  
  23382104.554      -16146.4123         -5.262          47.000  
  23952085.117       -1761.4252        576.881          43.000  
 15  3 30 21 17 47.0010000  0 10G23G 9G27G28G 7G20G10G16G30G19
  20777431.814      106652.6563      -2935.721          49.000  
  20647002.282      345380.5372      -1214.406          50.000  
  23431750.825       21640.4063       -925.087          47.000  
  25155925.871      -16169.9463       1355.002          10.000  
  21554504.057      188814.2383      -1043.407          49.000  
  23480751.656        3003.5852       -518.057          43.000  
  22344500.630      487602.6633      -1501.380          47.000  
  22554647.154      852357.6153      -5000.016          45.000  
  23382105.942      -16138.5273         -9.037          47.000  
  23951977.528       -2335.2553        572.210          46.000  
 15  3 30 21 17 48.0010000  0 11G23G 9G27G28G 3G 7G20G10G16G30G19
  20777991.050      109591.8833      -2940.890          50.000  
  20647234.692      346599.7723      -1222.258          50.000  
  23431927.500       22567.7863       -930.997          42.000  
  25155612.413      -17546.0463       1374.336          35.000  
  23775509.575       22703.7563      -5759.595          18.000  
  21554703.592      189862.3613      -1051.931          48.000  
  23480850.267        3525.6543       -525.831          44.000  
  22344787.320      489109.7543      -1510.700          47.000  
  22555598.854      857361.1963      -5006.942          46.000  
  23382108.463      -16124.9263        -16.367          46.000  
  23951867.443       -2905.8573        570.471          47.000  
 15  3 30 21 17 49.0010000  0  9G23G 9G28G 3G 7G10G16G30G19
  20778550.678      112531.1082      -2941.276          50.000  
  20647467.059      347821.9082      -1225.197          51.000  
  25155354.673      -18915.2493       1375.728          26.000  
  23776566.150       28398.6073      -5713.339          21.000  
  21554904.173      190915.0182      -1056.751          49.000  
  22345075.013      490621.8982      -1516.079          47.000  
  22556550.938      862368.0502      -5011.031          48.000  
  23382112.215      -16107.7202        -19.544          47.000  
  23951758.737       -3479.8142        573.077          46.000  
 15  3 30 21 17 50.0010000  0  9G23G 9G27G 7G20G10G16G30G19
  20779110.403      115471.8063      -2942.045          37.000  
  20647700.517      349048.6103      -1230.267          41.000  
  23432286.111       24453.1613       -934.095          43.000  
  21555105.191      191969.9753      -1059.058          49.000  
  23481050.866        4582.2893       -534.053          45.000  
  22345363.107      492136.9553      -1517.329          47.000  
  22557505.334      867382.3783      -5020.608          45.000  
  23382115.626      -16088.4033        -20.215          46.000  
  23951650.266       -4052.1063        563.833          46.000  
 15  3 30 21 17 51.0010000  0 10G23G 9G27G 3G 7G20G10G16G30G19
  20779670.659      118416.1863      -2949.332          50.000  
  20647934.498      350277.6513      -1230.083          51.000  
  23432460.831       25389.8253       -942.535          47.000  
  23778714.726        5031.5983      -5688.857          30.000  
  21555306.410      193027.8703      -1050.867          36.000  
  23481150.620        5109.2453       -535.195          34.000  
  22345652.405      493645.8653      -1482.236          32.000  
  22558461.571      872399.6663      -5015.248          47.000  
  23382117.668      -16075.4692        -14.384          48.000  
  23951542.267       -4620.4723        563.895          46.000  
 15  3 30 21 17 52.0010000  0 10G23G 9G27G 3G 7G20G10G16G30G19
  20780232.068      121365.3003      -2945.198          49.000  
  20648168.157      351507.1303      -1224.745          50.000  
  23432639.486       26333.1003       -939.273          45.000  
  23779803.995       10746.4193      -5745.104          30.000  
  21555507.724      194081.9613      -1045.548          49.000  
  23481253.106        5635.4493       -518.971          41.000  
  22345939.845      495150.3033      -1505.245          47.000  
  22559415.452      877424.9553      -5022.427          47.000  
  23382119.989      -16064.3183         -3.244          46.000  
  23951434.590       -5185.3243        571.599          46.000  
 15  3 30 21 17 53.0010000  0 10G23G 9G27G 3G 7G20G10G16G30G19
  20780790.012      124294.7723      -2918.380          49.000  
  20648398.360      352716.7833      -1198.510          50.000  
  23432815.576       27258.9193       -915.394          46.000  
  23780898.978       16474.6403      -5692.288          22.000  
  21555700.627      195114.1133      -1019.541          49.000  
  23481352.484        6146.1393       -497.655          45.000  
  22346223.176      496640.9283      -1479.331          47.000  
  22560372.283      882435.0703      -4995.227          43.000  
  23382117.476      -16077.1243         26.805          45.000  
  23951323.380       -5770.2883        596.218          45.000  
 15  3 30 21 17 54.0010000  0 10G23G 9G27G 3G 7G20G10G16G30G19
  20781342.669      127201.7093      -2896.281          49.000  
  20648623.503      353901.8732      -1172.268          50.000  
  23432987.784       28164.7812       -898.444          46.000  
  23781947.004       22134.2983      -5639.959          41.000  
  21555894.159      196118.8873       -989.042          49.000  
  23481442.816        6628.4123       -465.588          47.000  
  22346501.655      498103.6983      -1446.385          47.000  
  22561319.568      887423.1213      -4976.256          38.000  
  23382109.065      -16119.5692         58.676          46.000  
  23951207.607       -6377.0932        615.192          45.000  
 15  3 30 21 17 55.0010000  0 10G23G 9G27G 3G 7G20G10G16G30G19
  20781892.404      130090.0302      -2878.812          49.000  
  20648844.388      355062.4112      -1146.202          50.000  
  23433157.688       29057.3642       -885.621          46.000  
  23783016.781       27767.6583      -5621.121          40.000  
  21556076.819      197093.0362       -956.429          49.000  
  23481528.740        7077.3752       -429.346          46.000  
  22346775.205      499534.6832      -1412.246          47.000  
  22562264.436      892391.6833      -4954.609          43.000  
  23382094.058      -16194.8102         94.103          46.000  
  23951090.184       -6996.5692        625.218          46.000  
 15  3 30 21 17 56.0010000  0 10G23G 9G27G 3G 7G20G10G16G30G19
  20782436.781      132949.5782      -2847.937          49.000  
  20649058.083      356185.2383      -1106.126          50.000  
  23433323.500       29927.5892       -861.666          44.000  
  23784084.420       33373.5223      -5590.934          42.000  
  21556257.682      198022.3832       -908.477          48.000  
  23481605.242        7477.3792       -376.830          47.000  
  22347037.141      500918.7502      -1361.950          47.000  
  22563203.668      897329.4213      -4923.583          48.000  
  23382071.617      -16317.7092        144.896          47.000  
  23950968.399       -7636.7982        647.452          46.000  
 15  3 30 21 17 57.0010000  0 10G23G 9G27G 3G 7G20G10G16G30G19
  20782975.390      135781.3312      -2815.489          49.000  
  20649264.650      357270.8322      -1065.334          50.000  
  23433484.225       30776.3942       -836.137          46.000  
  23785142.863       38949.4752      -5560.243          42.000  
  21556424.183      198907.1282       -861.687          48.000  
  23481669.686        7828.3842       -326.019          45.000  
  22347291.208      502256.0422      -1313.201          47.000  
  22564136.426      902235.3452      -4889.156          46.000  
  23382038.758      -16488.0982        194.519          48.000  
  23950842.950       -8296.3732        672.002          47.000  
 15  3 30 21 17 58.0010000  0 10G23G 9G27G 3G 7G20G10G16G30G19
  20783504.917      138563.2582      -2760.140          49.000  
  20649460.982      358301.6412      -1008.479          50.000  
  23433636.653       31578.6892       -780.555          47.000  
  23786197.789       44475.5612      -5503.453          43.000  
  21556581.959      199733.0832       -802.821          49.000  
  23481726.059        8118.5072       -267.816          44.000  
  22347534.603      503533.6062      -1254.819          47.000  
  22565060.214      907089.7182      -4832.208          46.000  
  23381994.714      -16718.7372        253.661          47.000  
  23950708.531       -9001.6282        728.071          45.000  
 15  3 30 21 17 59.0010000  0 10G23G 9G27G 3G 7G20G10G16G30G19
  20784027.098      141305.5192      -2736.448          49.000  
  20649649.872      359294.9632       -989.901          50.000  
  23433781.708       32339.8052       -754.210          46.000  
  23787240.789       49961.5992      -5480.585          44.000  
  21556732.014      200523.1242       -788.667          49.000  
  23481774.474        8374.1562       -255.283          45.000  
  22347771.176      504776.3412      -1241.754          47.000  
  22565976.891      911905.0522      -4810.318          45.000  
  23381943.916      -16984.6472        266.825          46.000  
  23950566.512       -9748.7062        754.708          46.000  
 15  3 30 21 18  0.0010000  0 10G23G 9G27G 3G 7G20G10G16G30G19
  20784545.221      144027.3652      -2713.809          49.000  
  20649835.237      360269.2172       -964.293          50.000  
  23433922.915       33079.6032       -733.654          43.000  
  23788279.984       55427.3773      -5458.120          44.000  
  21556878.700      201294.9262       -759.532          48.000  
  23481820.316        8612.6492       -225.904          46.000  
  22348004.032      506001.7532      -1213.064          47.000  
  22566889.826      916700.1252      -4786.394          47.000  
  23381890.597      -17268.1852        295.380          47.000  
  23950420.122      -10517.7982        775.687          46.000  
 15  3 30 21 18  1.0010000  0 10G23G 9G27G 3G 7G20G10G16G30G19
  20785061.459      146744.562       -2713.065          49.000  
  20650018.883      361234.6162       -959.285          50.000  
  23434064.061       33817.570        -736.425          43.000  
  23789320.925       60887.7732      -5455.906          45.000  
  21557023.703      202054.544        -751.673          49.000  
  23481862.423        8837.2032       -215.435          45.000  
  22348234.846      507214.211       -1203.925          47.000  
  22567801.216      921489.1762      -4783.913          46.000  
  23381834.154      -17565.922         306.288          47.000  
  23950274.020      -11287.9502        772.203          46.000  
 15  3 30 21 18  2.0010000  0 10G23G 9G27G 3G 7G20G10G16G30G19
  20785574.670      149437.575       -2672.874          49.000  
  20650197.347      362172.4162       -916.827          49.000  
  23434200.068       34533.752        -696.491          42.000  
  23790353.489       66323.7122      -5415.586          44.000  
  21557161.551      202783.636        -707.406          48.000  
  23481899.078        9029.9512       -170.927          45.000  
  22348458.889      508395.682       -1159.655          47.000  
  22568707.528      926253.1182      -4743.629          46.000  
  23381772.102      -17894.671         350.837          47.000  
  23950123.835      -12079.4162        810.913          45.000  
 15  3 30 21 18  3.0010000  0 10G23G 9G27G 3G 7G20G10G16G30G19
  20786079.653      152090.322       -2636.994          49.000  
  20650369.083      363069.1732       -880.958          50.000  
  23434328.170       35210.232        -661.186          43.000  
  23791379.553       71718.9672      -5379.266          43.000  
  21557292.393      203470.945        -671.395          48.000  
  23481927.670        9180.9142       -135.417          45.000  
  22348675.725      509535.590       -1124.081          47.000  
  22569606.990      930976.4522      -4707.604          46.000  
  23381701.620      -18265.503         386.706          47.000  
  23949966.233      -12910.8122        847.296          45.000  
 15  3 30 21 18  4.0010000  0 10G23G 9G27G 3G 7G20G10G16G30G19
  20786579.140      154717.9603      -2617.458          49.000  
  20650534.686      363940.7693       -861.400          50.000  
  23434451.447       35862.0913       -641.109          42.000  
  23792401.028       77088.7403      -5359.537          43.000  
  21557417.930      204132.3873       -651.989          48.000  
  23481951.454        9306.8383       -115.819          45.000  
  22348887.658      510650.5673      -1104.686          47.000  
  22570500.869      935674.0953      -4688.057          47.000  
  23381626.061      -18661.2503        406.574          47.000  
  23949802.751      -13768.0453        866.799          45.000  
 15  3 30 21 18  5.0010000  0 11G23G 9G27G28G 3G 7G20G10G16G30G19
  20787074.551      157323.1442      -2593.597          49.000  
  20650696.449      364789.8452       -837.266          50.000  
  23434571.321       36491.0303       -616.794          44.000  
  25150591.278       -5992.9723       1782.916          20.000  
  23793418.559       82435.6292      -5334.566          42.000  
  21557540.098      204771.5452       -627.246          48.000  
  23481970.816        9410.3902        -91.869          45.000  
  22349095.813      511743.2573      -1080.823          46.000  
  22571391.040      940349.6572      -4663.609          47.000  
  23381546.261      -19080.2712        431.020          47.000  
  23949634.854      -14647.5122        891.550          45.000  
 15  3 30 21 18  6.0010000  0 11G23G 9G27G28G 3G 7G20G10G16G30G19
  20787565.443      159904.7332      -2570.444          49.000  
  20650853.510      365615.2792       -814.377          50.000  
  23434687.042       37096.4512       -594.625          43.000  
  25150238.095       -7793.0183       1807.513          22.000  
  23794431.570       87758.5662      -5311.785          43.000  
  21557657.565      205386.8452       -604.129          48.000  
  23481986.922        9490.4272        -69.073          46.000  
  22349298.995      512812.5412      -1058.278          47.000  
  22572276.132      945001.5662      -4640.890          47.000  
  23381461.514      -19523.1812        454.004          47.000  
  23949463.109      -15550.7962        914.436          45.000  
 15  3 30 21 18  7.0010000  0 11G23G 9G27G28G 3G 7G20G10G16G30G19
  20788052.426      162463.3062      -2547.696          49.000  
  20651006.077      366417.6322       -791.648          50.000  
  23434798.183       37678.8672       -571.456          43.000  
  25149895.119       -9615.1363       1831.990          23.000  
  23795439.913       93058.0772      -5288.615          43.000  
  21557770.110      205978.8362       -580.733          48.000  
  23481997.750        9547.5092        -46.159          46.000  
  22349498.128      513858.9612      -1035.698          47.000  
  22573157.412      949630.3372      -4617.873          47.000  
  23381372.273      -19989.4232        477.005          47.000  
  23949286.556      -16477.3522        937.330          45.000  
 15  3 30 21 18  8.0010000  0 11G23G 9G27G28G 3G 7G20G10G16G30G19
  20788534.881      164998.9242      -2523.034          49.000  
  20651154.081      367196.9532       -766.467          50.000  
  23434905.039       38238.3692       -547.073          43.000  
  25149541.630      -11459.1943       1858.372          22.000  
  23796444.016       98334.2012      -5263.373          43.000  
  21557878.223      206547.5872       -555.912          48.000  
  23482004.207        9581.7242        -21.619          46.000  
  22349692.602      514882.5772      -1011.067          47.000  
  22574033.622      954236.0642      -4593.150          47.000  
  23381279.281      -20478.9422        502.065          47.000  
  23949105.082      -17427.1352        962.457          45.000  
 15  3 30 21 18  9.0010000  0 11G23G 9G27G28G 3G 7G20G10G16G30G19
  20789012.197      167509.9292      -2500.822          49.000  
  20651297.749      367951.6212       -744.540          50.000  
  23435008.004       38773.3092       -524.976          44.000  
  25149187.749      -13333.7693       1888.437          22.000  
  23797442.858      103585.3502      -5240.578          42.000  
  21557982.078      207091.4552       -533.419          49.000  
  23482005.847        9591.3852          0.498          46.000  
  22349882.399      515881.7532       -988.937          47.000  
  22574904.990      958817.0662      -4570.822          47.000  
  23381181.918      -20993.3832        524.827          47.000  
  23948920.215      -18401.7682        984.952          45.000  
 15  3 30 21 18 10.0010000  0 11G23G 9G27G28G 3G 7G20G10G16G30G19
  20789486.154      169998.7202      -2476.500          49.000  
  20651436.871      368683.9942       -720.008          50.000  
  23435105.725       39286.0342       -500.497          44.000  
  25148827.393      -15227.0213       1909.247          23.000  
  23798437.765      108813.8792      -5215.927          43.000  
  21558081.465      207612.8372       -509.068          49.000  
  23482003.631        9578.9122         24.722          46.000  
  22350068.087      516858.8942       -964.822          47.000  
  22575772.650      963375.7592      -4546.310          47.000  
  23381079.799      -21530.3502        549.458          47.000  
  23948730.880      -19398.8702       1009.733          46.000  
 15  3 30 21 18 11.0010000  0 11G23G 9G27G28G 3G 7G20G10G16G30G19
  20789955.094      172462.2172      -2452.538          49.000  
  20651571.551      369391.0092       -695.873          50.000  
  23435198.543       39773.5192       -476.658          45.000  
  25148459.813      -17145.9703       1929.258          23.000  
  23799428.100      114016.7192      -5191.684          43.000  
  21558175.784      208108.6172       -484.649          49.000  
  23481996.938        9541.2032         48.879          46.000  
  22350249.587      517810.9022       -941.108          46.000  
  22576635.449      967909.0712      -4522.249          47.000  
  23380972.803      -22092.9242        573.826          47.000  
  23948536.249      -20421.5132       1033.847          46.000  
 15  3 30 21 18 12.0010000  0 11G23G 9G27G28G 3G 7G20G10G16G30G19
  20790419.322      174903.0122      -2428.446          49.000  
  20651701.337      370075.2622       -671.772          50.000  
  23435287.853       40238.3332       -452.442          45.000  
  25148090.418      -19088.4253       1956.618          23.000  
  23800413.740      119196.4592      -5167.235          42.000  
  21558265.940      208581.4152       -460.262          49.000  
  23481986.093        9480.8902         72.825          46.000  
  22350426.645      518740.3712       -917.281          47.000  
  22577493.590      972419.5872      -4498.101          47.000  
  23380861.357      -22678.4932        598.103          47.000  
  23948337.692      -21467.1112       1058.120          46.000  
 15  3 30 21 18 13.0010000  0 11G23G 9G27G28G 3G 7G20G10G16G30G19
  20790878.672      177318.500       -2403.311          49.000  
  20651826.464      370734.147        -646.671          50.000  
  23435372.164       40678.372        -427.466          45.000  
  25147716.599      -21055.0883       1978.728          23.000  
  23801394.050      124350.9882      -5141.683          42.000  
  21558351.141      209029.126        -435.036          49.000  
  23481970.248        9395.320          98.038          46.000  
  22350598.931      519644.711        -892.364          47.000  
  22578346.574      976904.679       -4472.973          47.000  
  23380745.060      -23289.196         623.554          47.000  
  23948133.620      -22538.275        1083.512          46.000  
 15  3 30 21 18 14.0010000  0 11G23G 9G27G28G 3G 7G20G10G16G30G19
  20791333.617      179709.984       -2379.577          49.000  
  20651947.961      371368.965        -622.803          50.000  
  23435451.615       41093.951        -403.647          46.000  
  25147337.537      -23044.3963       2009.968          22.000  
  23802370.355      129480.6232      -5117.396          42.000  
  21558431.604      209452.030        -410.489          48.000  
  23481949.640        9285.851         121.221          46.000  
  22350766.270      520525.194        -868.403          46.000  
  22579195.501      981365.667       -4449.022          47.000  
  23380624.209      -23924.717         647.889          47.000  
  23947925.596      -23633.694        1107.805          45.000  
 15  3 30 21 18 15.0010000  0 11G23G 9G27G28G 3G 7G20G10G16G30G19
  20791784.653      182078.897       -2360.406          48.000  
  20652063.900      371981.157        -603.674          49.000  
  23435526.651       41486.993        -384.451          45.000  
  25146950.535      -25058.5653       2024.137          22.000  
  23803342.454      134587.2682      -5097.812          42.000  
  21558507.425      209852.104        -391.253          48.000  
  23481924.546        9153.868         140.603          46.000  
  22350929.630      521383.277        -849.441          46.000  
  22580040.388      985803.995       -4429.729          47.000  
  23380499.640      -24583.093         667.086          47.000  
  23947713.105      -24751.909        1126.985          45.000  
 15  3 30 21 18 16.0010000  0 11G23G 9G27G28G 3G 7G20G10G16G30G19
  20792231.527      184427.330       -2338.052          49.000  
  20652176.097      372572.807        -581.448          49.000  
  23435597.333       41859.589        -362.245          45.000  
  25146564.606      -27093.5173       2046.413          21.000  
  23804309.327      139673.0592      -5075.351          42.000  
  21558579.276      210231.432        -369.239          48.000  
  23481894.907        9001.502         162.540          46.000  
  22351088.497      522221.085        -827.707          46.000  
  22580880.869      990221.762       -4407.516          46.000  
  23380369.776      -25262.265         689.545          47.000  
  23947495.719      -25890.865        1149.436          45.000  
 15  3 30 21 18 17.0010000  0 11G23G 9G27G28G 3G 7G20G10G16G30G19
  20792674.422      186753.725       -2315.920          49.000  
  20652284.907      373142.345        -559.101          50.000  
  23435663.199       42210.187        -340.285          45.000  
  25146172.220      -29152.6683       2066.730          22.000  
  23805272.963      144736.3942      -5052.651          42.000  
  21558647.437      210588.396        -346.515          48.000  
  23481861.647        8827.148         184.904          47.000  
  22351243.900      523036.981        -805.612          46.000  
  22581716.997      994617.369       -4385.155          47.000  
  23380236.351      -25963.808         711.859          47.000  
  23947273.883      -27052.097        1171.452          45.000  
 15  3 30 21 18 18.0010000  0 11G23G 9G27G28G 3G 7G20G10G16G30G19
  20793113.679      189059.233       -2296.773          49.000  
  20652389.478      373690.944        -539.634          50.000  
  23435725.557       42539.921        -320.799          45.000  
  25145776.999      -31231.7993       2089.083          22.000  
  23806232.437      149778.4472      -5032.872          42.000  
  21558710.982      210924.195        -326.852          48.000  
  23481824.810        8631.999         203.854          47.000  
  22351395.098      523832.175        -786.518          46.000  
  22582549.232      998991.990       -4365.867          47.000  
  23380098.277      -26686.543         731.690          47.000  
  23947048.766      -28234.478        1191.210          45.000  
 15  3 30 21 18 19.0010000  0 11G23G 9G27G28G 3G 7G20G10G16G30G19
  20793548.861      191345.055       -2273.434          49.000  
  20652489.913      374219.788        -516.499          49.000  
  23435784.443       42850.013        -297.717          45.000  
  25145374.920      -33330.4273       2113.544          22.000  
  23807187.950      154800.430       -5009.421          41.000  
  21558770.950      211240.026        -303.306          48.000  
  23481784.037        8417.231         227.068          47.000  
  22351542.630      524607.833        -763.216          46.000  
  22583378.057     1003346.831       -4342.306          47.000  
  23379957.986      -27429.285         755.244          47.000  
  23946820.317      -29436.807        1214.693          45.000  
 15  3 30 21 18 20.0010000  0 11G23G 9G27G28G 3G 7G20G10G16G30G19
  20793980.257      193609.845       -2255.076          49.000  
  20652586.979      374727.536        -498.024          50.000  
  23435839.621       43139.113        -279.328          45.000  
  25144969.761      -35453.5313       2125.040          22.000  
  23808139.021      159800.980       -4990.857          41.000  
  21558826.982      211534.528        -284.732          48.000  
  23481739.408        8181.505         245.523          47.000  
  22351686.568      525362.651        -745.312          47.000  
  22584203.286     1007680.543       -4324.058          47.000  
  23379812.407      -28193.356         773.990          47.000  
  23946587.697      -30660.391        1233.629          45.000  
 15  3 30 21 18 21.0010000  0 11G23G 9G27G28G 3G 7G20G10G16G30G19
  20794407.290      195855.417       -2235.266          49.000  
  20652679.928      375216.010        -478.150          50.000  
  23435890.566       43409.050        -259.699          45.000  
  25144563.118      -37593.3003       2148.669          22.000  
  23809087.135      164781.903       -4970.383          41.000  
  21558879.420      211809.557        -264.710          48.000  
  23481690.521        7926.642         265.299          46.000  
  22351826.153      526098.417        -725.596          47.000  
  22585023.909     1011994.943       -4303.975          47.000  
  23379663.714      -28976.939         794.147          48.000  
  23946351.089      -31903.455        1253.572          45.000  
 15  3 30 21 18 22.0010000  0 11G23G 9G27G28G 3G 7G20G10G16G30G19
  20794830.937      198078.842       -2213.159          49.000  
  20652768.497      375682.270        -455.969          50.000  
  23435937.420       43656.841        -237.541          45.000  
  25144152.837      -39757.1253       2176.810          23.000  
  23810030.538      169740.266       -4947.759          41.000  
  21558927.208      212062.109        -241.873          48.000  
  23481637.682        7649.702         287.076          47.000  
  22351962.378      526812.171        -703.476          47.000  
  22585840.893     1016287.088       -4281.879          47.000  
  23379510.239      -29783.021         816.577          47.000  
  23946110.634      -33168.925        1275.979          45.000  
 15  3 30 21 18 23.0010000  0 11G23G 9G27G28G 3G 7G20G10G16G30G19
  20795250.223      200281.309       -2193.289          49.000  
  20652852.999      376127.524        -435.941          50.000  
  23435979.981       43883.747        -217.781          44.000  
  25143738.735      -41943.4763       2197.951          24.000  
  23810970.005      174677.297       -4927.830          41.000  
  21558971.313      212293.463        -222.032          48.000  
  23481580.472        7351.885         307.046          47.000  
  22352094.494      527505.170        -683.932          47.000  
  22586653.733     1020558.174       -4261.688          47.000  
  23379352.952      -30610.336         836.628          47.000  
  23945866.130      -34455.576        1295.859          46.000  
 15  3 30 21 18 24.0010000  0 11G23G 9G27G28G 3G 7G20G10G16G30G19
  20795665.546      202463.797       -2174.555          49.000  
  20652933.986      376552.741        -417.156          49.000  
  23436019.035       44090.697        -199.151          45.000  
  25143318.150      -44149.2533       2216.499          23.000  
  23811905.171      179593.943       -4908.076          41.000  
  21559011.204      212504.549        -203.204          48.000  
  23481520.670        7034.161         325.703          47.000  
  22352222.648      528178.351        -665.482          47.000  
  22587462.577     1024809.203       -4243.187          47.000  
  23379192.069      -31457.937         855.561          47.000  
  23945617.665      -35762.476        1315.052          46.000  
 15  3 30 21 18 25.0010000  0 11G23G 9G27G28G 3G 7G20G10G16G30G19
  20796077.616      204628.304       -2154.934          49.000  
  20653011.299      376959.913        -397.638          49.000  
  23436055.009       44279.705        -179.491          44.000  
  25142895.785      -46373.8903       2238.923          24.000  
  23812837.580      184492.196       -4888.342          41.000  
  21559048.103      212697.348        -183.161          48.000  
  23481456.470        6698.546         345.055          47.000  
  22352347.879      528833.711        -645.874          47.000  
  22588267.215     1029042.139       -4223.396          47.000  
  23379027.645      -32323.848         875.567          47.000  
  23945365.632      -37087.586        1334.412          46.000  
 15  3 30 21 18 26.0010000  0 11G23G 9G27G28G 3G 7G20G10G16G30G19
  20796486.021      206773.244       -2135.038          49.000  
  20653084.869      377347.472        -377.821          49.000  
  23436086.436       44449.163        -159.547          44.000  
  25142468.385      -48619.1693       2255.299          25.000  
  23813766.446      189370.504       -4867.975          41.000  
  21559081.276      212870.352        -163.674          48.000  
  23481388.484        6343.477         364.322          47.000  
  22352468.740      529469.723        -626.779          47.000  
  22589068.677     1033255.404       -4203.323          47.000  
  23378859.486      -33209.579         895.315          47.000  
  23945109.881      -38432.571        1355.458          45.000  
 15  3 30 21 18 27.0010000  0 11G23G 9G27G28G 3G 7G20G10G16G30G19
  20796890.299      208897.440       -2110.596          50.000  
  20653155.891      377715.142        -354.816          50.000  
  23436114.147       44597.165        -132.569          42.000  
  25142035.681      -50885.8863       2280.049          23.000  
  23814692.285      194227.701       -4842.954          43.000  
  21559109.929      213023.972        -141.471          49.000  
  23481317.383        5969.873         385.516          47.000  
  22352586.860      530087.087        -605.473          47.000  
  22589867.984     1037448.032       -4179.529          45.000  
  23378686.231      -34114.405         916.609          45.000  
  23944849.716      -39799.335        1382.246          45.000  
 15  3 30 21 18 28.0010000  0 11G23G 9G27G28G 3G 7G20G10G16G30G19
  20797286.750      210984.065       -2067.920          49.000  
  20653219.244      378050.419        -320.187          50.000  
  23436133.526       44703.868         -84.125          44.000  
  25141601.895      -53186.2293       2316.405          24.000  
  23815609.852      199047.461       -4801.311          43.000  
  21559134.944      213149.295        -113.754          48.000  
  23481241.649        5570.873         409.623          45.000  
  22352700.147      530678.184        -580.406          48.000  
  22590658.741     1041604.107       -4137.792          46.000  
  23378507.960      -35045.525         941.914          46.000  
  23944580.337      -41208.673        1431.587          45.000  
 15  3 30 21 18 29.0010000  0 11G23G 9G27G28G 3G 7G20G10G16G30G19
  20797679.886      213050.9643      -2060.147          49.000  
  20653280.285      378372.0273       -320.473          49.000  
  23436151.116       44786.8743        -79.411          45.000  
  25141160.893      -55495.7123       2295.016          34.000  
  23816524.191      203852.6673      -4812.076          44.000  
  21559156.713      213266.3523       -122.331          48.000  
  23481164.519        5166.2203        403.959          44.000  
  22352811.157      531264.3323       -584.582          46.000  
  22591445.650     1045738.4153      -4131.791          47.000  
  23378330.221      -35981.6333        931.475          45.000  
  23944307.328      -42640.1223       1433.925          45.000  
 15  3 30 21 18 30.0010000  0 11G23G 9G27G28G 3G 7G20G10G16G30G19
  20798080.883      215154.0793      -2121.794          49.000  
  20653348.821      378728.8303       -372.370          49.000  
  23436173.469       44899.9493       -129.355          45.000  
  25140730.893      -57754.8803       2229.558          37.000  
  23817448.102      208705.7193      -4877.775          43.000  
  21559187.303      213422.1303       -171.756          47.000  
  23481094.352        4797.4013        353.340          45.000  
  22352930.987      531890.0743       -641.776          46.000  
  22592238.605     1049900.2623      -4175.226          46.000  
  23378160.430      -36874.6313        872.191          46.000  
  23944041.509      -44037.2613       1374.073          45.000  
 15  3 30 21 18 31.0010000  0 11G23G 9G27G28G 3G 7G20G10G16G30G19
  20798484.324      217272.7852      -2120.190          50.000  
  20653418.727      379095.5042       -365.452          49.000  
  23436197.254       45026.7332       -128.447          44.000  
  25140309.933      -59985.6992       2225.598          37.000  
  23818377.788      213585.6442      -4885.625          45.000  
  21559218.460      213587.1983       -163.038          49.000  
  23481025.101        4436.0163        373.939          34.000  
  22353051.490      532525.5822       -633.918          47.000  
  22593031.831     1054067.3622      -4163.636          47.000  
  23377992.995      -37752.8083        878.359          45.000  
  23943778.587      -45412.0172       1370.706          45.000  
 15  3 30 21 18 32.0010000  0 10G23G 9G27G28G 7G20G10G16G30G19
  20798887.860      219394.6662      -2121.793          48.000  
  20653488.850      379460.2792       -363.421          50.000  
  23436220.751       45156.9602       -130.763          46.000  
  25139894.443      -62228.5943       2243.458          31.000  
  21559249.304      213749.3272       -160.276          48.000  
  23480958.101        4053.2433        401.469          29.000  
  22353171.826      533158.3572       -630.807          46.000  
  22593824.010     1058229.7112      -4158.559          48.000  
  23377825.796      -38630.9532        878.410          46.000  
  23943518.448      -46778.0202       1365.375          39.000  
 15  3 30 21 18 33.0010000  0 10G23G 9G27G28G 3G 7G10G16G30G19
  20799292.827      221522.7722      -2133.167          49.000  
  20653558.669      379827.6152       -371.476          50.000  
  23436246.141       45292.8842       -141.704          45.000  
  25139466.067      -64433.0413       2203.073          42.000  
  23820243.766        4286.8283      -4911.410          43.000  
  21559280.644      213913.1942       -168.276          48.000  
  22353292.887      533793.1852       -638.655          46.000  
  22594616.677     1062392.8792      -4166.455          48.000  
  23377659.286      -39505.9283        874.292          36.000  
  23943262.121      -48128.3193       1352.418          30.000  
 15  3 30 21 18 34.0010000  0 10G23G 9G27G28G 3G 7G20G10G16G30
  20799698.815      223655.2732      -2132.339          50.000  
  20653629.011      380198.1462       -370.430          50.000  
  23436273.546       45434.7833       -138.251          40.000  
  25139047.523      -66635.1072       2200.732          44.000  
  23821179.107        9198.7282      -4914.449          43.000  
  21559312.255      214079.8602       -167.106          48.000  
  23480817.757        3308.1483        365.939          37.000  
  22353414.611      534431.3662       -636.106          42.000  
  22595409.144     1066558.1112      -4163.962          48.000  
  23377496.519      -40379.4283        869.288          40.000  
 15  3 30 21 18 35.0010000  0 10G23G 9G27G28G 3G 7G20G10G16G30
  20800104.603      225788.6542      -2134.321          49.000  
  20653699.536      380569.7092       -373.384          50.000  
  23436297.636       45571.2413       -139.813          43.000  
  25138628.404      -68831.7162       2191.473          44.000  
  23822113.147       14114.2523      -4921.148          42.000  
  21559344.277      214248.6782       -170.191          45.000  
  23480745.863        2944.3893        358.521          42.000  
  22353536.457      535072.1243       -643.523          41.000  
  22596201.358     1070721.5802      -4163.094          48.000  
  23377330.349      -41249.3563        863.842          44.000  
 15  3 30 21 18 36.0010000  0 10G23G 9G27G28G 3G 7G20G10G16G30
  20800511.812      227930.1872      -2147.776          49.000  
  20653772.286      380950.0692       -387.371          50.000  
  23436326.892       45716.4202       -151.263          43.000  
  25138213.595      -71014.3722       2174.525          42.000  
  23823055.965       19045.9053      -4936.372          29.000  
  21559378.400      214428.0873       -186.966          47.000  
  23480678.470        2593.3123        339.853          41.000  
  22353660.144      535725.1823       -660.901          46.000  
  22596994.331     1074890.3772      -4174.077          46.000  
  23377163.455      -42103.4923        843.021          41.000  
 15  3 30 21 18 37.0010000  0 10G23G 9G27G28G 3G 7G20G10G16G30
  20800921.866      230081.059       -2158.355          49.000  
  20653846.746      381341.073        -399.290          50.000  
  23436357.194       45869.6632       -155.393          36.000  
  25137800.312      -73184.8522       2162.855          44.000  
  23823992.893       23985.3403      -4947.410          39.000  
  21559415.596      214619.8342       -199.680          48.000  
  23480616.993        2255.8263        326.967          45.000  
  22353787.086      536390.3993       -670.162          42.000  
  22597789.441     1079068.394       -4184.880          47.000  
  23377009.527      -42943.9803        831.188          46.000  
 15  3 30 21 18 38.0010000  0 11G23G 9G27G28G 3G 7G20G10G16G30G19
  20801332.758      232242.625       -2163.653          49.000  
  20653923.012      381743.411        -404.481          51.000  
  23436386.013       46030.9523       -183.794          36.000  
  25137389.386      -75342.9452       2153.873          37.000  
  23824933.085       28935.3302      -4954.808          42.000  
  21559453.689      214823.2002       -205.636          48.000  
  23480553.509        1929.8983        322.103          41.000  
  22353916.767      537069.1183       -680.935          38.000  
  22598586.349     1083255.777       -4188.677          48.000  
  23376848.479      -43771.3093        823.485          47.000  
  23941984.067       -1497.6933       1320.354          40.000  
 15  3 30 21 18 39.0010000  0 11G23G 9G27G28G 3G 7G20G10G16G30G19
  20801745.656      234412.709       -2173.488          49.000  
  20654001.058      382154.228        -414.622          51.000  
  23436420.355       46204.9963       -173.909          45.000  
  25136980.580      -77489.4772       2142.146          40.000  
  23825875.065       33883.1703      -4977.762          29.000  
  21559494.174      215035.6892       -216.404          49.000  
  23480502.659        1614.4333        356.695          32.000  
  22354047.426      537757.3323       -692.801          47.000  
  22599384.286     1087449.728       -4197.476          48.000  
  23376693.600      -44587.0773        810.317          36.000  
  23941732.165       -2814.3123       1312.707          45.000  
 15  3 30 21 18 40.0010000  0 11G23G 9G27G28G 3G 7G20G10G16G30G19
  20802160.029      236589.532       -2179.017          49.000  
  20654080.919      382571.956        -419.873          50.000  
  23436454.819       46381.7592       -178.968          46.000  
  25136574.059      -79629.6332       2137.706          39.000  
  23826822.289       38855.4913      -4968.670          45.000  
  21559535.705      215255.0032       -221.643          49.000  
  23480435.336        1298.6653        305.395          44.000  
  22354180.021      538454.1703       -696.242          41.000  
  22600183.402     1091650.406       -4202.740          49.000  
  23376528.547          27.7713        835.512          34.000  
  23941485.480       -4123.5512       1307.191          45.000  
 15  3 30 21 18 41.0010000  0 11G23G 9G27G28G 3G 7G20G10G16G30G19
  20802574.733      238769.873       -2181.866          50.000  
  20654161.199      382993.373        -422.611          51.000  
  23436486.692       46561.3943       -179.128          41.000  
  25136167.696      -81765.8912       2133.531          37.000  
  23827767.140       43825.7892      -4971.965          42.000  
  21559578.642      215478.0682       -224.639          46.000  
  23480378.317         991.4073        304.581          39.000  
  22354313.646      539154.0763       -701.470          43.000  
  22600983.616     1095854.181       -4204.556          47.000  
  23376384.076        -779.8273        804.561          41.000  
  23941237.320       -5429.7632       1303.821          42.000  
 15  3 30 21 18 42.0010000  0 11G23G 9G27G28G 3G 7G20G10G16G30G19
  20802990.441      240951.661       -2183.033          50.000  
  20654241.478      383416.334        -425.180          50.000  
  23436524.856       46742.8313       -184.841          40.000  
  25135761.691      -83900.2532       2131.066          34.000  
  23828714.172       48796.0263      -4966.090          35.000  
  21559621.299      215702.7002       -226.408          48.000  
  23480320.793         691.0613        281.993          33.000  
  22354447.149      539856.8362       -701.506          46.000  
  22601783.543     1100059.049       -4206.502          48.000  
  23376232.198       -1585.7113        804.914          47.000  
  23940989.815       -6735.3463       1303.092          44.000  
 15  3 30 21 18 43.0010000  0 10G23G 9G28G 3G 7G20G10G16G30G19
  20803406.603      243136.636       -2186.474          50.000  
  20654322.325      383841.988        -427.106          51.000  
  25135355.040      -86029.5291       2125.321          32.000  
  23829665.182       53773.6693      -4978.171          36.000  
  21559664.654      215930.055        -227.366          49.000  
  23480261.287         394.8913        299.527          42.000  
  22354581.621      540556.0953       -707.142          46.000  
  22602584.089     1104265.622       -4207.604          47.000  
  23376080.216       -2388.6253        836.318          33.000  
  23940741.987       -8036.7443       1313.281          34.000  
 15  3 30 21 18 44.0010000  0 11G23G 9G27G28G 3G 7G20G10G16G30G19
  20803823.131      245325.953       -2189.516          48.000  
  20654404.341      384270.816        -427.772          51.000  
  23436597.745       47127.5773       -189.866          43.000  
  25134952.323      -88155.4433       2125.957          30.000  
  23830610.094       58754.2983      -4980.031          41.000  
  21559708.157      216159.536        -226.680          48.000  
  23480208.038          92.9253        294.556          39.000  
  22354716.607      541264.3883       -706.783          36.000  
  22603385.621     1108475.922       -4209.853          48.000  
  23375926.767       -3197.6013        802.392          43.000  
  23940494.779       -9334.3193       1294.390          39.000  
 15  3 30 21 18 45.0010000  0 11G23G 9G27G28G 3G 7G20G10G16G30G19
  20804240.121      247520.637       -2197.261          48.000  
  20654486.444      384702.675        -433.445          51.000  
  23436629.662       47323.5852       -198.776          47.000  
  25134545.253      -90280.0723       2126.025          26.000  
  23831567.553       63719.0423      -4876.320          24.000  
  21559751.608      216389.911        -231.347          49.000  
  23480148.027        -202.8673        299.750          43.000  
  22354849.185      541973.9933       -710.662          48.000  
  22604187.808     1112691.086       -4217.232          49.000  
  23375775.116       -3999.2963        795.639          37.000  
  23940249.681      -10623.7353       1285.359          40.000  
 15  3 30 21 18 46.0010000  0 11G23G 9G27G28G 3G 7G20G10G16G30G19
  20804658.708      249718.514       -2201.046          50.000  
  20654568.748      385135.765        -435.145          51.000  
  23436667.982       47524.3122       -205.334          47.000  
  25134143.392      -92402.9373       2118.711          33.000  
  23832507.029       68670.1443      -4991.892          44.000  
  21559795.618      216619.593        -230.568          49.000  
  23480089.464        -498.2173        298.672          45.000  
  22354987.556      542682.1993       -707.913          48.000  
  22604990.736     1116909.021       -4220.902          48.000  
  23375621.249       -4805.0283        803.150          46.000  
  23940004.497      -11908.3572       1280.592          46.000  
 15  3 30 21 18 47.0010000  0 11G23G 9G27G28G 3G 7G20G10G16G30G19
  20805077.976      251921.938       -2209.530          49.000  
  20654651.724      385571.443        -440.064          50.000  
  23436706.957       47732.6212       -214.909          44.000  
  25133740.266      -94524.4212       2117.725          39.000  
  23833457.856       73662.5012      -4997.016          43.000  
  21559839.348      216849.201        -233.263          48.000  
  23480035.551        -797.9843        295.931          39.000  
  22355122.385      543390.0202       -709.635          49.000  
  22605795.322     1121132.1293      -4230.522          39.000  
  23375469.257       -5607.9082        801.052          43.000  
  23939761.407      -13185.3642       1270.775          41.000  
 15  3 30 21 18 48.0010000  0 11G23G 9G27G28G 3G 7G20G10G16G30G19
  20805497.915      254130.120       -2212.225          48.000  
  20654735.459      386009.320        -441.174          49.000  
  23436748.847       47948.2172       -219.005          42.000  
  25133334.933      -96645.2812       2119.136          41.000  
  23834409.460       78658.1582      -4998.219          38.000  
  21559883.148      217078.295        -231.621          48.000  
  23479977.434       -1099.6793        300.022          44.000  
  22355254.414      544097.4362       -708.826          45.000  
  22606598.110     1125359.6603      -4232.320          47.000  
  23375315.861       -6412.7763        806.083          39.000  
  23939519.748      -14455.5003       1264.165          39.000  
 15  3 30 21 18 49.0010000  0 10G23G 9G27G28G 3G 7G20G10G30G19
  20805918.797      256343.947       -2217.601          50.000  
  20654818.827      386451.291        -445.293          49.000  
  23436790.178       48169.9893       -227.232          44.000  
  25132932.818      -98764.1932       2116.810          45.000  
  23835361.527       83657.3752      -5003.965          41.000  
  21559926.660      217309.572        -234.667          48.000  
  23479920.302       -1398.9933        295.132          48.000  
  22355391.642      544806.3672       -713.174          48.000  
  23375162.273       -7214.5043        802.582          47.000  
  23939283.821      -15719.4163       1267.332          37.000  
 15  3 30 21 18 50.0010000  0 10G23G 9G27G28G 3G 7G20G10G30G19
  20806342.026      258565.8873      -2227.358          40.000  
  20654904.866      386900.373        -453.774          49.000  
  23436834.606       48400.8313       -236.693          44.000  
  25132532.127     -100878.6732       2110.021          40.000  
  23836311.988       88660.8153      -5002.077          26.000  
  21559971.603      217547.037        -242.248          48.000  
  23479864.312       -1691.6862        288.639          38.000  
  22355524.046      545521.6642       -720.490          48.000  
  23375009.558       -8013.2162        793.689          47.000  
  23939037.938      -16977.2793       1252.575          40.000  
 15  3 30 21 18 51.0010000  0 11G23G 9G27G28G 3G 7G20G10G16G30G19
  20806767.070      260798.1233      -2234.196          51.000  
  20654992.536      387362.363        -466.251          50.000  
  23436881.425       48641.6733       -240.455          44.000  
  25132131.862     -102983.1943       2098.724          39.000  
  23837268.138       93667.9503      -5016.049          35.000  
  21560019.591      217798.141        -257.427          49.000  
  23479812.634       -1972.2263        266.208          45.000  
  22355662.531      546251.4282       -736.909          48.000  
  22609015.149        8633.5583      -4256.943          39.000  
  23374860.646       -8798.6102        777.684          45.000  
  23938802.203      -18224.9063       1250.190          40.000  
 15  3 30 21 18 52.0010000  0 11G23G 9G27G28G 3G 7G20G10G16G30G19
  20807191.895      263033.4372      -2236.539          50.000  
  20655081.994      387832.436        -473.748          51.000  
  23436927.720       48883.3812       -239.967          43.000  
  25131732.287     -105082.7072       2096.547          36.000  
  23838221.207       98682.3323      -5009.479          31.000  
  21560069.551      218060.362        -266.911          49.000  
  23479762.473       -2236.8973        255.270          44.000  
  22355806.207      546994.0122       -749.163          47.000  
  22609830.885       12894.3062      -4261.166          46.000  
  23374713.925       -9572.5273        767.927          46.000  
  23938566.721      -19475.8093       1252.125          42.000  
 15  3 30 21 18 53.0010000  0 11G23G 9G27G28G 3G 7G20G10G16G30G19
  20807618.501      265270.9603      -2239.771          34.000  
  20655173.608      388311.779        -486.283          50.000  
  23436971.267       49126.8003       -244.494          40.000  
  25131334.099     -107176.4193       2090.810          40.000  
  23839175.926      103697.3123      -5014.546          36.000  
  21560122.076      218335.593        -283.933          49.000  
  23479714.790       -2485.2683        245.964          37.000  
  22355950.835      547751.4032       -766.872          47.000  
  22610643.577       17161.2942      -4272.446          48.000  
  23374569.533      -10332.0062        750.519          46.000  
  23938326.231      -20727.6132       1252.074          42.000  
 15  3 30 21 18 54.0010000  0 10G23G 9G28G 3G 7G20G10G16G30G19
  20808045.036      267514.8233      -2243.607          45.000  
  20655266.242      388801.344        -494.850          51.000  
  25130934.646     -109263.9393       2087.686          30.000  
  23840123.046      108709.1613      -5018.832          40.000  
  21560177.751      218625.848        -297.240          50.000  
  23479672.299       -2713.8543        219.083          37.000  
  22356098.289      548526.2732       -785.752          50.000  
  22611457.289       21434.9272      -4276.997          49.000  
  23374428.500      -11075.0432        732.509          46.000  
  23938089.667      -21981.2533       1254.330          41.000  
 15  3 30 21 18 55.0010000  0 11G23G 9G27G28G 3G 7G20G10G16G30G19
  20808472.645      269762.4993      -2251.740          50.000  
  20655361.896      389304.983        -511.586          50.000  
  23437064.914       49618.0412       -247.020          45.000  
  25130539.294     -111347.4863       2085.692          22.000  
  23841080.207      113721.5213      -5007.892          39.000  
  21560236.410      218934.794        -318.149          48.000  
  23479635.418       -2920.0733        193.777          44.000  
  22356249.539      549323.0083       -802.371          44.000  
  22612272.450       25720.6012      -4293.728          47.000  
  23374290.460      -11799.7712        717.355          44.000  
  23937851.428      -23235.3223       1259.227          41.000  
 15  3 30 21 18 56.0010000  0 11G23G 9G27G28G 3G 7G20G10G16G30G19
  20808900.385      272011.4982      -2250.122          50.000  
  20655459.826      389817.307        -516.879          50.000  
  23437112.021       49861.5712       -243.914          46.000  
  25130146.088     -113437.3813       2112.589          24.000  
  23842034.542      118728.6602      -5002.486          42.000  
  21560297.373      219255.339        -327.126          48.000  
  23479598.912       -3107.5333        179.458          45.000  
  22356403.633      550131.6073       -816.884          48.000  
  22613089.870       30015.7312      -4300.528          48.000  
  23374155.448      -12513.8942        709.089          45.000  
  23937609.935      -24500.8263       1269.592          30.000  
 15  3 30 21 18 57.0010000  0 10G23G 9G27G 3G 7G20G10G16G30G19
  20809328.552      274260.6592      -2249.694          49.000  
  20655558.307      390336.263        -521.836          50.000  
  23437158.115       50103.7352       -241.992          46.000  
  23842983.564      123727.2443      -4993.175          35.000  
  21560360.315      219585.262        -333.742          49.000  
  23479567.833       -3281.5092        168.287          44.000  
  22356559.411      550951.2382       -824.212          48.000  
  22613908.006       34317.5372      -4303.705          48.000  
  23374021.814      -13219.6492        701.998          47.000  
  23937363.956      -25772.8522       1274.197          46.000  
 15  3 30 21 18 58.0010000  0 11G23G 9G27G28G 3G 7G20G10G16G30G19
  20809757.313      276514.4542      -2258.326          49.000  
  20655658.890      390863.441        -533.398          50.000  
  23437205.118       50348.1062       -247.806          45.000  
  25129342.899       -1630.5593       2073.987          32.000  
  23843935.534      128732.9593      -5009.375          40.000  
  21560425.291      219925.908        -348.165          48.000  
  23479533.640       -3442.6893        151.872          44.000  
  22356718.478      551783.0372       -840.327          47.000  
  22614728.132       38625.1242      -4312.710          48.000  
  23373889.393      -13913.6962        685.498          45.000  
  23937128.457      -27035.6893       1267.488          32.000  
 15  3 30 21 18 59.0010000  0 10G23G 9G27G 3G 7G20G10G16G30G19
  20810187.216      278774.4202      -2260.248          49.000  
  20655760.590      391399.583        -537.399          49.000  
  23437252.765       50596.0812       -247.086          46.000  
  23844890.541      133744.1103      -5015.228          40.000  
  21560491.977      220278.100        -354.547          48.000  
  23479505.772       -3590.6112        145.574          44.000  
  22356878.959      552627.9062       -848.243          46.000  
  22615549.391       42938.4412      -4312.881          47.000  
  23373759.520      -14594.4682        677.092          46.000  
  23936887.051      -28297.2793       1268.554          46.000  
 15  3 30 21 19  0.0010000  0 11G23G 9G27G28G 3G 7G20G10G16G30G19
  20810618.786      281040.1852      -2265.346          49.000  
  20655864.034      391943.854        -544.592          50.000  
  23437300.160       50847.5982       -251.187          45.000  
  25128569.077       -5767.3643       2061.760          25.000  
  23845844.841      138762.9313      -5018.771          39.000  
  21560561.150      220640.667        -362.877          48.000  
  23479479.622       -3726.4942        134.142          42.000  
  22357042.215      553484.5272       -857.042          48.000  
  22616371.035       47257.0472      -4318.058          47.000  
  23373632.273      -15263.2212        667.974          47.000  
  23936645.400      -29560.8443       1264.324          34.000  
 15  3 30 21 19  1.0010000  0 11G23G 9G27G28G 3G 7G20G10G16G30G19
  20811050.958      283311.9362      -2272.502          49.000  
  20655968.945      392495.076        -552.436          50.000  
  23437349.562       51103.635        -256.824          46.000  
  25128171.064       -7827.9153       2053.737          31.000  
  23846803.259      143793.2943      -5052.755          29.000  
  21560631.343      221010.973        -372.482          48.000  
  23479455.445       -3853.9852        124.166          43.000  
  22357206.465      554349.7232       -868.151          46.000  
  22617194.057       51581.3742      -4324.458          48.000  
  23373506.570      -15923.7542        657.291          46.000  
  23936403.296      -30822.1263       1262.494          26.000  
 15  3 30 21 19  2.0010000  0 10G23G 9G27G 3G 7G20G10G16G30G19
  20811484.108      285588.2952      -2277.117          49.000  
  20656074.824      393051.023        -557.049          50.000  
  23437399.775       51364.690        -261.620          46.000  
  23847759.994      148818.1713      -5028.232          34.000  
  21560702.872      221385.947        -375.741          48.000  
  23479432.123       -3976.1792        120.802          42.000  
  22357372.792      555220.1842       -871.540          47.000  
  22618017.158       55910.2712      -4329.108          47.000  
  23373381.932      -16579.4372        655.484          46.000  
  23936166.540      -32077.7953       1253.298          46.000  
 15  3 30 21 19  3.0010000  0 11G23G 9G27G28G 3G 7G20G10G16G30G19
  20811918.444      287871.0722      -2288.329          49.000  
  20656181.637      393613.444        -567.408          50.000  
  23437450.345       51631.669        -273.409          46.000  
  25127394.329       -2121.5903       2038.732          33.000  
  23848718.307      153854.7253      -5042.921          44.000  
  21560775.709      221767.794        -387.055          49.000  
  23479410.301       -4091.1352        109.581          45.000  
  22357539.546      556098.1432       -883.301          48.000  
  22618842.291       60244.5262      -4339.240          47.000  
  23373258.707      -17227.5772        643.330          47.000  
  23935927.734      -33326.3082       1242.674          45.000  
 15  3 30 21 19  4.0010000  0 11G23G 9G27G28G 3G 7G20G10G16G30G19
  20812354.490      290162.2792      -2291.250          49.000  
  20656290.169      394183.214        -569.812          50.000  
  23437503.193       51907.403        -275.675          46.000  
  25127003.610       -4157.3963       2032.605          36.000  
  23849677.450      158900.0592      -5045.158          44.000  
  21560849.742      222156.198        -388.472          49.000  
  23479390.173       -4199.7352        109.689          43.000  
  22357708.028      556983.0662       -885.141          47.000  
  22619668.725       64586.2152      -4341.699          47.000  
  23373136.809      -17868.9212        641.381          47.000  
  23935691.301      -34565.5012       1239.811          47.000  
 15  3 30 21 19  5.0010000  0 11G23G 9G27G28G 3G 7G20G10G16G30G19
  20812791.783      292460.2242      -2300.215          49.000  
  20656399.765      394759.490        -578.683          50.000  
  23437557.158       52190.168        -285.954          46.000  
  25126620.159       -6187.9073       2032.014          34.000  
  23850640.082      163949.4362      -5049.078          42.000  
  21560924.935      222550.044        -395.896          48.000  
  23479370.253       -4302.9022         99.596          44.000  
  22357877.400      557873.4422       -893.045          47.000  
  22620496.231       68935.0632      -4351.547          46.000  
  23373015.207      -18506.0342        634.877          47.000  
  23935457.503      -35798.7442       1230.201          46.000  
 15  3 30 21 19  6.0010000  0 10G23G 9G27G28G 3G 7G20G10G30G19
  20813230.072      294765.5852      -2310.022          49.000  
  20656510.443      395342.411        -586.920          50.000  
  23437612.240       52483.067        -299.544          47.000  
  25126236.167       -8213.0133       2011.543          31.000  
  23851602.444      169000.5713      -5049.954          27.000  
  21561000.232      222948.484        -400.546          48.000  
  23479352.437       -4400.9042         95.281          45.000  
  22358047.836      558768.1972       -896.630          47.000  
  23372894.739      -19140.6692        634.532          46.000  
  23935222.640      -37024.3592       1220.693          45.000  
 15  3 30 21 19  7.0010000  0 10G23G 9G27G 3G 7G20G10G16G30G19
  20813670.672      297079.600       -2317.511          49.000  
  20656622.892      395932.684        -592.141          50.000  
  23437670.768       52789.965        -312.850          46.000  
  23852561.299      174049.6593      -5050.587          44.000  
  21561076.996      223349.988        -400.899          48.000  
  23479334.349       -4495.625          94.957          44.000  
  22358218.359      559664.935        -895.736          46.000  
  22622158.635       77673.8883      -4380.567          47.000  
  23372773.862      -19776.7502        639.241          46.000  
  23934993.397      -38240.2832       1212.958          45.000  
 15  3 30 21 19  8.0010000  0 10G23G 9G27G 3G 7G20G10G16G30G19
  20814112.599      299401.405       -2326.838          49.000  
  20656736.397      396527.489        -597.324          50.000  
  23437731.861       53110.253        -328.767          44.000  
  23853524.089      179099.7532      -5050.607          43.000  
  21561153.122      223750.579        -400.087          49.000  
  23479316.794       -4591.483          97.133          46.000  
  22358388.935      560559.191        -893.070          47.000  
  22622990.862       82060.9482      -4394.278          46.000  
  23372651.204      -20419.1122        645.559          46.000  
  23934763.647      -39447.5152       1200.639          46.000  
 15  3 30 21 19  9.0010000  0 10G23G 9G27G 3G 7G20G10G16G30G19
  20814555.826      301729.301       -2328.801          48.000  
  20656850.181      397124.531        -597.153          50.000  
  23437794.699       53442.205        -335.628          44.000  
  23854481.826      184148.1522      -5045.785          44.000  
  21561227.792      224147.875        -396.284          48.000  
  23479297.800       -4691.663         101.083          46.000  
  22358557.932      561448.526        -887.579          47.000  
  22623829.302       86457.8852      -4399.647          47.000  
  23372527.665      -21069.5202        653.578          46.000  
  23934535.555      -40646.2662       1197.226          45.000  
 15  3 30 21 19 10.0010000  0 10G23G 9G27G 3G 7G20G10G16G30G19
  20814997.875      304049.364       -2312.587          48.000  
  20656961.845      397712.190        -579.388          49.000  
  23437856.726       53769.659        -320.794          46.000  
  23855441.780      189182.9592      -5023.872          44.000  
  21561301.580      224532.614        -374.935          48.000  
  23479276.423       -4804.479         123.116          44.000  
  22358724.573      562324.615        -865.719          46.000  
  22624663.413       90850.2212      -4385.947          47.000  
  23372400.811      -21735.4902        677.922          45.000  
  23934306.504      -41852.2802       1213.086          45.000  
 15  3 30 21 19 11.0010000  0 10G23G 9G27G 3G 7G20G10G16G30G19
  20815435.029      306345.656       -2286.794          50.000  
  20657068.771      398274.820        -553.110          49.000  
  23437914.896       54075.529        -298.057          43.000  
  23856393.812      194190.6592      -4998.246          44.000  
  21561369.933      224890.193        -347.302          49.000  
  23479249.681       -4944.445         149.689          46.000  
  22358886.171      563173.281        -838.747          47.000  
  22625497.010       95220.3422      -4360.199          47.000  
  23372268.591      -22430.4312        705.662          46.000  
  23934072.243      -43081.4612       1237.777          46.000  
