     2.10           OBSERVATION DATA    M (MIXED)           RINEX VERSION / TYPE
RTKCONV 2.4.2                           20150402 021120 UTC PGM / RUN BY / DATE 
log: D:\6t\auto_7p.ubx                                      COMMENT             
format: u-blox                                              COMMENT             
                                                            MARKER NAME         
                                                            MARKER NUMBER       
                                                            OBSERVER / AGENCY   
                                                            REC # / TYPE / VERS 
                                                            ANT # / TYPE        
 -2508116.8020 -4659829.1132  3548490.5245                  APPROX POSITION XYZ 
        0.0000        0.0000        0.0000                  ANTENNA: DELTA H/E/N
     1     1                                                WAVELENGTH FACT L1/2
     4    C1    L1    D1    S1                              # / TYPES OF OBSERV 
  2015     4     2     0     4   24.0000000     GPS         TIME OF FIRST OBS   
  2015     4     2     1    27   21.0000000     GPS         TIME OF LAST OBS    
                                                            END OF HEADER       
 15  4  2  0  4 24.0000000  0  9G30G20G28G 7G 5G 9G13G17G10
  20460605.093      -10322.4733        832.028          17.000  
  25076992.524      437458.9733      -1801.814           5.000  
  20854753.667       -5084.3793        727.095          15.000  
  21045000.461       14713.1223       -602.065          15.000  
  24770535.343       21730.2213      -1011.834          22.000  
  23627628.533       65449.7523      -3066.196          27.000  
  22584259.859      -67874.9233       3316.870          10.000  
  22827502.737     -189736.0482       3874.327          34.000  
  25564509.954       43216.7253      -1942.859          23.000  
 15  4  2  0  4 25.0000000  0  8G30G20G28G 7G 5G 9G17G10
  20460444.446      -11156.1783        839.136          17.000  
  25077338.824      439276.6643      -1819.438           5.000  
  20854612.286       -5824.8633        750.038          15.000  
  21045115.231       15321.0393       -613.625          14.000  
  24770728.290       22745.1733      -1011.038          21.000  
  23628212.121       68510.9483      -3057.400          27.000  
  22826764.034     -193615.3902       3883.359          32.000  
  25564877.351       45154.3283      -1932.775          26.000  
 15  4  2  0  4 26.0000000  0  7G30G20G28G 5G 9G17G10
  20460285.859      -11988.2283        828.790          15.000  
  25077688.631      441095.9983      -1819.219           6.000  
  20854469.857       -6575.3043        761.594          15.000  
  24770919.527       23753.7683      -1002.073          22.000  
  23628795.167       71562.5693      -3046.385          27.000  
  22826023.936     -197504.0932       3894.009          33.000  
  25565244.364       47081.8773      -1921.678          26.000  
 15  4  2  0  4 27.0000000  0  8G30G20G28G 5G 9G17G10G11
  20460121.460      -12834.7873        858.828          16.000  
  25078034.512      442915.1133      -1818.999           6.000  
  20854323.851       -7341.6173        774.623          16.000  
  24771107.082       24750.8013       -997.771          22.000  
  23629375.055       74603.5383      -3036.439          26.000  
  22825281.673     -201403.3602       3904.560          32.000  
  25565610.382       48998.5763      -1911.538          26.000  
  22997516.980      -10265.3093       1807.291           9.000  
 15  4  2  0  4 28.0000000  0  6G30G28G 5G 9G17G10
  20459956.277      -13702.8853        875.466          16.000  
  20854177.618       -8117.4133        790.026          17.000  
  24771293.589       25738.8043       -985.376          23.000  
  23629950.913       77634.2793      -3024.477          26.000  
  22824537.352     -205312.8282       3914.802          32.000  
  25565971.986       50904.5403      -1898.433          26.000  
 15  4  2  0  4 29.0000000  0  6G30G28G 5G 9G17G10
  20459788.824      -14579.7933        879.497          17.000  
  20854024.824       -8907.6883        790.329          17.000  
  24771477.689       26719.1953       -979.073          24.000  
  23630522.843       80657.1693      -3022.140          25.000  
  22823795.787     -209230.3462       3919.377          32.000  
  25566332.943       52802.0613      -1894.389          27.000  
 15  4  2  0  4 30.0000000  0  6G30G28G 5G 9G17G10
  20459621.442      -15461.3113        884.276          16.000  
  20853873.583       -9698.0353        803.077          16.000  
  24771664.250       27694.5743       -969.531          25.000  
  23631093.117       83675.1223      -3014.729          26.000  
  22823048.098     -213152.5532       3925.673          32.000  
  25566691.057       54694.3713      -1887.547          26.000  
 15  4  2  0  4 31.0000000  0  6G30G28G 5G 9G17G10
  20459450.848      -16350.7803        891.621          14.000  
  20853718.747      -10501.4093        803.896          14.000  
  24771845.645       28663.2393       -964.101          24.000  
  23631663.320       86683.7453      -3003.243          25.000  
  22822299.449     -217084.187        3937.312          32.000  
  25567048.786       56577.4113      -1877.079          25.000  
 15  4  2  0  4 32.0000000  0  7G30G28G 7G 5G 9G17G10
  20459278.597      -17251.4863        900.097          15.000  
  20853564.068      -11324.0603        835.145          13.000  
  21045883.180        3137.0043       -537.107          14.000  
  24772029.640       29618.0943       -946.658          25.000  
  23632234.867       89682.0673      -2991.224          24.000  
  22821551.358     -221026.093        3946.977          32.000  
  25567405.277       58449.2513      -1866.694          25.000  
 15  4  2  0  4 33.0000000  0  8G30G20G28G 7G 5G 9G17G10
  20459105.718      -18156.1353        912.596          15.000  
  25079782.500        4589.2243      -1643.298          24.000  
  20853410.384      -12146.5763        850.453          12.000  
  21045983.623        3659.2473       -520.891          12.000  
  24772209.551       30563.8273       -941.448          26.000  
  23632804.721       92672.9103      -2987.198          23.000  
  22820800.806     -224977.408        3955.148          34.000  
  25567759.237       60311.6263      -1858.987          24.000  
 15  4  2  0  4 34.0000000  0  9G30G20G28G 7G 5G 9G17G10G11
  20458934.566      -19066.5373        910.069          16.000  
  25080087.216        6230.9113      -1637.052          24.000  
  20853256.526      -12973.1443        830.418          15.000  
  21046082.967        4180.1433       -520.891          11.000  
  24772390.109       31502.1663       -933.533          26.000  
  23633373.825       95654.4223      -2977.515          24.000  
  22820048.510     -228935.967        3962.047          34.000  
  25568109.114       62166.0273      -1850.330          24.000  
  22995084.751      -23030.1753       1847.632           7.000  
 15  4  2  0  4 35.0000000  0  9G30G20G28G 7G 5G 9G17G10G11
  20458758.843      -19990.1103        928.866          15.000  
  25080401.232        7867.2283      -1632.288          26.000  
  20853099.770      -13802.6053        828.305          16.000  
  21046183.742        4701.0403       -520.891          11.000  
  24772565.082       32433.8163       -929.194          24.000  
  23633939.369       98628.5443      -2970.289          26.000  
  22819290.542     -232901.170        3968.192          33.000  
  25568461.504       64013.2843      -1844.021          25.000  
  22994732.938      -24879.3803       1850.964           7.000  
 15  4  2  0  4 36.0000000  0  8G30G20G 7G 5G 9G17G10G11
  20458584.340      -20912.3163        920.758          15.000  
  25080709.682        9495.0933      -1620.649          25.000  
  21046280.486        5221.9363       -520.891          12.000  
  24772742.080       33360.8873       -927.621          23.000  
  23634505.262      101595.9923      -2960.377          24.000  
  22818534.529     -236872.7753       3975.992          27.000  
  25568812.759       65852.5083      -1829.817          24.000  
  22994382.380      -26731.9183       1854.297           7.000  
 15  4  2  0  4 37.0000000  0  7G20G 7G 5G 9G17G10G11
  25081016.509       11131.1583      -1620.649          22.000  
  21046373.863        5727.4253       -503.262          13.000  
  24772916.599       34280.6253       -907.953          22.000  
  23635068.363      104553.9163      -2956.366          25.000  
  22817777.783     -240853.0513       3981.736          26.000  
  25569160.577       67689.1813      -1829.003          22.000  
  22994031.090      -28582.0433       1850.945           8.000  
 15  4  2  0  4 38.0000000  0  9G30G20G28G 7G 5G 9G17G10G11
  20458229.577      -22778.5953        938.873          14.000  
  25081318.416       12742.5943      -1605.236          21.000  
  20852618.424      -16328.2463        853.658          17.000  
  21046470.868        6229.8423       -501.492           9.000  
  24773091.765       35191.0403       -903.776          21.000  
  23635628.620      107504.3453      -2940.174          25.000  
  22817015.313     -244841.5703       3991.808          26.000  
  25569505.655       69506.2133      -1825.163          21.000  
  22993676.536      -30434.2443       1853.606           7.000  
 15  4  2  0  4 39.0000000  0  7G20G 7G 5G 9G17G10G11
  25081611.928       14333.9413      -1589.515          29.000  
  21046563.529        6730.4903       -499.722           9.000  
  24773261.311       36079.7403       -883.605          22.000  
  23636184.444      110431.4433      -2927.726          23.000  
  22816252.896     -248845.4613       3977.172          27.000  
  25569849.145       71311.6673      -1806.524          21.000  
  22993324.513      -32289.1073       1856.267           7.000  
 15  4  2  0  4 40.0000000  0  7G20G28G 5G 9G13G17G10
  25081916.923       15930.9073      -1597.278          18.000  
  20852282.018      -18086.6783        899.486          16.000  
  24773433.562       36978.8113       -900.071          22.000  
  23636740.565      113368.5953      -2938.283          22.000  
  22573537.625      -15768.0623       3557.191          17.000  
  22815496.010     -252829.6213       3980.998          24.000  
  25570193.630       73122.4263      -1817.898          20.000  
 15  4  2  0  4 41.0000000  0  7G20G28G 5G 9G13G17G10
  25082224.710       17538.1723      -1596.746          17.000  
  20852113.379      -18967.1083        882.598          15.000  
  24773603.457       37879.7013       -884.184          20.000  
  23637298.763      116309.1073      -2945.638          20.000  
  22572859.719      -19321.1863       3551.674          16.000  
  22814733.819     -256819.7353       4006.315          23.000  
  25570540.226       74944.5973      -1810.457          18.000  
 15  4  2  0  4 42.0000000  0  5G20G 5G 9G17G10
  25082524.051       19107.7423      -1565.496          13.000  
  24773775.796       38788.6683       -917.235          16.000  
  23637860.957      119258.3153      -2946.481          17.000  
  22813974.770     -260804.5823       3965.324          23.000  
  25570888.113       76772.8633      -1841.706          15.000  
 15  4  2  0  4 43.0000000  0  6G20G 5G 9G13G17G10
  25082827.982       20695.7393      -1627.996          11.000  
  24773952.584       39706.4033       -906.315          17.000  
  23638424.948      122211.0543      -2957.012          16.000  
  22571509.247      -26405.7313       3537.255          11.000  
  22813216.959     -264778.1283       3971.388          22.000  
  25571240.904       78623.1333      -1872.957          12.000  
 15  4  2  0  4 44.0000000  0  7G20G28G 5G 9G13G17G10
  25083140.009       22327.9463      -1629.664          13.000  
  20851594.218      -21697.5433        913.848           7.000  
  24774125.777       40614.0913       -926.321          15.000  
  23638988.241      125176.0903      -2968.931          17.000  
  22570838.967      -29942.9843       3537.255           8.000  
  22812461.592     -268748.0653       3970.626          22.000  
  25571595.859       80496.0913      -1872.957           9.000  
 15  4  2  0  4 45.0000000  0  8G30G20G28G 5G 9G13G17G10
  20456920.270       -5152.1003       1004.774          12.000  
  25083450.832       23953.2343      -1598.414          14.000  
  20851420.728      -22611.3903        913.848           9.000  
  24774302.897       41533.7953       -921.061          16.000  
  23639550.679      128131.2533      -2941.176          19.000  
  22570167.343      -33480.2363       3537.255           8.000  
  22811700.954     -272733.9933       3997.868          22.000  
  25571954.479       82369.0503      -1872.957          12.000  
 15  4  2  0  4 46.0000000  0  6G20G28G 5G 9G17G10
  25083754.606       25551.6543      -1598.414          11.000  
  20851249.419      -23517.9073        905.028           9.000  
  24774479.266       42454.8583       -921.061          14.000  
  23640110.691      131071.2493      -2935.542          20.000  
  22810942.533     -276731.5423       3993.873          20.000  
  25572315.018       84259.3213      -1892.758          13.000  
 15  4  2  0  4 47.0000000  0  6G20G28G 5G 9G17G10
  25084060.595       27138.2203      -1597.386          11.000  
  20851079.332      -24422.5053        904.137           8.000  
  24774654.798       43375.9213       -921.061          11.000  
  23640669.726      134008.1323      -2924.176          19.000  
  22810184.321     -280729.6273       3972.445          19.000  
  25572673.079       86153.0513      -1894.760          11.000  
 15  4  2  0  4 48.0000000  0  6G20G28G 5G 9G17G10
  25084365.433       28739.9433      -1603.546          12.000  
  20850908.407      -25326.2113        903.246           7.000  
  24774830.190       44296.9853       -921.061           8.000  
  23641229.180      136943.7613      -2937.712          17.000  
  22809426.859     -284715.4003       3983.994          17.000  
  25573031.349       88048.7833      -1896.762           9.000  
 15  4  2  0  4 49.0000000  0  5G20G28G 5G17G10
  25084664.687       30343.2253      -1595.953          14.000  
  20850736.261      -26242.4113        917.799           7.000  
  24775000.993       45201.2733       -901.270           8.000  
  22808666.361     -288703.7933       3988.829          17.000  
  25573389.934       89933.3603      -1883.329           8.000  
 15  4  2  0  4 50.0000000  0  5G20G28G 9G17G10
  25084972.997       31923.2383      -1576.057          19.000  
  20850561.793      -27160.5233        918.458           8.000  
  23642347.739      142815.5163      -2919.296          19.000  
  22807899.180     -292717.8773       4016.873          29.000  
  25573751.066       91816.9103      -1883.780           6.000  
 15  4  2  0  4 51.0000000  0  6G20G28G 5G 9G17G10
  25085272.338       33499.4043      -1567.998          21.000  
  20850386.401      -28079.2953        919.117           8.000  
  24775338.742       46999.8913       -897.290          11.000  
  23642902.307      145733.9593      -2932.983          18.000  
  22807137.077     -296740.1473       4020.865          21.000  
  25574109.895       93700.9123      -1884.232           6.000  
 15  4  2  0  4 52.0000000  0  8G30G20G28G 5G 9G13G17G10
  20455601.505      -12103.7413        983.371           7.000  
  25085573.302       35072.1143      -1562.932          30.000  
  20850208.793      -29015.9053        939.605           8.000  
  24775502.093       47881.1983       -877.737          11.000  
  23643458.463      148656.1783      -2923.043          29.000  
  22565457.860      -58228.8403       3561.666           8.000  
  22806365.550     -300758.5753       4013.219          34.000  
  25574316.017        1174.5063      -1789.906          35.000  
 15  4  2  0  4 53.0000000  0  8G30G20G28G 5G 9G13G17G10
  20455414.281      -13086.3563        981.808           7.000  
  25085876.447       36650.0603      -1577.655          29.000  
  20850031.464      -29956.7843        942.266           8.000  
  24775665.724       48757.1223       -874.750           6.000  
  23644026.520      151579.2243      -2918.799          31.000  
  22564777.668      -61791.7653       3564.327           8.000  
  22805604.738     -304774.1363       4018.057          38.000  
  25574656.767        2963.0523      -1784.979          35.000  
 15  4  2  0  4 54.0000000  0  8G30G20G28G 5G 9G13G17G10
  20455231.141      -14067.4083        980.246           7.000  
  25086174.584       38226.0203      -1577.869          29.000  
  20849851.849      -30900.3253        944.927           8.000  
  24775830.349       49637.2993       -878.740          27.000  
  23644578.383      154497.6403      -2911.845          31.000  
  22564097.703      -65364.0163       3564.573          12.000  
  22804834.904     -308793.3373       4020.331          37.000  
  25574997.430        4747.2563      -1779.529          34.000  
 15  4  2  0  4 55.0000000  0  7G30G20G28G 5G 9G17G10
  20455051.247      -15043.1043        974.310           7.000  
  25086483.139       39800.5943      -1574.116          29.000  
  20849667.382      -31859.8463        962.962           8.000  
  24775994.626       50514.6053       -876.725          28.000  
  23645130.438      157413.6553      -2916.247          31.000  
  22804073.080     -312813.6223       4019.691          37.000  
  25575335.581        6530.4172      -1783.090          33.000  
 15  4  2  0  4 56.0000000  0  8G30G20G28G 5G 9G17G10G11
  20454870.027      -16016.4493        972.308          15.000  
  25086776.320       41374.2433      -1573.884          29.000  
  20849483.422      -32824.8273        967.173           9.000  
  24776151.939       51391.9093       -877.585          28.000  
  23645685.547      160330.1722      -2917.231          32.000  
  22803305.340     -316834.1192       4019.965          37.000  
  25575675.912        8312.7902      -1782.132          33.000  
  22986911.000       -6396.1383       1969.244          20.000  
 15  4  2  0  4 57.0000000  0  9G30G20G28G 5G 9G13G17G10G11
  20454685.403      -16987.7913        970.306          15.000  
  25087076.621       42946.5032      -1570.332          30.000  
  20849298.816      -33794.0183        971.385           9.000  
  24776324.487       52268.3223       -875.774          28.000  
  23646243.814      163245.5162      -2914.342          31.000  
  22562037.391       -8219.2973       3573.876          25.000  
  22802540.619     -320855.7092       4022.932          37.000  
  25576014.150       10093.7972      -1779.766          34.000  
  22986522.139       -8364.2533       1965.084          21.000  
 15  4  2  0  4 58.0000000  0  9G30G20G28G 5G 9G13G17G10G11
  20454504.689      -17959.0793        970.547          15.000  
  25087369.279       44515.8902      -1566.975          32.000  
  20849109.516      -34778.8043        988.736           9.000  
  24776490.160       53142.1103       -872.350          29.000  
  23646798.016      166158.2322      -2911.687          32.000  
  22561356.361      -11797.0323       3580.491          26.000  
  22801773.072     -324879.8302       4025.508          37.000  
  25576352.858       11871.7192      -1776.332          33.000  
  22986136.035      -10331.9293       1968.081          22.000  
 15  4  2  0  4 59.0000000  0  8G30G20G 5G 9G13G17G10G11
  20454323.207      -18928.7663        968.764          15.000  
  25087670.661       46082.4322      -1565.544          32.000  
  24776658.380       54013.3823       -871.012          28.000  
  23647348.623      169068.1852      -2908.515          31.000  
  22560662.453      -15377.4063       3581.159          25.000  
  22801008.386     -328906.5042       4027.364          38.000  
  25576689.735       13646.5602      -1773.171          33.000  
  22985760.472      -12301.5913       1977.281          21.000  
 15  4  2  0  5  0.0000000  0  8G30G20G 5G 9G13G17G10G11
  20454140.276      -19896.6703        966.982          15.000  
  25087975.953       47647.0373      -1564.173          31.000  
  24776819.498       54882.9953       -869.281          27.000  
  23647902.318      171976.3212      -2907.373          32.000  
  22559976.642      -18957.2443       3586.810          23.000  
  22800241.483     -332934.9062       4028.909          38.000  
  25577026.367       15419.3312      -1771.652          33.000  
  22985385.502      -14277.7423       1981.612          21.000  
 15  4  2  0  5  1.0000000  0  9G30G20G 7G 5G 9G13G17G10G11
  20453957.729      -20872.3853        976.258          15.000  
  25088261.753       49209.9713      -1561.523          31.000  
  21048470.349        2327.1513       -453.125          20.000  
  24776985.222       55751.3723       -866.782          28.000  
  23648454.827      174883.0692      -2903.624          31.000  
  22559290.779      -22547.5653       3584.961          19.000  
  22799475.018     -336964.6202       4033.056          38.000  
  25577363.156       17190.3192      -1767.169          33.000  
  22985011.718      -16252.8233       1979.718          20.000  
 15  4  2  0  5  2.0000000  0 10G30G20G28G 7G 5G 9G13G17G10G11
  20453776.299      -21848.3223        993.218           9.000  
  25088568.388       50769.3652      -1558.024          30.000  
  20848611.801       -1958.8643        903.314          23.000  
  21048559.450        2776.4883       -442.339          20.000  
  24777149.917       56616.6513       -863.591          26.000  
  23649007.388      177786.6092      -2902.492          30.000  
  22558601.879      -26135.6293       3596.905          16.000  
  22798707.679     -340997.4462       4033.553          38.000  
  25577700.068       18957.7472      -1765.991          33.000  
  22984629.541      -18228.5833       1977.207          19.000  
 15  4  2  0  5  3.0000000  0 10G30G20G28G 7G 5G 9G13G17G10G11
  20453590.263      -22841.2183        988.911          16.000  
  25088861.063       52324.4842      -1555.681          30.000  
  20848433.896       -2860.7813        907.217          21.000  
  21048644.904        3215.7803       -433.823          19.000  
  24777312.658       57475.3853       -853.618          24.000  
  23649559.565      180685.9912      -2898.550          30.000  
  22557918.197      -29727.4023       3589.631          17.000  
  22797940.201     -345034.3002       4037.810          37.000  
  25578035.757       20720.6942      -1762.185          33.000  
  22984250.627      -20211.1763       1983.277          18.000  
 15  4  2  0  5  4.0000000  0 10G30G20G28G 7G 5G 9G13G17G10G11
  20453403.475      -23833.3583        993.178          19.000  
  25089154.663       53876.6832      -1552.767          30.000  
  20848273.721       -3765.8183        910.314          21.000  
  21048734.458        3662.7653       -440.382          20.000  
  24777473.305       58334.8483       -863.824          22.000  
  23650112.824      183582.5802      -2896.233          31.000  
  22557242.490      -33315.7103       3585.401          17.000  
  22797171.519     -349073.8092       4039.636          37.000  
  25578371.203       22480.5512      -1759.642          34.000  
  22983875.447      -22185.9203       1973.129          16.000  
 15  4  2  0  5  5.0000000  0  9G20G28G 7G 5G 9G13G17G10G11
  25089448.437       55426.3272      -1547.701          32.000  
  20848100.667       -4671.7453        913.261          23.000  
  21048818.760        4100.3443       -439.967          20.000  
  24777635.086       59191.7743       -857.454          23.000  
  23650668.544      186476.8432      -2892.240          32.000  
  22556558.843      -36911.2183       3594.560          17.000  
  22796402.627     -353115.4602       4043.272          39.000  
  25578705.863       24237.6922      -1753.962          35.000  
  22983494.718      -24171.0463       1983.350          17.000  
 15  4  2  0  5  6.0000000  0  8G20G28G 7G 5G 9G13G17G10
  25089739.263       56970.9832      -1541.956          32.000  
  20847929.062       -5582.9483        908.759          23.000  
  21048899.258        4534.2833       -437.145          21.000  
  24777797.757       60048.4593       -851.060          21.000  
  23651212.694      189366.2582      -2885.818          32.000  
  22555877.150      -40506.7213       3605.277          18.000  
  22795632.218     -357161.9402       4049.592          38.000  
  25579039.232       25989.6152      -1749.141          32.000  
 15  4  2  0  5  7.0000000  0  9G20G28G 1G 7G 5G 9G13G17G10
  25090028.116       58510.0503      -1536.123          30.000  
  20847757.125       -6497.8503        917.066          22.000  
  24438336.315      -32055.9083       3029.143          18.000  
  21048978.238        4965.8873       -426.175          20.000  
  24777958.543       60898.8513       -849.481          18.000  
  23651764.645      192250.439       -2882.452          32.000  
  22555188.198      -44111.7963       3606.130          19.000  
  22794860.936     -361213.536        4052.642          37.000  
  25579372.619       27736.0092      -1744.226          35.000  
 15  4  2  0  5  8.0000000  0 10G30G20G28G 7G 5G 9G13G17G10G11
  20452639.138      -27848.3843       1017.165          18.000  
  25090325.031       60044.0232      -1530.996          31.000  
  20847584.734       -7417.2543        918.924          22.000  
  21049057.340        5389.1073       -418.914          20.000  
  24778115.752       61744.4853       -844.404          17.000  
  23652309.248      195129.534       -2874.756          32.000  
  22554500.363      -47720.9183       3606.001          21.000  
  22794089.671     -365270.041        4060.316          38.000  
  25579703.806       29477.0922      -1737.325          34.000  
  22982354.678      -30152.1303       2000.516          16.000  
 15  4  2  0  5  9.0000000  0 10G30G20G28G 7G 5G 9G13G17G10G11
  20452448.059      -28864.1833       1033.528          18.000  
  25090617.026       61572.8733      -1526.066          30.000  
  20847408.487       -8344.8963        928.979          25.000  
  21049135.220        5807.2623       -419.717          19.000  
  24778278.161       62585.2073       -839.988          18.000  
  23652860.012      198003.894       -2872.715          33.000  
  22553814.098      -51335.8513       3619.137          21.000  
  22793317.446     -369331.234        4063.459          38.000  
  25580034.087       31212.9712      -1733.922          35.000  
  22981965.625      -32152.6453       2000.516          14.000  
 15  4  2  0  5 10.0000000  0 10G30G20G28G 7G 5G 9G13G17G10G11
  20452255.705      -29888.5793       1027.991          20.000  
  25090905.077       63096.4413      -1520.576          29.000  
  20847228.959       -9276.9883        935.758          27.000  
  21049213.798        6222.0653       -404.783          19.000  
  24778438.093       63418.9473       -831.875          20.000  
  23653405.017      200873.021       -2866.241          33.000  
  22553122.022      -54954.1583       3626.949          21.000  
  22792543.337     -373397.448        4069.507          38.000  
  25580363.564       32943.3532      -1726.978          34.000  
  22981590.062      -34142.8063       1960.021          14.000  
 15  4  2  0  5 11.0000000  0 10G30G20G28G 7G 5G 9G13G17G10G11
  20452062.409      -30918.8823       1040.772          21.000  
  25091192.255       64613.6553      -1513.325          28.000  
  20847050.059      -10214.9243        941.701          27.000  
  21049289.427        6627.8853       -406.263          20.000  
  24778596.436       64248.0473       -828.572          18.000  
  23653949.953      203736.046       -2859.527          33.000  
  22552430.191      -58581.2673       3621.516          21.000  
  22791768.286     -377469.670        4075.617          39.000  
  25580691.558       34667.3002      -1719.986          35.000  
  22981220.257      -36102.8243       1960.021          12.000  
 15  4  2  0  5 12.0000000  0 10G30G20G28G 7G 5G 9G13G17G10G11
  20451867.699      -31952.9153       1041.332          22.000  
  25091477.828       66123.6563      -1506.726          28.000  
  20846868.839      -11159.8203        948.203          28.000  
  21049367.552        7034.6433       -398.318          20.000  
  24778748.061       65066.2073       -816.241          15.000  
  23654492.969      206591.982       -2852.222          33.000  
  22551739.093      -62211.7453       3634.839          20.000  
  22790992.048     -381548.943        4083.356          39.000  
  25581018.541       36383.7872      -1711.931          35.000  
  22980847.119      -38062.8433       1960.021          10.000  
 15  4  2  0  5 13.0000000  0 10G30G20G28G 7G 5G 9G13G17G10G11
  20451669.273      -32993.6953       1054.638          21.000  
  25091761.516       67626.9251      -1499.824          28.000  
  20846689.852      -12111.1393        955.703          28.000  
  21049437.772        7429.4693       -395.515          20.000  
  24778899.808       65884.5063       -819.010          16.000  
  23655035.182      209441.395       -2845.656          33.000  
  22551045.359      -65848.1273       3640.365          20.000  
  22790214.815     -385634.576        4090.417          39.000  
  25581343.865       38093.404       -1705.073          35.000  
  22980469.077      -40039.8153       1979.852          10.000  
 15  4  2  0  5 14.0000000  0  8G20G28G 7G 5G 9G13G17G10
  25092050.195       69123.1811      -1493.002          28.000  
  20846508.509      -13068.9123        960.243          29.000  
  21049511.202        7822.1703       -382.238          20.000  
  24779051.729       66694.5783       -807.272          18.000  
  23655576.522      212284.105       -2839.630          33.000  
  22550352.394      -69488.4633       3631.114          19.000  
  22789435.558     -389726.763        4096.095          40.000  
  25581668.230       39796.023       -1698.907          36.000  
 15  4  2  0  5 15.0000000  0  8G20G28G 7G 5G 9G13G17G10
  25092332.592       70611.8141      -1484.844          28.000  
  20846318.808      -14034.1483        968.557          28.000  
  21049582.835        8200.6583       -375.979          21.000  
  24779202.464       67495.9113       -801.260          21.000  
  23656115.490      215119.329       -2832.233          33.000  
  22549656.671      -73138.5333       3656.943          18.000  
  22788655.045     -393826.315        4102.414          39.000  
  25581991.338       41490.824       -1691.689          35.000  
 15  4  2  0  5 16.0000000  0  9G30G20G28G 7G 5G 9G13G17G10
  20451071.428      -36161.5943       1069.443          24.000  
  25092611.150       72092.7761      -1477.063          26.000  
  20846136.837      -15006.7213        976.378          28.000  
  21049651.293        8571.7623       -372.075          20.000  
  24779353.967       68289.7823       -794.605          22.000  
  23656653.637      217946.952       -2823.660          32.000  
  22548961.559      -76794.4543       3664.997          18.000  
  22787872.315     -397933.407        4111.087          39.000  
  25582312.823       43177.643       -1682.062          36.000  
 15  4  2  0  5 17.0000000  0  9G30G20G28G 7G 5G 9G13G17G10
  20450872.007      -37230.9683       1065.526          24.000  
  25092889.289       73565.8351      -1469.698          25.000  
  20845949.544      -15986.6703        982.246          28.000  
  21049717.987        8940.3873       -362.103          19.000  
  24779510.147       69084.1553       -782.820          21.000  
  23657189.935      220767.110       -2817.427          32.000  
  22548262.835      -80461.9343       3664.078          20.000  
  22787089.254     -402047.840        4117.370          38.000  
  25582632.442       44856.698       -1676.158          35.000  
 15  4  2  0  5 18.0000000  0  9G30G20G28G 5G 9G13G17G10G11
  20450666.740      -38308.0343       1067.523          24.000  
  25093166.433       75032.7223      -1464.182          23.000  
  20845759.249      -16972.7233        988.618          28.000  
  24779659.678       69868.3833       -765.413          18.000  
  23657725.203      223581.002       -2811.906          32.000  
  22547565.768      -84130.6663       3673.217          22.000  
  22786305.164     -406168.404        4122.797          38.000  
  25582951.013       46529.104       -1670.201          35.000  
  22978503.642       -6686.3483       2059.010          18.000  
 15  4  2  0  5 19.0000000  0 10G30G20G28G 7G 5G 9G13G17G10G11
  20450463.306      -39385.1743       1082.754          23.000  
  25093444.031       76494.6893      -1458.209          21.000  
  20845568.972      -17964.1433        993.733          28.000  
  21049850.679        9675.2373       -350.131          15.000  
  24779805.875       70634.1953       -762.912          18.000  
  23658257.574      226389.364       -2806.617          32.000  
  22546868.841      -87807.5033       3673.549          22.000  
  22785520.515     -410294.379        4128.181          38.000  
  25583267.786       48195.688       -1664.789          35.000  
  22978106.876       -8750.1603       2063.443          19.000  
 15  4  2  0  5 20.0000000  0 10G30G20G28G 7G 5G 9G13G17G10G11
  20450257.376      -40471.7143       1090.782          23.000  
  25093717.755       77957.3663      -1461.258          19.000  
  20845383.843      -18961.1323       1000.935          28.000  
  21049914.913       10025.3743       -349.344          17.000  
  24779946.332       71395.5963       -739.374          17.000  
  23658792.039      229191.928       -2799.216          32.000  
  22546169.489      -91490.2153       3677.850          23.000  
  22784733.981     -414426.010        4134.986          40.000  
  25583584.368       49856.191       -1657.457          36.000  
  22977710.878      -10820.2433       2071.478          21.000  
 15  4  2  0  5 21.0000000  0 10G30G20G28G 7G 5G 9G13G17G10G11
  20450052.911      -41563.0893       1100.685          22.000  
  25093994.149       79407.3923      -1452.837          20.000  
  20845191.140      -19965.3813       1007.321          28.000  
  21049978.973       10368.0743       -328.195          18.000  
  24780088.848       72158.9703       -762.827          19.000  
  23659322.194      231987.118       -2791.534          33.000  
  22545467.205      -95175.0333       3688.470          22.000  
  22783946.051     -418564.882        4142.735          39.000  
  25583898.978       51508.925       -1648.815          36.000  
  22977311.792      -12895.3773       2078.611          23.000  
 15  4  2  0  5 22.0000000  0 10G30G20G28G 7G 5G 9G13G17G10G11
  20449843.334      -42663.8203       1097.258          22.000  
  25094268.885       80849.0453      -1437.550          23.000  
  20844998.751      -20976.4213       1014.310          29.000  
  21050042.928       10705.1113       -325.432          19.000  
  24780232.324       72917.6993       -754.777          18.000  
  23659853.937      234775.450       -2786.321          34.000  
  22544764.537      -98868.7193       3701.208          23.000  
  22783156.324     -422710.521        4147.740          38.000  
  25584212.018       53154.470       -1643.670          36.000  
  22976910.018      -14981.0073       2091.397          23.000  
 15  4  2  0  5 23.0000000  0 10G30G20G28G 7G 5G 9G13G17G10G11
  20449631.279      -43775.1883       1115.785          22.000  
  25094541.109       82283.6273      -1433.502          22.000  
  20844805.507      -21993.3453       1019.930          29.000  
  21050106.307       11037.6173       -322.576          19.000  
  24780372.432       73665.3523       -739.661          18.000  
  23660383.429      237557.607       -2779.406          32.000  
  22544057.908     -102570.8183       3703.599          23.000  
  22782367.051     -426862.232        4154.785          37.000  
  25584523.207       54793.498       -1635.667          35.000  
  22976512.101      -17071.0533       2081.231          23.000  
 15  4  2  0  5 24.0000000  0 10G30G20G28G 7G 5G 9G13G17G10G11
  20449420.934      -44886.7013       1106.049          22.000  
  25094819.876       83725.2333      -1410.908          19.000  
  20844613.032      -23016.4323       1025.538          28.000  
  21050167.837       11363.3763       -323.077          21.000  
  24780513.307       74416.6213       -745.848          17.000  
  23660909.257      240333.444       -2772.801          32.000  
  22543352.361     -106278.1283       3709.012          25.000  
  22781575.596     -431020.056        4160.126          37.000  
  25584833.821       56425.920       -1629.862          35.000  
  22976114.707      -19157.6213       2086.991          21.000  
 15  4  2  0  5 25.0000000  0 11G30G20G28G19G 7G 5G 9G13G17G10G11
  20449206.995      -46004.0723       1114.327          21.000  
  25095103.599       85143.5373      -1430.256          20.000  
  20844418.462      -24045.9743       1026.392          27.000  
  23880619.940       13171.6843      -2242.147          11.000  
  21050229.488       11677.0473       -332.094          22.000  
  24780654.986       75147.9873       -734.162          18.000  
  23661436.812      243103.1153      -2771.471          31.000  
  22542649.449     -109992.3073       3706.779          24.000  
  22780783.147     -435184.074        4161.554          30.000  
  25585142.865       58051.748       -1628.597          36.000  
  22975712.741      -21257.1403       2119.572          19.000  
 15  4  2  0  5 26.0000000  0 11G30G20G28G19G 7G 5G 9G13G17G10G11
  20448992.008      -47126.5773       1115.882          20.000  
  25095373.467       86561.1963      -1414.501          29.000  
  20844223.455      -25078.2003       1040.381          24.000  
  23881035.412       15421.5003      -2235.057          14.000  
  21050286.934       11988.6143       -307.841          23.000  
  24780796.926       75880.1653       -728.164          21.000  
  23661963.669      245867.3503      -2760.141          21.000  
  22541942.069     -113705.0333       3728.802          23.000  
  22779989.633     -439353.0933       4177.308          31.000  
  25585450.355       59672.390       -1616.078          34.000  
  22975309.694      -23368.3193       2106.466          19.000  
 15  4  2  0  5 27.0000000  0 12G30G20G28G19G 7G 4G 5G 9G13G17G10G11
  20448779.517      -48251.3693       1131.216          20.000  
  25095628.886       87971.4113      -1401.107          29.000  
  20844027.455      -26121.2463       1044.509          22.000  
  23881459.732       17666.6453      -2240.145          14.000  
  21050342.984       12295.5923       -304.845          22.000  
  24316807.380      -11276.3933       2332.937          11.000  
  24780944.572       76604.1443       -715.507          31.000  
  23662487.995      248629.5653      -2751.705          20.000  
  22541230.065     -117431.8213       3724.886          21.000  
  22779195.962     -443526.8003       4182.803          27.000  
  25585757.339       61287.094       -1605.960          33.000  
  22974908.164      -25481.2403       2116.241          18.000  
 15  4  2  0  5 28.0000000  0 12G30G20G28G19G 7G 4G 5G 9G13G17G10G11
  20448563.884      -49385.1133       1136.067          19.000  
  25095893.099       89374.9463      -1400.961          29.000  
  20843827.685      -27167.8393       1066.149          19.000  
  23881888.187       19906.7943      -2240.145          12.000  
  21050396.434       12594.4033       -302.894          21.000  
  24316374.911      -13584.2623       2301.687           9.000  
  24781086.198       77323.5183       -716.302          30.000  
  23663012.566      251383.6933      -2759.033          19.000  
  22540515.584     -121159.7053       3725.333          21.000  
  22778404.839     -447706.9592       4183.439          32.000  
  25586062.805       62895.368       -1603.752          33.000  
  22974506.251      -27598.0583       2117.270          17.000  
 15  4  2  0  5 29.0000000  0 12G30G20G28G19G 7G 4G 5G 9G13G17G10G11
  20448348.549      -50526.8013       1145.863          20.000  
  25096167.068       90771.7622      -1392.989          29.000  
  20843627.531      -28220.9353       1062.205          18.000  
  23882311.547       22146.9433      -2240.145          11.000  
  21050453.549       12892.3053       -292.693          21.000  
  24315931.379      -15897.2573       2332.937           8.000  
  24781213.742       78035.8663       -708.504          30.000  
  23663536.003      254129.4423      -2743.990          18.000  
  22539802.428     -124894.6183       3738.775          29.000  
  22777603.368     -451893.7053       4189.994          31.000  
  25586367.364       64496.599       -1598.488          34.000  
  22974101.824      -29718.2723       2123.260          16.000  
 15  4  2  0  5 30.0000000  0 11G30G20G28G19G 7G 5G 9G13G17G10G11
  20448130.857      -51673.3823       1150.458          21.000  
  25096430.287       92164.2012      -1391.680          38.000  
  20843428.057      -29276.8793       1059.325          18.000  
  23882738.379       24387.0933      -2240.145          10.000  
  21050512.007       13186.5393       -281.218          21.000  
  24781360.655       78744.4663       -707.743          20.000  
  23664058.253      256871.0763      -2739.445          33.000  
  22539095.956     -128631.7673       3736.703          22.000  
  22776806.661     -456085.0512       4190.761          34.000  
  25586671.259       66093.191       -1594.748          34.000  
  22973698.236      -31838.8473       2133.611          16.000  
 15  4  2  0  5 31.0000000  0 11G30G20G28G19G 7G 5G 9G13G17G10G11
  20447909.484      -52827.1273       1154.565          23.000  
  25096693.576       93553.3562      -1385.880          37.000  
  20843234.238      -30335.2963       1060.471          18.000  
  23883163.711       26621.5803      -2233.539          10.000  
  21050570.361       13473.1543       -287.231          21.000  
  24781488.705       79447.1423       -695.371          21.000  
  23664581.079      259609.3623      -2732.639          30.000  
  22538383.621     -132376.5623       3745.647          21.000  
  22776011.786     -460277.9083       4193.665          23.000  
  25586974.003       67685.2863      -1593.515          33.000  
  22973292.972      -33964.7213       2151.564          16.000  
 15  4  2  0  5 32.0000000  0 11G30G20G28G19G 7G 5G 9G13G17G10G11
  20447690.152      -53978.7583       1164.916          21.000  
  25096960.721       94938.0693      -1382.755          35.000  
  20843020.944      -31403.3483       1080.423          20.000  
  23883589.217       28854.8123      -2232.880           8.000  
  21050623.654       13749.6763       -277.731          21.000  
  24781618.499       80149.3903       -695.674          23.000  
  23665099.630      262341.8023      -2735.410          25.000  
  22537674.043     -136123.5343       3745.126          21.000  
  22775212.078     -464476.5263       4201.859          29.000  
  25587277.061       69274.5473      -1587.789          36.000  
  22972887.080      -36096.3333       2149.064          17.000  
 15  4  2  0  5 33.0000000  0 11G30G20G28G19G 7G 5G 9G13G17G10G11
  20447464.468      -55142.2413       1169.739          23.000  
  25097220.537       96320.6623      -1369.483          26.000  
  20842810.913      -32479.7703       1078.311          22.000  
  23884013.938       31087.3853      -2232.220           8.000  
  21050678.919       14033.2363       -284.750          19.000  
  24781755.327       80844.5413       -700.289          23.000  
  23665625.335      265070.6933      -2727.350          25.000  
  22536959.439     -139878.7543       3754.479          21.000  
  22774414.568     -468677.3353       4201.424          30.000  
  25587577.763       70856.9783      -1582.035          35.000  
  22972480.682      -38233.9523       2132.733          17.000  
 15  4  2  0  5 34.0000000  0 11G30G20G28G19G 7G 5G 9G13G17G10G11
  20447238.558      -56318.4703       1177.360          23.000  
  25097488.712       97690.7533      -1371.107          24.000  
  20842600.899      -33558.8123       1083.542          21.000  
  23884437.385       33306.0963      -2216.148           8.000  
  21050729.472       14300.7423       -256.417          18.000  
  24781884.511       81533.6353       -685.759          23.000  
  23666146.870      267793.5283      -2727.498          26.000  
  22536241.868     -143642.9943       3762.829          21.000  
  22773620.234     -472886.3753       4209.325          23.000  
  25587876.180       72431.5173      -1569.362          34.000  
  22972077.442      -40349.0453       2101.483          16.000  
 15  4  2  0  5 35.0000000  0 11G30G20G28G19G 7G 5G 9G13G17G10G11
  20447014.933      -57493.0753       1175.852          22.000  
  25097755.858       99053.8723      -1363.270          24.000  
  20842396.400      -34645.3603       1095.327          20.000  
  23884855.980       35521.2093      -2213.939           8.000  
  21050781.945       14565.0873       -264.990          18.000  
  24782015.230       82214.7133       -673.448          22.000  
  23666653.938      270511.4673      -2708.123          26.000  
  22535524.106     -147412.9533       3773.052          20.000  
  22772814.645     -477107.0763       4227.763          24.000  
  25588178.400       73996.9842      -1564.251          30.000  
  22971672.510      -42476.8023       2143.306          15.000  
 15  4  2  0  5 36.0000000  0 11G30G20G28G19G 7G 5G 9G13G17G10G11
  20446790.035      -58669.6253       1184.461          20.000  
  25098018.466      100413.6823      -1352.507          24.000  
  20842191.884      -35735.0203       1091.808          18.000  
  23885276.757       37734.1123      -2211.729           8.000  
  21050832.219       14823.4893       -249.270          18.000  
  24782146.648       82891.1183       -674.557          20.000  
  23667164.549      273218.3063      -2704.008          25.000  
  22534806.605     -151190.6373       3773.645          18.000  
  22771998.568     -481333.5363       4226.792          34.000  
  25588470.866       75556.4283      -1557.129          29.000  
  22971264.838      -44627.1023       2151.797          15.000  
 15  4  2  0  5 37.0000000  0 11G30G20G28G19G 7G 5G 9G13G17G10G11
  20446564.962      -59851.4623       1178.074          18.000  
  25098275.281      101763.3393      -1344.493          23.000  
  20841983.441      -36827.9063       1100.510          19.000  
  23885694.289       39931.6273      -2194.126           8.000  
  21050879.491       15074.1013       -240.151          17.000  
  24782273.790       83556.8553       -662.147          20.000  
  23667681.110      275920.0723      -2699.158          25.000  
  22534086.976     -154971.8763       3773.645          16.000  
  22771198.056     -485564.7993       4234.619          23.000  
  25588770.241       77109.3882      -1549.804          33.000  
  22970851.826      -46786.5833       2161.372          13.000  
 15  4  2  0  5 38.0000000  0 11G30G20G28G19G 7G 5G 9G13G17G10G11
  20446338.790      -61038.9303       1192.265          19.000  
  25098527.210      103109.3243      -1337.906          24.000  
  20841775.870      -37924.7083       1100.608          19.000  
  23886110.616       42123.9833      -2190.354          10.000  
  21050927.549       15319.8683       -248.235          18.000  
  24782397.163       84220.0363       -660.666          21.000  
  23668195.962      278615.5373      -2690.920          25.000  
  22533370.365     -158749.7973       3790.200          17.000  
  22770394.858     -489803.9043       4239.606          23.000  
  25589060.194       78656.0092      -1543.558          36.000  
  22970437.156      -48955.3993       2172.418          16.000  
 15  4  2  0  5 39.0000000  0 11G30G20G28G19G 7G 5G 9G13G17G10G11
  20446107.138      -62233.9173       1201.810          22.000  
  25098778.458      104446.4693      -1330.043          23.000  
  20841564.636      -39032.1293       1117.872          19.000  
  23886525.984       44312.5683      -2186.583          10.000  
  21050971.192       15555.2243       -240.706          18.000  
  24782521.269       84874.6523       -654.734          22.000  
  23668706.712      281302.5143      -2691.897          26.000  
  22532650.369     -162531.4363       3788.080          19.000  
  22769588.274     -494045.6363       4249.254          26.000  
  25589350.095       80195.4602      -1539.042          33.000  
  22970025.157      -51130.1473       2174.869          16.000  
 15  4  2  0  5 40.0000000  0 11G30G20G28G19G 7G 5G 9G13G17G10G11
  20445880.181      -63434.2903       1207.803          23.000  
  25099018.590      105781.5423      -1333.335          31.000  
  20841356.856      -40141.3723       1107.365          19.000  
  23886937.931       46491.7873      -2176.280          10.000  
  21051014.294       15790.5593       -239.396          19.000  
  24782650.121       85533.6703       -648.092          22.000  
  23669211.355      283989.2243      -2683.865          25.000  
  22531925.522     -166318.5453       3791.843          19.000  
  22768773.035     -498290.0153       4258.622          32.000  
  25589650.971       81731.9633      -1534.781          32.000  
  22969610.819      -53311.9933       2178.775          16.000  
 15  4  2  0  5 41.0000000  0 11G30G20G28G19G 7G 5G 9G13G17G10G11
  20445644.515      -64642.2153       1208.543          25.000  
  25099273.957      107105.9073      -1323.244          30.000  
  20841144.120      -41259.4193       1112.458          20.000  
  23887350.105       48665.9873      -2171.848          10.000  
  21051056.332       16008.7053       -221.050          18.000  
  24782768.905       86182.5053       -648.779          23.000  
  23669721.547      286663.9783      -2678.774          24.000  
  22531205.439     -170112.3493       3779.438          19.000  
  22767961.059     -502542.5933       4259.884          27.000  
  25589939.144       83262.7283      -1526.281          32.000  
  22969198.732      -55483.0033       2147.243          15.000  
 15  4  2  0  5 42.0000000  0 11G30G20G28G19G 7G 5G 9G13G17G10G11
  20445412.393      -65857.6933       1211.414          24.000  
  25099528.992      108433.7013      -1320.128          28.000  
  20840933.723      -42372.6483       1124.621          20.000  
  23887760.587       50835.7563      -2167.417          10.000  
  21051099.033       16223.5173       -201.135          19.000  
  24782893.901       86831.0843       -649.072          23.000  
  23670226.417      289334.6253      -2668.232          24.000  
  22530487.118     -173897.1723       3786.229          19.000  
  22767149.920     -506806.7853       4268.619          27.000  
  25590230.615       84786.1013      -1521.053          33.000  
  22968781.218      -57663.3973       2182.826          15.000  
 15  4  2  0  5 43.0000000  0 11G30G20G28G19G 7G 5G 9G13G17G10G11
  20445180.270      -67073.9253       1223.206          25.000  
  25099777.116      109756.3933      -1314.376          24.000  
  20840719.452      -43491.1623       1126.352          19.000  
  23888171.661       52995.5073      -2156.457          10.000  
  21051140.512       16438.2423       -206.382          19.000  
  24783015.494       87475.9423       -666.370          25.000  
  23670735.596      292010.3313      -2673.137          25.000  
  22529770.246     -177688.1403       3801.605          20.000  
  22766336.147     -511083.6763       4270.259          27.000  
  25590516.101       86302.0873      -1509.593          35.000  
  22968363.914      -59858.2983       2214.076          14.000  
 15  4  2  0  5 44.0000000  0 11G30G20G28G19G 7G 5G 9G13G17G10G11
  20444949.019      -68301.1853       1221.631          24.000  
  25100026.829      111068.0433      -1314.998          31.000  
  20840506.123      -44621.4333       1127.265          19.000  
  23888580.939       55149.5693      -2151.354           8.000  
  21051178.850       16641.0413       -201.759          20.000  
  24783135.255       88111.7443       -617.132          25.000  
  23671239.262      294667.1783      -2647.461          24.000  
  22529040.704     -181503.1293       3817.273          19.000  
  22765521.082     -515360.9993       4280.212          32.000  
  25590804.832       87808.3953      -1509.768          38.000  
  22967942.840      -62062.6113       2223.413          13.000  
 15  4  2  0  5 45.0000000  0 11G30G20G28G19G 7G 5G 9G13G17G10G11
  20444713.040      -69532.6693       1237.361          24.000  
  25100274.779      112371.9843      -1299.885          27.000  
  20840288.065      -45765.2143       1142.122          19.000  
  23888988.785       57298.5283      -2146.252           8.000  
  21051217.013       16846.5343       -201.294          19.000  
  24783257.057       88738.8223       -637.643          26.000  
  23671742.666      297317.9463      -2645.079          25.000  
  22528314.845     -185320.6703       3817.342          19.000  
  22764703.609     -519649.3363       4295.966          32.000  
  25591086.601       89311.0613      -1509.855          30.000  
  22967528.432      -64244.0513       2192.163          13.000  
 15  4  2  0  5 46.0000000  0 10G30G20G28G 7G 5G 9G13G17G10G11
  20444479.015      -70769.0613       1245.041          22.000  
  25100520.374      113670.4763      -1292.336          27.000  
  20840072.345      -46907.1443       1140.479          19.000  
  21051252.001       17043.6693       -197.248          19.000  
  24783376.731       89367.4323       -614.253          25.000  
  23672245.302      299965.8773      -2643.135          24.000  
  22527589.317     -189145.2143       3831.783          19.000  
  22763885.560     -523935.9873       4301.673          33.000  
  25591372.645       90812.7413      -1496.266          36.000  
  22967111.337      -66437.1993       2229.673          13.000  
 15  4  2  0  5 47.0000000  0 10G30G20G28G 7G 5G 9G13G17G10G11
  20444242.635      -72009.6363       1236.027          24.000  
  25100765.793      114967.1663      -1287.585          37.000  
  20839854.270      -48056.1073       1145.196          21.000  
  21051285.889       17233.1883       -192.332          19.000  
  24783497.277       89988.1213       -606.154          26.000  
  23672746.856      302611.4523      -2640.010          24.000  
  22526861.312     -192975.2673       3831.261          19.000  
  22763070.007     -528221.5083       4273.677          28.000  
  25591656.752       92314.4873      -1505.795          29.000  
  22966685.883      -68665.8803       2220.839          14.000  
 15  4  2  0  5 48.0000000  0 10G30G20G28G 7G 5G 9G13G17G10G11
  20444003.951      -73250.8623       1248.069          24.000  
  25101015.140      116258.8423      -1291.196          31.000  
  20839637.538      -49201.9763       1152.910          21.000  
  21051319.603       17421.2003       -183.083          19.000  
  24783613.147       90603.4723       -617.419          26.000  
  23673244.990      305239.2953      -2634.927          24.000  
  22526131.299     -196809.4763       3836.642          18.000  
  22762260.788     -532509.9523       4291.052          32.000  
  25591940.632       93812.0763      -1487.379          21.000  
  22966259.243      -70892.3983       2229.545          15.000  
 15  4  2  0  5 49.0000000  0 10G30G20G28G 7G 5G 9G13G17G10G11
  20443767.326      -74499.1303       1247.265          23.000  
  25101260.786      117549.1373      -1291.894          40.000  
  20839415.327      -50357.4273       1144.053          20.000  
  21051353.579       17603.1663       -194.272          20.000  
  24783730.709       91216.6233       -613.972          26.000  
  23673745.951      307872.6053      -2651.670          26.000  
  22525402.683     -200636.7263       3835.051          18.000  
  22761442.111     -536800.3063       4284.637          28.000  
  25592233.359       95306.6523      -1491.600          19.000  
  22965833.056      -73124.0463       2223.001          15.000  
 15  4  2  0  5 50.0000000  0 10G30G20G28G 7G 5G 9G13G17G10G11
  20443525.448      -75751.5843       1256.904          26.000  
  25101510.342      118841.1933      -1288.287          29.000  
  20839193.744      -51509.2853       1151.611          20.000  
  21051388.183       17778.9183       -182.648          20.000  
  24783848.410       91830.9773       -605.261          26.000  
  23674245.237      310518.1833      -2632.580          26.000  
  22524673.037     -204474.1873       3833.182          17.000  
  22760616.611     -541090.3033       4308.255          28.000  
  25592526.087       96798.2633      -1491.390          18.000  
  22965405.735      -75365.2373       2242.157          15.000  
 15  4  2  0  5 51.0000000  0 10G30G20G28G 7G 5G 9G13G17G10G11
  20443287.043      -77008.7503       1266.106          25.000  
  25101758.711      120133.7483      -1292.844          20.000  
  20838973.680      -52663.2743       1136.749          19.000  
  21051419.174       17945.0803       -157.140          20.000  
  24783966.985       92442.7273       -631.585          25.000  
  23674739.985      313141.4253      -2622.109          25.000  
  22523946.654     -208298.4373       3822.574          17.000  
  22759797.533     -545396.8553       4299.432          29.000  
  25592812.009       98275.4603      -1485.358          16.000  
  22964976.530      -77605.6833       2265.184          14.000  
 15  4  2  0  5 52.0000000  0 10G30G20G28G 7G 5G 9G13G17G10G11
  20443047.260      -78265.4563       1255.298          23.000  
  25102015.770      121426.6463      -1301.649          18.000  
  20838753.912      -53827.6903       1161.085          19.000  
  21051451.719       18117.2923       -164.696          18.000  
  24784085.594       93063.1263       -601.734          24.000  
  23675239.253      315773.7223      -2633.537          25.000  
  22523219.347     -212121.7093       3827.646          16.000  
  22758980.252     -549695.9673       4290.725          28.000  
  25593098.559       99769.3483      -1493.182          16.000  
  22964545.631      -79857.2323       2248.164          14.000  
 15  4  2  0  5 53.0000000  0 10G30G20G28G 7G 5G 9G13G17G10G11
  20442805.888      -79533.1213       1272.278          22.000  
  25102259.009      122699.9933      -1264.567          18.000  
  20838528.664      -55000.6623       1166.406          19.000  
  21051478.435       18273.5653       -152.919          19.000  
  24784199.753       93662.6213       -595.272          24.000  
  23675738.504      318399.3223      -2628.826          23.000  
  22522486.821     -215973.3123       3849.390          17.000  
  22758159.638     -554007.3313       4322.698          28.000  
  25593381.688      101238.6123      -1461.932          14.000  
  22964113.739      -82122.8233       2270.135          14.000  
 15  4  2  0  5 54.0000000  0 10G30G20G28G 7G 5G 9G13G17G10G11
  20442562.685      -80806.1423       1282.231          22.000  
  25102498.879      123961.0413      -1271.814          18.000  
  20838306.087      -56180.9983       1180.397          19.000  
  21051505.518       18426.7603       -167.192          19.000  
  24784313.668       94252.7673       -594.144          23.000  
  23676234.457      321015.8443      -2612.732          20.000  
  22521753.825     -219824.8813       3852.482          17.000  
  22757331.817     -558329.3023       4333.185          30.000  
  25593657.454      102696.6073      -1461.679          15.000  
  22963684.289      -84371.0593       2260.264          16.000  
 15  4  2  0  5 55.0000000  0 10G30G20G28G 7G 5G 9G13G17G10G11
  20442318.382      -82089.2743       1278.390          22.000  
  25102742.816      125227.9923      -1256.937          18.000  
  20838081.153      -57358.5313       1171.766          19.000  
  21051538.952       18597.7693       -181.328          18.000  
  24784425.716       94843.3193       -583.467          21.000  
  23676733.009      323636.4463      -2632.380          20.000  
  22521022.364     -223677.7853       3849.680          17.000  
  22756513.681     -562638.3443       4308.521          35.000  
  25593934.459      104162.3073      -1468.800          16.000  
  22963244.700      -86634.9783       2258.294          16.000  
 15  4  2  0  5 56.0000000  0  9G30G20G28G 7G 5G 9G13G17G11
  20442077.167      -83356.6653       1260.772          20.000  
  25102984.571      126498.2053      -1275.618          17.000  
  20837857.023      -58536.0283       1177.388          18.000  
  21051569.787       18759.8133       -166.071          18.000  
  24784539.264       95434.8183       -587.732          22.000  
  23677232.487      326258.6163      -2625.346          19.000  
  22520291.479     -227525.4473       3847.282          16.000  
  22755701.443     -566939.3483       4304.337          26.000  
  22962795.636      -88881.5193       2236.836          18.000  
 15  4  2  0  5 57.0000000  0  8G30G20G 7G 5G 9G13G17G11
  20441830.177      -84642.1793       1285.932          22.000  
  25103225.628      127763.9693      -1235.722          16.000  
  21051594.497       18910.4173       -152.738          20.000  
  24784659.427       96023.5313       -591.678          20.000  
  23677728.387      328877.0453      -2594.348          18.000  
  22519558.710     -231381.8793       3857.241          13.000  
  22754883.150     -571244.2513       4298.822          25.000  
  22962344.827      -91137.2993       2267.146          19.000  
 15  4  2  0  5 58.0000000  0 10G30G20G28G 7G 5G 9G13G17G10G11
  20441580.831      -85934.8673       1300.316          24.000  
  25103465.831      129019.6273      -1268.857          17.000  
  20837405.324      -60913.4683       1198.820          16.000  
  21051619.206       19052.9923       -141.194          21.000  
  24784768.368       96610.3563       -560.428          16.000  
  23678219.541      331462.8773      -2576.047          19.000  
  22518818.663     -235263.8793       3880.227          16.000  
  22754057.650     -575560.7013       4330.115          23.000  
  25594768.824      108527.5853      -1458.369          15.000  
  22961890.860      -93403.5883       2263.428          22.000  
 15  4  2  0  5 59.0000000  0 10G30G20G28G 7G 5G 9G13G17G10G11
  20441329.251      -87231.5143       1296.821          26.000  
  25103708.109      130273.2223      -1257.829          19.000  
  20837176.866      -62110.1503       1190.216          17.000  
  21051647.947       19207.6963       -155.717          20.000  
  24784877.066       97170.5463       -574.954          14.000  
  23678710.800      334054.8153      -2603.689          19.000  
  22518082.666     -239140.5303       3861.022          17.000  
  22753239.584     -579872.8773       4314.322          22.000  
  25595046.614      109992.6063      -1460.479          16.000  
  22961461.532      -95657.3823       2249.909          22.000  
 15  4  2  0  6  0.0000000  0 11G30G20G28G 7G 4G 5G 9G13G17G10G11
  20441084.023      -88525.1193       1295.129          23.000  
  25103946.898      131526.8633      -1248.752          19.000  
  20836946.523      -63313.2063       1198.543          19.000  
  21051679.549       19370.7413       -156.366          19.000  
  24301469.337       -9659.4373       2468.078          18.000  
  24784987.264       97741.3503       -568.202          13.000  
  23679204.431      336653.6213      -2595.851          30.000  
  22517347.313     -243008.2203       3899.330          15.000  
  22752415.986     -584191.6783       4338.417          19.000  
  25595322.083      111445.8083      -1453.617          17.000  
  22961028.872      -97908.8923       2252.945          20.000  
 15  4  2  0  6  1.0000000  0 10G30G20G28G 7G 4G 5G13G17G10G11
  20440837.713      -89830.6723       1303.240          22.000  
  25104184.815      132777.7493      -1223.067          19.000  
  20836719.303      -64520.2803       1207.596          16.000  
  21051702.688       19510.8203       -124.611          19.000  
  24300968.254      -12162.6233       2507.540          21.000  
  24785092.960       98309.5533       -568.202          11.000  
  22516606.534     -246907.5473       3899.330          13.000  
  22751588.880     -588523.6073       4335.847          19.000  
  25595597.011      112891.8273      -1434.416          16.000  
  22960587.521     -100193.7363       2297.554          19.000  
 15  4  2  0  6  2.0000000  0 11G30G20G28G 7G 4G 5G 9G13G17G10G11
  20440579.345      -91144.9493       1303.781          20.000  
  25104420.794      134008.1143      -1237.502          16.000  
  20836483.376      -65738.9923       1222.503          15.000  
  21051725.129       19644.1423       -141.617          19.000  
  24300476.541      -14659.6003       2492.205          19.000  
  24785207.957       98906.6283       -599.452           9.000  
  23680190.526      341843.3563      -2596.028          21.000  
  22515864.185     -250805.6043       3908.488          13.000  
  22750764.305     -592874.3133       4333.217          19.000  
  25595865.832      114312.5283      -1434.416          15.000  
  22960139.085     -102473.2433       2267.592          28.000  
 15  4  2  0  6  3.0000000  0  9G30G28G 7G 4G 9G13G17G10G11
  20440329.179      -92457.2273       1319.475          20.000  
  20836253.173      -66953.5803       1209.451          16.000  
  21051750.100       19775.7843       -134.998          19.000  
  24300009.225      -17151.1473       2487.824          19.000  
  23680681.976      344425.8683      -2576.434          19.000  
  22515118.223     -254720.2703       3865.194          15.000  
  22749937.130     -597220.1423       4330.478          19.000  
  25596140.044      115751.3253      -1443.077          14.000  
  22959697.315     -104743.7943       2269.382          25.000  
 15  4  2  0  6  4.0000000  0  9G30G28G 7G 4G 9G13G17G10G11
  20440081.630      -93764.2473       1275.579          18.000  
  20836020.998      -68172.7783       1254.901          16.000  
  21051775.420       19921.4093       -146.794          19.000  
  24299538.016      -19637.4713       2476.327          18.000  
  23681179.813      347021.6783      -2577.057          23.000  
  22514379.433     -258601.5533       3889.924          14.000  
  22749111.194     -601558.2613       4349.503          18.000  
  25596418.358      117216.9043      -1466.366          12.000  
  22959265.876     -107003.9593       2258.679          22.000  
 15  4  2  0  6  5.0000000  0 10G30G28G 7G 4G 5G 9G13G17G10G11
  20439838.112      -95062.4803       1305.893          17.000  
  20835783.623      -69411.0923       1224.101          16.000  
  21051800.636       20059.7313       -145.195          18.000  
  24299065.133      -22119.0203       2483.615          16.000  
  24785551.011      100700.1553       -614.456           8.000  
  23681672.416      349600.8983      -2584.870          20.000  
  22513635.076     -262503.9483       3921.173          12.000  
  22748284.141     -605900.3103       4327.667          16.000  
  25596698.172      118683.2713      -1466.366           9.000  
  22958827.108     -109267.2603       2264.457          18.000  
 15  4  2  0  6  6.0000000  0  9G30G28G 7G 4G 5G 9G17G10G11
  20439587.318      -96381.9633       1310.154          16.000  
  20835548.010      -70644.4943       1254.347          15.000  
  21051828.818       20197.0863       -120.926          17.000  
  24298591.028      -24602.6323       2483.615          14.000  
  24785668.363      101314.6143       -614.456           8.000  
  23682169.154      352190.7623      -2596.199          15.000  
  22747459.112     -610229.5403       4333.450          14.000  
  25596979.696      120149.6393      -1466.366           8.000  
  22958398.181     -111529.2443       2255.634          16.000  
 15  4  2  0  6  7.0000000  0  7G30G28G 7G 4G 9G17G11
  20439338.251      -97695.3413       1318.434          15.000  
  20835311.647      -71879.5343       1202.865          14.000  
  21051851.311       20318.0173       -120.926          14.000  
  24298116.888      -27090.1403       2488.010          13.000  
  23682658.283      354784.7843      -2591.636          12.000  
  22746632.722     -614576.7623       4364.700          10.000  
  22957972.623     -113785.0953       2257.389          14.000  
 15  4  2  0  6  8.0000000  0  7G30G28G 7G 4G 9G17G11
  20439085.327      -99018.2353       1302.420          15.000  
  20835080.571      -73092.9223       1229.657          14.000  
  21051878.726       20467.5833       -152.176          11.000  
  24297642.486      -29578.3623       2488.449           8.000  
  23683148.774      357362.7703      -2583.780          12.000  
  22745807.431     -618918.9603       4364.700           9.000  
  22957545.791     -116033.1123       2226.139          11.000  
 15  4  2  0  6  9.0000000  0  7G30G28G 7G 4G 9G17G11
  20438833.486     -100341.8193       1325.614          15.000  
  20834845.063      -74330.5183       1250.665          14.000  
  21051904.081       20608.7173       -114.642          10.000  
  24297166.846      -32067.0233       2488.889           8.000  
  23683640.120      359946.5683      -2583.780          10.000  
  22744977.551     -623283.6593       4364.700           8.000  
  22957124.525     -118259.2483       2226.139           8.000  
 15  4  2  0  6 10.0000000  0  6G30G28G 7G 9G17G11
  20438579.707     -101671.1483       1329.843          17.000  
  20834607.879      -75566.3903       1238.371          16.000  
  21051922.334       20713.4463        -74.631          10.000  
  23684133.629      362530.3513      -2583.780           9.000  
  22744145.874     -627660.4753       4382.337           8.000  
  22956696.122     -120510.2913       2257.389           7.000  
 15  4  2  0  6 11.0000000  0  7G30G28G19G 7G 9G17G11
  20438327.273     -102993.7883       1319.123          16.000  
  20834367.014      -76815.8793       1254.197          17.000  
  23899239.165       12234.5373      -2032.034           8.000  
  21051937.725       20788.0813        -74.631           9.000  
  23684627.732      365114.1343      -2583.780           8.000  
  22743311.806     -632042.5693       4380.607           9.000  
  22956263.653     -122777.9463       2247.992           7.000  
 15  4  2  0  6 12.0000000  0  7G30G28G19G 7G 9G17G11
  20438074.070     -104316.8693       1346.849          14.000  
  20834126.149      -78070.8883       1261.373          16.000  
  23899629.631       14273.1383      -2044.657           8.000  
  21051952.680       20862.7153        -74.631           8.000  
  23685119.950      367697.9173      -2583.780           8.000  
  22742478.785     -636423.1733       4380.607          10.000  
  22955838.025     -125025.9373       2247.992           8.000  
 15  4  2  0  6 13.0000000  0  6G30G28G19G 7G17G11
  20437816.068     -105663.7163       1346.849          12.000  
  20833887.360      -79325.1573       1254.282          16.000  
  23900020.952       16317.7993      -2044.657           8.000  
  21051968.856       20942.7933        -81.249           8.000  
  22741646.392     -640797.7103       4351.592          10.000  
  22955409.552     -127273.9283       2247.992           8.000  
 15  4  2  0  6 14.0000000  0  6G30G28G19G 7G17G11
  20437559.952     -107002.8843       1336.821           9.000  
  20833647.105      -80580.8453       1263.191          15.000  
  23900410.459       18362.4603      -2044.657           8.000  
  21051984.806       21024.3673        -81.920           8.000  
  22740818.466     -645147.6903       4349.691          10.000  
  22954981.289     -129521.9193       2247.992           8.000  
 15  4  2  0  6 15.0000000  0  6G30G28G19G 7G17G11
  20437305.353     -108339.7033       1336.821           8.000  
  20833406.938      -81839.7253       1256.098          14.000  
  23900799.424       20407.1213      -2044.657           8.000  
  21052001.087       21106.6113        -82.592           8.000  
  22739992.722     -649484.8683       4318.441           8.000  
  22954552.066     -131769.9103       2247.992           8.000  
 15  4  2  0  6 16.0000000  0  3G30G 7G11
  20437051.103     -109659.2003       1316.979           8.000  
  21052018.991       21204.7793       -100.889           8.000  
  22954127.066     -134002.6483       2230.353           8.000  
 15  4  2  0  6 17.0000000  0  4G30G 7G17G11
  20436799.925     -110975.2133       1314.977           8.000  
  21052036.999       21306.8473       -103.343           8.000  
  22738347.481     -658121.7413       4318.441           7.000  
  22953704.317     -136232.1543       2228.570           8.000  
 15  4  2  0  6 18.0000000  0  5G30G28G 7G17G11
  20436551.905     -112289.2243       1312.975           8.000  
  20832680.136      -85652.2433       1321.430           9.000  
  21052057.957       21411.3673       -105.796           8.000  
  22737526.047     -662440.1783       4318.441           7.000  
  22953279.335     -138459.8793       2226.788           8.000  
 15  4  2  0  6 19.0000000  0  3G30G 7G17
  20436304.025     -113585.9703       1293.373           8.000  
  21052077.082       21501.1263        -88.359           8.000  
  22736700.599     -666771.7663       4333.867           7.000  
 15  4  2  0  6 20.0000000  0  3G30G 7G17
  20436057.732     -114877.5203       1289.589           8.000  
  21052090.868       21589.7053        -88.811           6.000  
  22735874.279     -671106.3653       4335.417           9.000  
 15  4  2  0  6 21.0000000  0  5G30G28G 7G13G17
  20435810.812     -116165.2863       1285.805           8.000  
  20831935.710      -89560.7033       1320.993          10.000  
  21052107.446       21678.7353        -89.262           6.000  
  22501570.729      -14761.6363       3986.375          21.000  
  22735050.157     -675442.5153       4336.967           9.000  
 15  4  2  0  6 22.0000000  0  6G30G20G28G 4G13G17
  20435570.540     -117435.9533       1266.670           8.000  
  25108960.293        7163.2713      -1136.396           9.000  
  20831687.045      -90869.1113       1311.844          10.000  
  24290981.058      -64608.7503       2508.884           7.000  
  22500815.675      -18754.4733       3993.839          22.000  
  22734227.100     -679770.7033       4327.465           9.000  
 15  4  2  0  6 23.0000000  0  6G30G20G28G 4G13G17
  20435330.302     -118700.0553       1261.336           8.000  
  25109171.144        8299.6713      -1136.396           9.000  
  20831436.163      -92188.4073       1335.243          12.000  
  24290506.482      -67118.0593       2509.763           7.000  
  22500053.485      -22753.5033       4000.721          21.000  
  22733403.590     -684098.3733       4327.904           9.000  
 15  4  2  0  6 24.0000000  0  6G30G20G28G 4G13G17
  20435089.263     -119958.8223       1256.001           8.000  
  25109386.044        9436.0703      -1136.396           9.000  
  20831182.402      -93524.1753       1334.190          14.000  
  24290031.940      -69628.2483       2510.642           7.000  
  22499291.102      -26744.4753       3997.773          19.000  
  22732579.747     -688426.4833       4328.344           9.000  
 15  4  2  0  6 25.0000000  0  5G20G28G 4G13G17
  25109600.263       10555.6153      -1116.605          10.000  
  20830929.164      -94856.8013       1326.642          15.000  
  24289552.478      -72156.2533       2531.305           7.000  
  22498522.228      -30759.1663       4002.523          19.000  
  22731752.974     -692772.0963       4348.616           9.000  
 15  4  2  0  6 26.0000000  0  5G20G28G 4G13G17
  25109813.016       11671.2563      -1114.615           7.000  
  20830674.740      -96189.2863       1347.849          14.000  
  24289068.845      -74688.9623       2534.186           8.000  
  22497759.845      -34773.6093       4016.233          18.000  
  22730924.961     -697121.8673       4351.058           6.000  
 15  4  2  0  6 27.0000000  0  5G20G28G 4G13G17
  25110024.129       12784.9063      -1112.625           7.000  
  20830416.145      -97536.2133       1363.857          15.000  
  24288585.980      -77224.5503       2537.067           8.000  
  22496993.798      -38796.9713       4027.751          18.000  
  22730096.232     -701474.0783       4353.499           6.000  
 15  4  2  0  6 28.0000000  0  5G20G28G19G 4G13
  25110233.269       13879.6893      -1090.874           7.000  
  20830158.144      -98894.9093       1369.289          17.000  
  23905626.626        2908.8503      -1927.962          27.000  
  24288101.074      -79766.7393       2544.297           8.000  
  22496226.617      -42829.3123       4035.038          20.000  
 15  4  2  0  6 29.0000000  0  4G20G28G19G 4
  25110441.119       14968.6263      -1086.882           7.000  
  20829896.687     -100265.2353       1375.427          18.000  
  23905987.461        4829.2493      -1909.277          26.000  
  24287616.115      -82312.6593       2547.629           8.000  
 15  4  2  0  6 30.0000000  0  4G20G28G19G 4
  25110647.415       16053.5703      -1082.890           7.000  
  20829633.660     -101639.0013       1368.149          19.000  
  23906355.905        6741.8123      -1908.734          31.000  
  24287132.779      -84861.9113       2550.962           8.000  
 15  4  2  0  6 31.0000000  0  5G30G20G28G19G 4
  20432976.146       -3634.1273       1464.376          22.000  
  25110851.129       17117.6813      -1059.177           7.000  
  20829372.866     -103014.4033       1383.469          18.000  
  23906708.853        8646.8273      -1903.082          31.000  
  24286644.609      -87431.3843       2574.018           8.000  
 15  4  2  0  6 32.0000000  0  5G30G20G28G19G 4
  20432705.074       -5116.9593       1484.936          22.000  
  25111049.119       18163.1953      -1027.321          19.000  
  20829108.723     -104394.9843       1392.346          17.000  
  23907075.604       10542.7543      -1890.234          32.000  
  24286156.352      -90007.9973       2579.341           6.000  
 15  4  2  0  6 33.0000000  0  5G30G20G28G19G 4
  20432427.284       -6606.6483       1495.160          21.000  
  25111242.189       19186.2663      -1015.014          20.000  
  20828838.401     -105794.3003       1411.490          18.000  
  23907433.648       12427.5402      -1880.408          36.000  
  24285665.826      -92589.9313       2584.663           6.000  
 15  4  2  0  6 34.0000000  0  4G30G20G28G19
  20432138.326       -8106.6493       1504.018          21.000  
  25111434.804       20201.3863      -1011.382          21.000  
  20828569.406     -107203.3913       1408.706          18.000  
  23907790.819       14306.9913      -1865.616          29.000  
 15  4  2  0  6 35.0000000  0  5G30G20G28G19G 7
  20431847.361       -9607.0243       1511.487          20.000  
  25111624.366       21208.7023      -1006.813          33.000  
  20828297.759     -108620.1973       1427.633          19.000  
  23908147.816       16179.8073      -1878.812          31.000  
  21052097.691         238.0943         65.899          19.000  
 15  4  2  0  6 36.0000000  0  6G30G20G28G19G 7G13
  20431560.183      -11115.6143       1516.671          28.000  
  25111816.022       22208.1443       -987.930          29.000  
  20828028.432     -110038.3023       1409.592          20.000  
  23908502.648       18047.5533      -1853.876          34.000  
  21052047.539         171.8913         74.470          22.000  
  22490021.651      -75384.2713       4094.668          23.000  
 15  4  2  0  6 37.0000000  0  8G30G20G28G19G 7G 4G13G10
  20431270.143      -12630.2283       1515.539          32.000  
  25112007.154       23197.2753       -993.040          29.000  
  20827754.778     -111463.9143       1438.878          20.000  
  23908856.469       19905.3243      -1866.832          41.000  
  21052019.776          95.9713         74.490          24.000  
  24283278.898       -6805.5473       2701.501          25.000  
  22489242.935      -79483.1403       4093.586          24.000  
  25604825.785        2660.4913      -1191.537          25.000  
 15  4  2  0  6 38.0000000  0 11G30G20G28G19G 7G 4G 5G13G17G10G11
  20430976.316      -14145.3563       1526.068          33.000  
  25112175.130       24188.6443       -983.160          29.000  
  20827480.024     -112898.1433       1431.173          20.000  
  23909211.197       21761.4773      -1850.177          39.000  
  21051986.812          13.1283         81.732          33.000  
  24282752.757       -9516.3643       2712.209          30.000  
  24788360.757        1176.4443       -325.373          23.000  
  22488460.904      -83586.9723       4112.044          25.000  
  22720458.966       -9892.8583       4573.758          25.000  
  25605027.388        3843.7423      -1179.553          26.000  
  22943947.115       -7199.4313       2484.646          23.000  
 15  4  2  0  6 39.0000000  0 10G30G20G28G19G 7G 4G 5G17G10G11
  20430679.575      -15666.9273       1522.205          28.000  
  25112378.634       25172.9303       -999.693          28.000  
  20827207.713     -114333.7133       1446.443          20.000  
  23909561.353       23615.0693      -1852.875          45.000  
  21051969.711         -70.8963         85.659          33.000  
  24282242.425      -12227.2873       2710.843          25.000  
  24788411.101        1499.3923       -335.448          24.000  
  22719595.075      -14475.4663       4573.818          23.000  
  25605253.961        5026.2533      -1188.195          25.000  
  22943459.975       -9689.8463       2490.398          29.000  
 15  4  2  0  6 40.0000000  0 10G30G20G19G 1G 7G 4G 5G 9G10G11
  20430389.518      -17189.9253       1518.584          51.000  
  25112569.173       26158.0233       -988.104          28.000  
  23909910.462       25467.2963      -1857.483          42.000  
  24380035.783       -9893.7903       3552.333          31.000  
  21051949.678        -156.8993         79.580          49.000  
  24281720.716      -14941.0403       2707.974          41.000  
  24788456.734        1827.6763       -329.910          26.000  
  23698244.713        5620.3283      -2344.785          22.000  
  25605477.638        6206.2393      -1190.800          25.000  
  22942971.561      -12179.1053       2484.905          50.000  
 15  4  2  0  6 41.0000000  0 11G30G20G19G 1G 7G 4G 5G 9G13G10G11
  20430099.704      -18713.6272       1521.398          52.000  
  25112750.952       27144.5063       -990.766          25.000  
  23910263.637       27322.1272      -1858.160          42.000  
  24379353.323       -1750.7833       3553.956          44.000  
  21051935.020        -241.5812         82.511          50.000  
  24281203.352      -17653.6882       2709.611          44.000  
  24788516.832        2159.2693       -325.005          25.000  
  23698679.066        7967.2913      -2355.950          21.000  
  22486103.187       -4171.5173       4106.542          46.000  
  25605702.851        7390.3023      -1198.615          24.000  
  22942498.974      -14669.2302       2488.179          43.000  
 15  4  2  0  6 42.0000000  0 12G30G20G28G19G 1G 7G 4G 5G 9G13G10G11
  20429808.146      -20239.7022       1526.472          53.000  
  25112950.687       28136.2753       -990.350          22.000  
  20826355.357       -1893.6502       1438.593          39.000  
  23910619.848       29176.2072      -1854.132          42.000  
  24378671.665       -5309.0662       3558.524          38.000  
  21051914.725        -328.7062         87.419          49.000  
  24280687.907      -20367.9082       2714.562          44.000  
  24788573.912        2486.7603       -326.707          22.000  
  23699123.227       10315.2283      -2345.923          22.000  
  22485321.574       -8282.8002       4111.568          45.000  
  25605927.767        8574.0883      -1186.933          21.000  
  22942024.433      -17161.2842       2492.047          44.000  
 15  4  2  0  6 43.0000000  0 11G30G28G19G 1G 7G 4G 5G 9G13G10G11
  20429518.821      -21770.5602       1533.389          52.000  
  20826085.350       -3336.2722       1445.258          39.000  
  23910973.651       31025.6362      -1846.710          42.000  
  24377990.304       -8872.2362       3565.836          37.000  
  21051896.996        -420.5862         94.432          49.000  
  24280168.920      -23086.7412       2721.241          42.000  
  24788619.335        2819.2753       -319.384          19.000  
  23699563.531       12656.8573      -2346.195          21.000  
  22484538.042      -12398.7732       4118.572          45.000  
  25606153.328        9754.9233      -1182.279          18.000  
  22941550.973      -19657.9572       2499.153          44.000  
 15  4  2  0  6 44.0000000  0 11G30G28G19G 1G 7G 4G 5G 9G13G10G11
  20429227.647      -23304.1572       1537.057          51.000  
  20825813.912       -4781.6032       1448.389          41.000  
  23911324.418       32872.2212      -1842.963          42.000  
  24377308.960      -12438.1322       3568.809          34.000  
  21051883.036        -515.1972         98.020          49.000  
  24279655.064      -25808.3422       2725.543          42.000  
  24788691.858        3131.3543       -310.136          17.000  
  23700001.025       14998.0673      -2347.259          22.000  
  22483758.122      -16517.4272       4121.927          45.000  
  25606377.808       10925.9263      -1175.355          16.000  
  22941075.193      -22157.1432       2502.313          44.000  
 15  4  2  0  6 45.0000000  0 12G30G20G28G19G 1G 7G 4G 5G 9G13G10G11
  20428932.896      -24842.6072       1541.504          51.000  
  25113495.029         835.7243       -963.471          31.000  
  20825536.349       -6231.1952       1452.673          44.000  
  23911672.812       34713.1782      -1837.494          40.000  
  24376636.080      -16008.8812       3575.084          40.000  
  21051863.352        -614.5872        102.791          50.000  
  24279131.732      -28534.8782       2729.742          40.000  
  24788767.871        3449.6063       -318.919          19.000  
  23700433.860       17336.1183      -2325.127          21.000  
  22482967.069      -20640.4502       4126.487          46.000  
  25606602.183       12100.7393      -1169.515          14.000  
  22940599.116      -24660.8762       2506.787          47.000  
 15  4  2  0  6 46.0000000  0 11G30G20G28G19G 1G 7G 4G 9G13G10G11
  20428639.889      -26386.6822       1545.229          50.000  
  25113678.204        1801.4833       -969.531          31.000  
  20825259.850       -7685.7402       1456.476          50.000  
  23912021.694       36547.6123      -1831.857          40.000  
  24375956.586      -19584.5772       3573.689          35.000  
  21051841.679        -719.3242        106.212          49.000  
  24278614.280      -31267.5002       2735.343          43.000  
  23700884.303       19664.4393      -2328.533          21.000  
  22482181.757      -24769.0512       4130.829          48.000  
  25606821.148       13261.4193      -1157.400          19.000  
  22940120.265      -27170.1662       2511.063          45.000  
 15  4  2  0  6 47.0000000  0 10G30G20G28G19G 7G 4G 9G13G10G11
  20428343.776      -27940.5482       1555.662          49.000  
  25113860.332        2761.7063       -946.177          27.000  
  20824980.926       -9149.3422       1465.918          48.000  
  23912367.749       38372.4123      -1819.949          40.000  
  21051821.140        -832.9302        114.210          49.000  
  24278092.536      -34009.0882       2740.272          43.000  
  23701334.745       21995.7523      -2322.398          19.000  
  22481394.665      -28908.4372       4142.423          46.000  
  25607039.171       14408.7883      -1136.787          28.000  
  22939641.466      -29687.8012       2519.729          43.000  
 15  4  2  0  6 48.0000000  0 11G30G20G28G19G 1G 7G 4G 9G13G10G11
  20428048.379      -29497.2202       1548.910          51.000  
  25114042.634        3709.8163       -965.240          26.000  
  20824703.258      -10616.8012       1461.383          49.000  
  23912715.201       40192.6243      -1830.769          37.000  
  24374592.520       -5315.0942       3574.908          36.000  
  21051798.123        -947.6842        108.434          48.000  
  24277569.693      -36751.3332       2731.943          42.000  
  23701774.107       24312.6493      -2329.694          20.000  
  22480606.683      -33053.0842       4139.377          48.000  
  25607254.053       15545.6483      -1145.922          26.000  
  22939163.435      -32205.4372       2508.779          47.000  
 15  4  2  0  6 49.0000000  0 11G30G20G28G19G 1G 7G 4G 5G13G10G11
  20427751.830      -31056.7972       1571.755          50.000  
  25114229.823        4672.3973       -956.689          30.000  
  20824423.182      -12088.5732       1484.045          48.000  
  23913073.680       42014.8543      -1829.757          37.000  
  24373918.767       -2091.0863       3592.131          39.000  
  21051775.769       -1063.1573        126.826          48.000  
  24277047.286      -39493.4832       2752.691          42.000  
  24788988.878         905.0333       -288.523          27.000  
  22479817.985      -37202.9822       4162.590          47.000  
  25607472.949       16691.8253      -1125.905          26.000  
  22938683.885      -34723.0342       2527.176          47.000  
 15  4  2  0  6 50.0000000  0 11G30G20G28G19G 1G 7G 4G 5G13G10G11
  20427452.559      -32628.7622       1582.379          50.000  
  25114401.812        5622.9753       -934.929          29.000  
  20824141.361      -13574.3122       1495.367          47.000  
  23913422.336       43840.1973      -1837.152          30.000  
  24373227.511       -5683.5592       3601.914          39.000  
  21051752.299       -1189.4102        135.595          48.000  
  24276524.233      -42244.7862       2760.472          42.000  
  24789044.108        1180.1473       -265.656          26.000  
  22479025.641      -41367.4412       4174.478          46.000  
  25607685.161       17826.0823      -1128.790          27.000  
  22938203.097      -37250.0972       2535.427          49.000  
 15  4  2  0  6 51.0000000  0 11G30G20G28G19G 1G 7G 4G 5G13G10G11
  20427151.228      -34212.4562       1596.369          51.000  
  25114566.141        6551.2723       -914.405          27.000  
  20823855.683      -15072.5062       1511.285          47.000  
  23913757.485        1838.7163      -1805.763          31.000  
  24372540.252       -9288.0412       3616.400          37.000  
  21051726.612       -1327.4582        152.348          48.000  
  24275998.336      -45007.4052       2773.739          44.000  
  24789094.766        1445.8753       -255.641          25.000  
  22478230.713      -45543.9072       4190.002          48.000  
  25607897.530       18953.4753      -1115.939          26.000  
  22937720.808      -39788.7532       2551.035          49.000  
 15  4  2  0  6 52.0000000  0 10G30G28G19G 1G 7G 4G 9G13G10G11
  20426848.938      -35804.8412       1596.440          51.000  
  20823568.418      -16579.8962       1511.578          47.000  
  23914107.379        3635.4273      -1796.645          33.000  
  24371855.872      -12901.8792       3617.439          40.000  
  21051698.308       -1474.1052        149.713          50.000  
  24275471.304      -47778.5792       2775.597          46.000  
  23703519.216        5909.7763      -2275.418          23.000  
  22477434.704      -49728.9332       4189.084          49.000  
  25608106.461       20060.5183      -1108.033          27.000  
  22937235.971      -42335.8562       2551.432          47.000  
 15  4  2  0  6 53.0000000  0 10G30G28G19G 1G 7G 4G 9G13G10G11
  20426544.851      -37400.5962       1599.922          51.000  
  20823281.379      -18090.8752       1514.905          47.000  
  23914443.348        5424.5233      -1785.222          35.000  
  24371166.082      -16520.0352       3622.404          43.000  
  21051669.550       -1624.5242        154.849          49.000  
  24274943.749      -50553.2212       2777.970          42.000  
  23703957.513        8185.5313      -2282.380          23.000  
  22476637.072      -53917.1692       4192.699          47.000  
  25608314.573       21165.0613      -1099.723          27.000  
  22936750.244      -44886.4532       2553.671          46.000  
 15  4  2  0  6 54.0000000  0 10G30G28G 1G 7G 4G 5G 9G13G10G11
  20426240.292      -39000.3972       1601.701          51.000  
  20822992.665      -19606.1132       1517.072          46.000  
  24370477.305      -20142.7832       3625.053          40.000  
  21051640.548       -1779.1592        158.160          50.000  
  24274414.728      -53331.9462       2779.849          37.000  
  24789232.064         898.9793       -243.266          26.000  
  23704388.080       10460.7743      -2262.977          23.000  
  22475839.266      -58109.1402       4194.684          47.000  
  25608526.052       22265.6513      -1102.880          26.000  
  22936263.994      -47441.3572       2557.163          38.000  
 15  4  2  0  6 55.0000000  0  9G30G28G 1G 7G 4G 9G13G10G11
  20425935.454      -40604.1302       1601.377          51.000  
  20822703.742      -21125.3022       1516.681          47.000  
  24369787.689      -23769.9552       3623.473          39.000  
  21051610.080       -1937.8382        156.502          50.000  
  24273884.015      -56114.5732       2779.259          43.000  
  23704825.050       12728.0553      -2275.655          24.000  
  22475041.180      -62304.6562       4192.437          49.000  
  25608734.215       23360.3393      -1087.453          25.000  
  22935777.499      -50000.2852       2555.684          43.000  
 15  4  2  0  6 56.0000000  0 10G30G20G28G 1G 7G 4G 9G13G10G11
  20425628.941      -42212.4042       1613.187          51.000  
  25115424.360        3115.6283       -903.356          23.000  
  20822413.877      -22649.0212       1528.961          47.000  
  24369096.608      -27402.2882       3637.369          43.000  
  21051579.036       -2101.1392        169.432          48.000  
  24273354.191      -58901.7762       2790.788          47.000  
  23705252.581       14995.3153      -2267.976          24.000  
  22474241.890      -66504.4632       4203.818          46.000  
  25608933.602       24450.0913      -1083.157          25.000  
  22935290.498      -52563.5322       2568.010          45.000  
 15  4  2  0  6 57.0000000  0 10G30G20G28G19G 1G 7G 4G13G10G11
  20425322.777      -43823.8492       1613.602          52.000  
  25115589.265        4010.4353       -866.721          23.000  
  20822123.261      -24176.1002       1529.913          47.000  
  23915797.956        6718.0613      -1765.373          31.000  
  24368405.213      -31037.9452       3638.164          39.000  
  21051547.363       -2267.5892        168.408          49.000  
  24272822.640      -61693.1863       2791.708          44.000  
  22473442.234      -70707.3962       4204.612          47.000  
  25609138.502       25534.3343      -1083.898          30.000  
  22934803.009      -55129.9942       2567.459          49.000  
 15  4  2  0  6 58.0000000  0 11G30G20G28G19G 1G 7G 4G 9G13G10G11
  20425015.409      -45436.8672       1613.556          49.000  
  25115745.427        4896.3413       -887.635          23.000  
  20821831.999      -25704.7902       1529.346          47.000  
  23916136.124        8489.9743      -1772.824          31.000  
  24367712.701      -34675.1633       3635.974          34.000  
  21051515.185       -2435.6742        168.777          48.000  
  24272292.066      -64486.1433       2792.889          40.000  
  23706116.105        3705.3003      -2260.122          26.000  
  22472642.176      -74911.6932       4204.309          48.000  
  25609342.338       26618.6213      -1084.574          29.000  
  22934314.979      -57697.6602       2568.227          48.000  
 15  4  2  0  6 59.0000000  0 13G30G20G28G19G 1G 7G 4G 5G 9G13G17G10
                                G11
  20424708.913      -47052.9782       1619.422          48.000  
  25115911.658        5780.3383       -886.224          23.000  
  20821540.162      -27236.6052       1534.729          46.000  
  23916478.654         994.7553      -1769.017          33.000  
  24367020.922      -38315.8842       3642.588          41.000  
  21051482.588       -2606.8352        174.582          50.000  
  24271762.871      -67280.9412       2799.114          43.000  
  24789442.479         733.3083       -229.483          28.000  
  23706554.367        5959.5793      -2262.746          25.000  
  22471842.154      -79119.1352       4210.255          47.000  
  22701885.844        -783.3213       4671.147          32.000  
  25609525.583       27699.1873      -1083.298          27.000  
  22933824.261      -60268.3812       2573.367          47.000  
 15  4  2  0  7  0.0000000  0 10G30G20G28G 1G 7G 4G13G17G10G11
  20424399.381      -48672.7862       1620.103          46.000  
  25116072.409        6664.0453       -876.245          23.000  
  20821248.534      -28772.2812       1536.102          47.000  
  24366328.166      -41959.1533       3643.511          33.000  
  21051449.695       -2781.3992        172.781          46.000  
  24271229.942      -70079.1642       2798.524          47.000  
  22471040.456      -83330.2432       4210.790          48.000  
  22701012.914       -5449.9093       4675.030          36.000  
  25609732.298       28777.4523      -1075.029          27.000  
  22933333.701      -62842.4372       2574.626          46.000  
 15  4  2  0  7  1.0000000  0 10G30G20G28G 1G 7G 4G13G17G10G11
  20424090.425      -50298.389        1634.881          49.000  
  25116236.964        7539.5213       -870.206          23.000  
  20820955.248      -30313.750        1549.518          47.000  
  24365633.229      -45608.5212       3657.230          39.000  
  21051416.138       -2961.3122        189.260          47.000  
  24270699.019      -72882.3102       2812.012          44.000  
  22470237.973      -87547.038        4225.005          47.000  
  22700128.433      -10119.6383       4678.136          44.000  
  25609950.094       29851.0943      -1075.469          26.000  
  22932843.891      -65421.745        2587.096          48.000  
 15  4  2  0  7  2.0000000  0  8G30G28G 7G 4G13G17G10G11
  20423781.225      -51925.525        1626.140          50.000  
  20820661.770      -31856.976        1541.864          47.000  
  21051381.045       -3143.0402        180.989          47.000  
  24270163.506      -75687.8772       2806.219          40.000  
  22469434.792      -91765.782        4217.930          47.000  
  22699236.971      -14791.5462       4668.834          42.000  
  25610151.400       30918.6103      -1069.751          25.000  
  22932351.986      -68002.366        2579.618          44.000  
 15  4  2  0  7  3.0000000  0 12G30G28G19G 1G 7G 4G 5G 9G13G17G10G11
  20423471.169      -53556.541        1625.279          49.000  
  20820367.315      -33404.028        1541.223          48.000  
  23917818.115        1855.1683      -1751.611          30.000  
  24364241.382      -52915.0832       3649.135          44.000  
  21051345.901       -3328.5102        180.673          49.000  
  24269627.558      -78496.5252       2803.542          45.000  
  24789583.407         614.1213       -219.085          31.000  
  23708262.639        5729.2533      -2252.606          26.000  
  22468631.575      -95988.078        4215.707          48.000  
  22698347.900      -19467.2152       4669.256          46.000  
  25610351.327       31980.2043      -1071.014          24.000  
  22931861.792      -70586.324        2577.356          45.000  
 15  4  2  0  7  4.0000000  0 12G30G20G28G 1G 7G 4G 5G 9G13G17G10G11
  20423159.247      -55193.285        1642.401          51.000  
  25116717.892        2049.2903       -857.498          27.000  
  20820072.110      -34956.772        1557.641          47.000  
  24363545.275      -56575.8922       3665.250          41.000  
  21051309.395       -3519.5132        196.619          49.000  
  24269085.275      -81310.5642       2816.503          39.000  
  24789619.808         830.0463       -213.222          30.000  
  23708697.341        7973.6233      -2223.700          25.000  
  22467828.604     -100216.230        4233.500          46.000  
  22697456.717      -24148.2072       4685.965          48.000  
  25610558.304       33041.9253      -1052.425          23.000  
  22931368.911      -73175.818        2594.511          47.000  
 15  4  2  0  7  5.0000000  0 11G30G28G19G 7G 4G 5G 9G13G17G10G11
  20422846.835      -56837.469        1648.451          50.000  
  20819774.252      -36517.154        1565.546          46.000  
  23918488.309        2332.2603      -1738.751          29.000  
  21051271.947       -3717.9022        203.005          49.000  
  24268554.369      -84131.9622       2824.766          42.000  
  24789663.329        1039.2503       -204.689          27.000  
  23709112.761       10201.6943      -2218.799          25.000  
  22467021.217     -104451.942        4241.527          44.000  
  22696563.981      -28836.5382       4693.052          48.000  
  25610761.913       34096.6853      -1046.722          23.000  
  22930873.936      -75772.362        2601.181          47.000  
 15  4  2  0  7  6.0000000  0 11G30G28G19G 1G 7G 4G 9G13G17G10G11
  20422532.470      -58484.491        1650.250          51.000  
  20819476.743      -38080.930        1568.439          47.000  
  23918824.819        4072.6043      -1738.327          29.000  
  24362146.169      -63914.9103       3672.417          41.000  
  21051234.254       -3917.9542        204.585          46.000  
  24268019.817      -86954.6302       2825.355          45.000  
  23709531.584       12415.7243      -2207.171          27.000  
  22466214.528     -108691.825        4243.839          46.000  
  22695672.554      -33526.3702       4692.849          47.000  
  25610938.318       35148.0273      -1038.244          22.000  
  22930379.431      -78369.834        2600.831          45.000  
 15  4  2  0  7  7.0000000  0 11G30G28G19G 7G 4G 5G 9G13G17G10G11
  20422217.406      -60140.028        1659.265          51.000  
  20819177.856      -39653.588        1576.526          47.000  
  23919157.350        5795.3823      -1727.265          29.000  
  21051194.590       -4126.0232        210.983          50.000  
  24267479.802      -89785.1672       2832.193          43.000  
  24789730.600         567.0213       -198.822          34.000  
  23709939.814       14622.7663      -2213.653          27.000  
  22465405.990     -112940.498        4251.898          43.000  
  22694778.632      -38225.3812       4704.344          49.000  
  25611141.421       36188.0943      -1025.002          22.000  
  22929884.822      -80975.018        2609.537          38.000  
 15  4  2  0  7  8.0000000  0 12G30G28G19G 1G 7G 4G 5G 9G13G17G10G11
  20421901.924      -61800.344        1664.496          50.000  
  20818877.869      -41230.620        1580.713          47.000  
  23919491.801        7517.6423      -1716.446          30.000  
  24360749.140       -3267.9803       3691.125          36.000  
  21051153.530       -4340.5772        220.322          49.000  
  24266938.375      -92622.2662       2842.515          35.000  
  24789750.074         758.9883       -178.896          31.000  
  23710365.826       16832.8083      -2208.561          26.000  
  22464597.137     -117192.063        4253.950          42.000  
  22693881.429      -42931.5442       4709.686          45.000  
  25611337.369       37219.9463      -1032.967          21.000  
  22929388.294      -83588.1083       2617.306          41.000  
 15  4  2  0  7  9.0000000  0 12G30G20G28G19G 1G 7G 4G 5G 9G13G17G10
  20421585.220      -63463.912        1666.437          48.000  
  25117525.890        2802.5993       -834.082          23.000  
  20818577.150      -42809.439        1581.537          48.000  
  23919828.154        9233.8573      -1714.191          37.000  
  24360045.338       -6960.6612       3697.340          38.000  
  21051111.283       -4560.6262        224.947          51.000  
  24266396.423      -95465.4902       2847.322          41.000  
  24789781.624         947.1953       -184.254          38.000  
  23710786.027       19036.6043      -2207.489          26.000  
  22463788.617     -121443.153        4253.956          39.000  
  22692985.203      -47643.3572       4715.629          44.000  
  25611539.268       38250.6803      -1018.291          21.000  
 15  4  2  0  7 10.0000000  0 13G30G20G28G19G 1G 7G 4G 5G 9G13G17G10
                                G11
  20421268.987      -65128.840        1666.428          50.000  
  25117673.414        3636.1483       -836.640          23.000  
  20818276.988      -44388.256        1579.693          47.000  
  23920154.944       10950.5583      -1715.582          37.000  
  24359346.997      -10658.6353       3698.503          32.000  
  21051068.983       -4783.8872        225.203          50.000  
  24265854.402      -98312.7102       2847.005          34.000  
  24789811.167        1132.7882       -186.230          35.000  
  23711194.694       21240.1043      -2210.698          26.000  
  22462981.195     -125692.686        4250.440          40.000  
  22692089.274      -52357.7062       4716.841          43.000  
  25611719.930       39273.0093      -1017.393          21.000  
  22928395.534       -1713.4083       2626.275          31.000  
 15  4  2  0  7 11.0000000  0 12G30G28G19G 1G 7G 4G 5G 9G13G17G10G11
  20420949.718      -66796.908        1670.931          50.000  
  20817976.705      -45969.358        1583.728          48.000  
  23920496.427       12664.0892      -1711.310          31.000  
  24358643.614       -1249.1493       3705.430          31.000  
  21051025.340       -5011.4822        230.672          50.000  
  24265360.613     -101165.2863       2854.355          26.000  
  24789845.596        1316.7702       -181.431          31.000  
  23711629.065       23441.2833      -2198.852          26.000  
  22462171.208     -129943.432        4252.948          40.000  
  22691191.914      -57075.7942       4721.250          43.000  
  25611889.878       40294.4223      -1020.216          24.000  
  22927913.105       -4341.6693       2631.052          26.000  
 15  4  2  0  7 12.0000000  0 11G30G28G19G 7G 4G 5G 9G13G17G10G11
  20420632.542      -68468.986        1674.705          50.000  
  20817674.275      -47554.337        1587.744          47.000  
  23920808.734       14373.7922      -1707.037          36.000  
  21050981.331       -5243.3022        234.187          50.000  
  24264782.871     -104021.6522       2859.099          28.000  
  24789891.752        1495.9663       -178.445          31.000  
  23712060.260       25639.5463      -2200.208          13.000  
  22461361.379     -134197.715        4257.083          42.000  
  22690292.233      -61798.1462       4724.805          43.000  
  25612090.555       41313.7353      -1015.504          25.000  
  22927382.461       -6974.2523       2644.059          27.000  
 15  4  2  0  7 13.0000000  0 12G30G28G19G 1G 7G 4G 5G 9G13G17G10G11
  20420312.488      -70147.662        1680.864          51.000  
  20817371.724      -49146.466        1594.275          49.000  
  23921123.571       16076.5482      -1699.957          33.000  
  24357227.564       -3482.1133       3714.540          35.000  
  21050935.367       -5481.545         239.875          50.000  
  24264272.121     -106884.7743       2864.108          27.000  
  24789924.088        1670.2073       -167.031          32.000  
  23712422.422       27832.5773      -2196.071          26.000  
  22460549.315     -138459.556        4264.591          41.000  
  22689392.238      -66526.6712       4730.622          47.000  
  25612273.643       42316.9673      -1020.372          23.000  
  22926886.962       -9611.5283       2637.377          38.000  
 15  4  2  0  7 14.0000000  0 12G30G28G19G 1G 7G 4G 5G 9G13G17G10G11
  20419993.027      -71831.402        1688.345          50.000  
  20817066.694      -50744.280        1602.625          49.000  
  23921452.647       17774.0122      -1691.931          34.000  
  24356521.493       -7197.7933       3720.797          35.000  
  21050890.468       -5723.313         244.871          51.000  
  24263680.855     -109749.9563       2869.391          41.000  
  24789950.472        1836.0573       -158.368          27.000  
  23712858.677       30018.0033      -2178.235          28.000  
  22459737.653     -142727.798        4273.367          40.000  
  22688490.725      -71259.9372       4736.208          45.000  
  25612452.281       43323.6703       -997.336          29.000  
  22926382.756      -12251.7852       2642.316          43.000  
 15  4  2  0  7 15.0000000  0 12G30G28G19G 1G 7G 4G 5G 9G13G17G10G11
  20419671.751      -73519.275        1691.341          50.000  
  20816761.769      -52348.001        1607.379          48.000  
  23921760.329       19468.6063      -1691.669          27.000  
  24355816.574      -10915.5123       3719.133          31.000  
  21050844.137       -5967.156         246.559          50.000  
  24263136.496     -112616.1982       2866.719          37.000  
  24789982.406        1995.9543       -156.532          28.000  
  23713272.928       32197.0873      -2176.123          29.000  
  22458924.194     -147003.249        4281.548          41.000  
  22687589.579      -75996.4002       4738.690          43.000  
  25612671.316       44323.1673       -997.887          17.000  
  22925883.435      -14892.8072       2643.190          42.000  
 15  4  2  0  7 16.0000000  0 12G30G28G19G 1G 7G 4G 5G 9G13G17G10G11
  20419349.515      -75212.509        1695.777          50.000  
  20816455.779      -53958.812        1615.002          47.000  
  23922065.847       21155.4903      -1681.512          27.000  
  24355101.010      -14632.8323       3718.344          33.000  
  21050797.109       -6214.166         248.469          50.000  
  24262589.641     -115484.4543       2870.176          41.000  
  24790021.477        2156.8883       -176.225          28.000  
  23713694.350       34375.2273      -2177.701          28.000  
  22458108.518     -151287.103        4288.459          46.000  
  22686686.669      -80737.1672       4741.671          44.000  
  25612852.449       45315.1443       -989.431          21.000  
  22925377.658      -17536.0772       2645.296          43.000  
 15  4  2  0  7 17.0000000  0 12G30G28G19G 1G 7G 4G 5G 9G13G17G10G11
  20419026.006      -76911.525        1700.365          49.000  
  20816147.381      -55577.546        1621.826          48.000  
  23922382.656       22836.2653      -1657.479          28.000  
  24354400.681       -1406.7673       3718.476          34.000  
  21050749.417       -6463.914         249.239          49.000  
  24262042.908     -118354.0003       2871.682          29.000  
  24790060.042        2306.8023       -141.446          33.000  
  23714088.289       36549.3443      -2169.920          29.000  
  22457292.215     -155581.002        4297.935          48.000  
  22685785.121      -85482.4992       4747.113          44.000  
  25613026.620       46302.9033       -981.602          23.000  
  22924873.067      -20180.5462       2644.704          43.000  
 15  4  2  0  7 18.0000000  0 10G30G28G 7G 4G 5G 9G13G17G10G11
  20418701.781      -78614.616        1706.972          44.000  
  20815837.762      -57202.892        1629.034          49.000  
  21050701.569       -6714.579         251.067          50.000  
  24261506.733     -121225.6013       2875.967          31.000  
  24790065.242        2449.8443       -156.322          30.000  
  23714500.673       38727.3223      -2167.639          32.000  
  22456472.927     -159883.542        4307.499          45.000  
  22684881.305      -90230.5132       4750.633          47.000  
  25613207.963       47286.4813       -988.911          22.000  
  22924371.426      -22824.0052       2645.606          45.000  
 15  4  2  0  7 19.0000000  0 10G30G28G 7G 4G 5G 9G13G17G10G11
  20418377.119      -80321.218        1706.555          48.000  
  20815527.584      -58833.977        1631.317          45.000  
  21050653.738       -6966.137         250.686          48.000  
  24260962.443     -124099.1023       2869.473          31.000  
  24790078.819        2574.6603       -120.823          32.000  
  23714914.208       40900.3363      -2161.011          35.000  
  22455652.819     -164193.762        4310.865          48.000  
  22683977.890      -94981.1893       4749.668          38.000  
  25613392.499       48262.7703       -984.381          21.000  
  22923869.296      -25467.5613       2639.971          42.000  
 15  4  2  0  7 20.0000000  0 11G30G28G19G 7G 4G 5G 9G13G17G10G11
  20418051.620      -82031.911        1712.865          49.000  
  20815216.290      -60471.364        1638.843          48.000  
  23923312.159       27851.2673      -1676.135          45.000  
  21050605.401       -7219.088         253.350          48.000  
  24260410.143     -126976.9083       2868.567          34.000  
  24790102.237        2690.4173       -109.528          40.000  
  23715328.965       43065.8093      -2160.703          33.000  
  22454831.455     -168510.4903       4321.376          47.000  
  22683073.445      -99736.3883       4754.082          44.000  
  25613574.435       49236.9013       -978.319          21.000  
  22923366.747      -28110.8192       2642.104          44.000  
 15  4  2  0  7 21.0000000  0 10G30G28G 7G 4G 5G 9G13G17G10G11
  20417724.987      -83748.066        1717.828          49.000  
  20814903.565      -62115.624        1644.995          49.000  
  21050556.854       -7475.708         256.216          49.000  
  24259866.848     -129849.7653       2862.752          35.000  
  24790123.927        2797.4933       -103.915          41.000  
  23715733.112       45230.8793      -2171.246          31.000  
  22454007.944     -172836.7082       4326.921          46.000  
  22682170.902     -104493.4483       4759.936          42.000  
  25613756.772       50201.5573       -975.557          20.000  
  22922862.523      -30759.6913       2650.031          41.000  
 15  4  2  0  7 22.0000000  0 10G30G28G 7G 4G 5G 9G13G17G10G11
  20417397.516      -85468.5793       1719.363          49.000  
  20814589.548      -63764.569        1647.131          48.000  
  21050506.842       -7737.308         261.787          46.000  
  24259318.894     -132724.4603       2890.943          26.000  
  24790154.814        2905.9153       -128.053          31.000  
  23716150.853       47400.8653      -2167.084          29.000  
  22453183.508     -177167.2992       4326.815          43.000  
  22681259.791     -109256.5003       4760.121          47.000  
  25613940.104       51167.1153       -975.781          22.000  
  22922358.055      -33410.2752       2649.722          42.000  
 15  4  2  0  7 23.0000000  0 10G30G28G 7G 4G 5G 9G13G17G10G11
  20417069.086      -87193.4282       1732.386          51.000  
  20814275.008      -65417.097        1659.698          49.000  
  21050456.428       -8002.808         273.715          46.000  
  24258770.312     -135610.7453       2889.354          31.000  
  24790164.395        3014.2423       -113.703          34.000  
  23716559.345       49564.9063      -2158.458          33.000  
  22452358.951     -181501.6732       4341.473          47.000  
  22680349.536     -114023.5772       4773.557          47.000  
  25614126.036       52135.2793       -969.528          22.000  
  22921853.377      -36064.8542       2661.242          44.000  
 15  4  2  0  7 24.0000000  0 11G30G20G28G 7G 4G 5G 9G13G17G10G11
  20416740.934      -88918.6762       1727.041          50.000  
  25119733.430         613.5273       -754.732          37.000  
  20813960.555      -67069.396        1653.485          48.000  
  21050405.753       -8268.944         267.111          49.000  
  24258220.542     -138491.8093       2881.259          25.000  
  24790177.290        3112.7273       -100.293          37.000  
  23716968.238       51733.6823      -2150.909          34.000  
  22451533.939     -185835.3142       4334.621          47.000  
  22679446.469     -118789.5732       4765.614          47.000  
  25614308.269       53109.9273       -966.231          21.000  
  22921348.507      -38720.2323       2656.467          41.000  
 15  4  2  0  7 25.0000000  0 11G30G20G28G 7G 4G 5G 9G13G17G10G11
  20416412.050      -90649.3702       1734.469          51.000  
  25119876.783        1372.9603       -759.045          32.000  
  20813645.770      -68724.650        1658.588          46.000  
  21050354.013       -8541.375         277.850          47.000  
  24257671.506     -141377.4443       2887.193          24.000  
  24790195.055        3211.7102        -99.264          41.000  
  23717378.039       53896.7033      -2159.009          39.000  
  22450708.614     -190172.6682       4341.476          47.000  
  22678541.431     -123555.3842       4764.784          49.000  
  25614488.407       54065.5723       -961.124          20.000  
  22920847.494      -41379.5003       2660.756          29.000  
 15  4  2  0  7 26.0000000  0  9G30G28G 7G 4G 5G 9G13G17G10
  20416080.164      -92392.2542       1752.989          49.000  
  20813329.782      -70388.008        1671.375          47.000  
  21050298.905       -8826.379         296.082          46.000  
  24257127.757     -144268.7433       2906.278          24.000  
  24790217.042        3307.9263        -96.792          36.000  
  23717791.103       56056.7432      -2156.097          45.000  
  22449881.334     -194519.5662       4356.688          44.000  
  22677630.460     -128323.3562       4771.975          48.000  
  25614664.532       55020.0693       -957.476          21.000  
 15  4  2  0  7 27.0000000  0  8G30G28G 7G 5G 9G13G17G10
  20415743.934      -94156.8332       1777.511          49.000  
  20813009.658      -72068.814        1691.376          46.000  
  21050240.918       -9133.122         322.992          40.000  
  24790241.524        3406.8033        -87.636          29.000  
  23718200.974       58204.7782      -2138.891          45.000  
  22449051.157     -198885.2362       4376.529          45.000  
  22676724.637     -133101.0752       4785.058          49.000  
  25614837.412       55965.9623       -947.185          23.000  
 15  4  2  0  7 28.0000000  0  8G30G28G 7G 5G 9G13G17G10
  20415403.183      -95946.6552       1804.109          49.000  
  20812685.607      -73770.227        1713.879          47.000  
  21050177.469       -9465.9973        348.810          45.000  
  24790253.042        3482.5293        -64.811          30.000  
  23718604.353       60335.7952      -2120.465          44.000  
  22448215.327     -203272.6312       4400.484          47.000  
  22675813.648     -137893.3612       4801.637          50.000  
  25615011.565       56903.7003       -943.361          21.000  
 15  4  2  0  7 29.0000000  0  9G30G20G28G 7G 5G 9G13G17G10
  20415057.896      -97760.1162       1826.375          49.000  
  25120451.314        2314.6533       -721.755          24.000  
  20812357.351      -75492.820        1734.552          48.000  
  21050109.396       -9822.6603        366.979          41.000  
  24790253.513        3535.9763        -42.373          36.000  
  23719006.999       62450.0412      -2103.869          45.000  
  22447375.465     -207682.8042       4423.027          47.000  
  22674897.529     -142701.2012       4816.911          49.000  
  25615182.594       57822.3893       -865.400          19.000  
 15  4  2  0  7 30.0000000  0  9G30G20G28G 7G 5G 9G13G17G10
  20414707.862      -99598.4762       1845.913          49.000  
  25120590.899        3018.9553       -694.121          24.000  
  20812025.291      -77239.176        1753.699          48.000  
  21050036.925      -10203.4593        388.315          40.000  
  24790256.462        3565.9592        -23.891          38.000  
  23719405.423       64546.1762      -2091.229          41.000  
  22446531.695     -212118.6212       4444.343          47.000  
  22673979.630     -147527.0092       4829.979          49.000  
  25615342.526       58656.8783       -867.356          18.000  
 15  4  2  0  7 31.0000000  0  9G30G20G28G 7G 5G 9G13G17G10
  20414354.984     -101455.599        1865.673          49.000  
  25120722.909        3711.5893       -684.996          24.000  
  20811689.392      -79003.100        1772.339          47.000  
  21049961.156      -10600.5453        403.250          47.000  
  24790262.587        3579.5843         -5.099          42.000  
  23719802.258       66630.6292      -2079.785          43.000  
  22445683.405     -216574.495        4465.244          46.000  
  22673058.957     -152364.805        4843.455          48.000  
  25615514.759       59546.2023       -883.266          19.000  
 15  4  2  0  7 32.0000000  0 10G30G20G28G19G 7G 5G 9G13G17G10
  20413997.115     -103335.026        1891.709          49.000  
  25120850.610        4387.1793       -662.091          32.000  
  20811349.636      -80789.248        1797.961          47.000  
  23926967.945        2941.0033      -1486.292          31.000  
  21049881.670      -11018.9592        430.010          49.000  
  24790276.285        3579.1843          8.700          39.000  
  23720195.656       68698.8703      -2059.602          32.000  
  22444831.415     -221053.873        4491.801          47.000  
  22672135.369     -157219.602        4864.128          49.000  
  25615682.072       60417.8033       -864.800          21.000  
 15  4  2  0  7 33.0000000  0  9G30G20G28G 7G 5G 9G13G17G10
  20413635.197     -105239.848        1918.270          49.000  
  25120971.680        5042.2883       -637.742          28.000  
  20811004.837      -82600.200        1823.743          47.000  
  21049797.194      -11461.3802        451.945          45.000  
  24790255.066        3551.1313         31.173          35.000  
  23720585.511       70745.5433      -2035.034          46.000  
  22443974.121     -225559.501        4518.405          47.000  
  22671206.791     -162094.998        4887.247          49.000  
  25615845.563       61270.5993       -848.080          23.000  
 15  4  2  0  7 34.0000000  0 10G30G20G28G19G 7G 5G 9G13G17G10
  20413268.010     -107168.083        1935.057          50.000  
  25121093.552        5669.7373       -642.050          26.000  
  20810655.990      -84434.150        1840.442          47.000  
  23927514.242        1934.9643      -1418.201          42.000  
  21049709.332      -11926.2303        472.399          48.000  
  24790243.514        3501.8563         61.375          30.000  
  23720968.264       72771.1232      -2019.592          45.000  
  22443111.993     -230088.696        4535.994          47.000  
  22670275.141     -166991.569        4902.736          50.000  
  25616006.524       62102.6643       -821.830          24.000  
 15  4  2  0  7 35.0000000  0 12G30G20G28G19G 7G 4G 5G 9G13G17G10G11
  20412898.554     -109107.580        1943.384          50.000  
  25121213.714        6295.7663       -618.420          25.000  
  20810305.205      -86278.799        1848.126          48.000  
  23927783.516        3349.2892      -1408.533          44.000  
  21049618.294      -12403.1212        481.179          49.000  
  24251930.175        -385.4743       3116.395          41.000  
  24790233.096        3438.0733         65.479          42.000  
  23721355.694       74786.8712      -2012.274          43.000  
  22442247.928     -234628.785        4543.586          48.000  
  22669341.729     -171897.615        4909.227          49.000  
  25616165.670       62919.9113       -813.202          26.000  
  22915556.832       -2884.7823       2870.067          47.000  
 15  4  2  0  7 36.0000000  0 13G30G20G28G19G 1G 7G 4G 5G 9G13G17G10
                                G11
  20412526.532     -111064.472        1967.001          50.000  
  25121314.332        6900.9143       -593.476          31.000  
  20809950.774      -88140.259        1871.246          48.000  
  23928048.532        4745.3222      -1385.663          43.000  
  24340661.112       -2862.7183       3961.644          38.000  
  21049523.871      -12897.2482        502.825          40.000  
  24251339.503       -3509.2913       3132.677          36.000  
  24790218.490        3358.6782         87.972          43.000  
  23721734.818       76786.1152      -1990.027          48.000  
  22441380.687     -239185.816        4567.050          47.000  
  22668405.158     -176819.501        4930.557          50.000  
  25616310.768       63726.7763       -796.677          31.000  
  22915008.215       -5768.4642       2893.238          47.000  
 15  4  2  0  7 37.0000000  0 13G30G20G28G19G 1G 7G 4G 5G 9G13G17G10
                                G11
  20412149.660     -113043.169        1989.723          48.000  
  25121431.109        7489.1783       -569.843          22.000  
  20809592.539      -90023.164        1893.945          47.000  
  23928311.821        6118.1073      -1355.243          29.000  
  24339903.476       -6830.8133       3980.793          41.000  
  21049424.963      -13413.0243        527.014          48.000  
  24250739.128       -6649.8033       3139.110          34.000  
  24790201.441        3266.1803         87.345          26.000  
  23722110.765       78764.8052      -1967.023          46.000  
  22440509.729     -243764.341        4589.840          47.000  
  22667464.400     -181761.777        4953.538          49.000  
  25616463.109       64518.4653       -773.579          32.000  
  22914455.096       -8673.8122       2917.662          45.000  
 15  4  2  0  7 38.0000000  0 11G30G20G28G19G 7G 4G 9G13G17G10G11
  20411769.577     -115041.172        2002.893          49.000  
  25121533.629        8054.5473       -567.720          28.000  
  20809230.255      -91924.991        1906.537          47.000  
  23928568.025        7474.1753      -1347.192          43.000  
  21049323.141      -13948.2552        539.150          48.000  
  24250137.654       -9807.4723       3155.794          34.000  
  23722482.629       80725.3402      -1955.542          39.000  
  22439634.653     -248361.1553       4601.907          38.000  
  22666520.901     -186722.093        4965.067          47.000  
  25616604.700       65285.9653       -761.041          31.000  
  22913899.934      -11598.0542       2928.440          46.000  
 15  4  2  0  7 39.0000000  0 12G30G20G28G19G 7G 4G 5G 9G13G17G10G11
  20411387.783     -117048.145        2007.259          49.000  
  25121648.748        8618.9693       -555.860          26.000  
  20808867.465      -93835.940        1911.957          48.000  
  23928824.195        8826.0603      -1351.042          42.000  
  21049220.761      -14491.4073        542.930          48.000  
  24249531.817      -12975.9923       3175.674          41.000  
  24790159.386         290.7783        127.414          33.000  
  23722856.430       82676.4332      -1949.731          48.000  
  22438758.042     -252966.6673       4606.897          47.000  
  22665575.134     -191691.496        4970.438          49.000  
  25616752.730       66048.7343       -758.307          25.000  
  22913341.789      -14528.9393       2943.320          43.000  
 15  4  2  0  7 40.0000000  0 12G30G20G28G19G 7G 4G 5G 9G13G17G10G11
  20411003.285     -119067.198        2024.980          49.000  
  25121756.730        9169.9983       -537.990          24.000  
  20808501.289      -95759.035        1929.486          48.000  
  23929084.185       10176.2713      -1355.862          27.000  
  21049114.995      -15047.2163        558.602          42.000  
  24248927.551      -16162.2213       3190.148          42.000  
  24790129.459         155.6753        149.736          34.000  
  23723225.398       84614.6412      -1932.349          46.000  
  22437878.830     -257584.2993       4624.092          42.000  
  22664627.064     -196673.721        4988.616          50.000  
  25616890.151       66795.2423       -742.498          31.000  
  22912781.009      -17473.2563       2950.521          43.000  
 15  4  2  0  7 41.0000000  0 12G30G20G28G 1G 7G 4G 5G 9G13G17G10G11
  20410617.618     -121096.568        2032.998          50.000  
  25121855.149        9703.8023       -521.579          23.000  
  20808132.933      -97692.624        1937.402          47.000  
  24336856.005      -22844.5633       4018.771          34.000  
  21049007.118      -15613.2603        570.737          45.000  
  24248322.535      -19355.4953       3194.360          31.000  
  24790098.782          11.1333        154.057          27.000  
  23723591.468       86540.4443      -1921.942          44.000  
  22436996.268     -262212.4012       4631.858          42.000  
  22663676.655     -201667.608        4997.637          50.000  
  25617034.569       67531.5743       -739.844          25.000  
  22912222.724      -20427.7093       2953.949          38.000  
 15  4  2  0  7 42.0000000  0 13G30G20G28G19G 1G 7G 4G 5G 9G13G17G10
                                G11
  20410229.473     -123135.697        2045.722          49.000  
  25121949.747       10219.6353       -508.468          23.000  
  20807762.883      -99636.170        1950.281          47.000  
  23929579.632        2835.6143      -1309.552          39.000  
  24336091.982       -1558.6803       4018.218          33.000  
  21048897.181      -16190.5782        584.057          48.000  
  24247709.491      -22559.2813       3211.173          43.000  
  24790063.445        -141.7363        168.478          32.000  
  23723955.742       88455.1552      -1907.721          48.000  
  22436117.579     -266849.6222       4644.324          41.000  
  22662724.240     -206672.890        5012.864          49.000  
  25617174.938       68257.8883       -717.904          26.000  
  22911654.842      -23390.9633       2972.091          44.000  
 15  4  2  0  7 43.0000000  0 12G30G20G28G 1G 7G 4G 5G 9G13G17G10G11
  20409838.745     -125188.162        2062.204          49.000  
  25122049.615       10729.9623       -508.017          23.000  
  20807390.722     -101593.170        1966.602          47.000  
  24335321.398       -5603.3363       4055.925          41.000  
  21048784.279      -16781.4712        600.651          48.000  
  24247097.983      -25778.6662       3229.454          40.000  
  24790032.680        -316.4563        183.572          42.000  
  23724317.153       90354.7822      -1887.366          38.000  
  22435232.103     -271499.6552       4659.341          47.000  
  22661769.294     -211692.868        5029.796          50.000  
  25617310.369       68967.2393       -702.977          25.000  
  22911087.500      -26370.6202       2988.607          44.000  
 15  4  2  0  7 44.0000000  0 12G30G20G28G19G 1G 7G 4G 5G 9G13G17G10
  20409445.016     -127258.297        2075.420          49.000  
  25122143.758       11222.0043       -468.832          22.000  
  20807014.827     -103568.212        1980.774          47.000  
  23930070.105        5423.6113      -1282.782          33.000  
  24334546.521       -9669.6803       4065.031          31.000  
  21048668.130      -17390.4252        614.659          48.000  
  24246479.931      -29013.9273       3236.377          32.000  
  24789994.726        -509.1322        197.823          44.000  
  23724674.202       92235.1223      -1871.515          40.000  
  22434341.828     -276166.8492       4671.165          41.000  
  22660810.038     -216732.768        5047.485          49.000  
  25617436.377       69653.4753       -683.803          25.000  
 15  4  2  0  7 45.0000000  0 12G30G20G28G19G 7G 4G 5G 9G13G17G10G11
  20409047.988     -129343.641        2089.050          50.000  
  25122227.397       11684.3623       -455.142          30.000  
  20806635.966     -105559.336        1995.642          47.000  
  23930318.614        6704.8903      -1267.985          33.000  
  21048549.451      -18015.5612        628.795          48.000  
  24245863.310      -32261.7573       3269.449          31.000  
  24789955.323        -719.1702        213.513          40.000  
  23725028.162       94094.1602      -1851.996          41.000  
  22433453.018     -280848.4402       4684.997          46.000  
  22659847.030     -221793.062        5067.675          49.000  
  25617558.860       70318.1543       -652.089          24.000  
  22909944.598      -32384.3913       3017.579          39.000  
 15  4  2  0  7 46.0000000  0 13G30G20G28G19G 1G 7G 4G 5G 9G13G17G10
                                G11
  20408649.635     -131437.324        2098.596          49.000  
  25122306.866       12137.3663       -452.369          30.000  
  20806255.254     -107559.769        2005.658          48.000  
  23930555.815        7970.4923      -1263.391          34.000  
  24332995.755       -4457.1573       4109.742          35.000  
  21048428.835      -18650.7212        640.923          48.000  
  24245243.391      -35522.7403       3272.164          35.000  
  24789911.541        -940.1652        227.056          40.000  
  23725379.104       95936.7132      -1833.240          47.000  
  22432560.841     -285536.6913       4692.266          45.000  
  22658880.864     -226869.353        5085.140          50.000  
  25617681.343       70966.4183       -638.356          26.000  
  22909365.286      -35407.8203       3043.804          38.000  
 15  4  2  0  7 47.0000000  0 13G30G20G28G19G 1G 7G 4G 5G 9G13G17G10
                                G11
  20408250.077     -133540.034        2108.356          50.000  
  25122394.309       12575.8923       -432.402          30.000  
  20805872.484     -109570.310        2016.699          48.000  
  23930795.092        9230.1593      -1256.348          45.000  
  24332207.703        -369.1223       4120.773          37.000  
  21048305.741      -19297.0762        652.649          49.000  
  24244621.396      -38795.2053       3278.966          28.000  
  24789868.509       -1172.4953        239.967          38.000  
  23725725.735       97760.5692      -1814.276          44.000  
  22431667.268     -290231.6312       4700.533          43.000  
  22657911.191     -231963.889        5104.449          49.000  
  25617799.394       71596.5983       -616.971          29.000  
  22908790.249      -38444.6193       3046.829          38.000  
 15  4  2  0  7 48.0000000  0 12G30G20G28G19G 7G 4G 5G 9G13G17G10G11
  20407847.152     -135654.673        2117.117          48.000  
  25122468.856       12992.0633       -405.989          30.000  
  20805488.300     -111593.644        2026.074          47.000  
  23931031.926       10481.3113      -1253.201          39.000  
  21048180.187      -19957.8022        664.057          49.000  
  24243989.523       -2176.6143       3287.623          41.000  
  24789825.511       -1414.5263        256.840          33.000  
  23726068.527       99562.2902      -1793.121          43.000  
  22430772.124     -294935.9363       4705.307          47.000  
  22656937.748     -237079.706        5122.600          49.000  
  25617920.010       72202.8333       -602.334          35.000  
  22908209.558      -41494.8013       3053.411          43.000  
 15  4  2  0  7 49.0000000  0 13G30G20G28G19G 1G 7G 4G 5G 9G13G17G10
                                G11
  20407441.591     -137784.968        2136.997          49.000  
  25122539.913       13382.4553       -388.859          29.000  
  20805099.474     -113633.597        2047.082          48.000  
  23931268.133       11719.6823      -1234.424          40.000  
  24330637.986       -2203.4433       4155.035          39.000  
  21048050.951      -20636.476         686.521          47.000  
  24243364.683       -2190.4793       3309.664          41.000  
  24789769.444       -1679.4793        275.179          39.000  
  23726407.358      101338.7822      -1764.941          47.000  
  22429874.066     -299653.6092       4722.834          47.000  
  22655959.768     -242220.211        5151.667          49.000  
  25618029.667       72786.9323       -570.949          37.000  
  22907625.464      -44564.0673       3080.716          43.000  
 15  4  2  0  7 50.0000000  0 12G30G28G19G 1G 7G 4G 5G 9G13G17G10G11
  20407034.687     -139924.555        2150.800          49.000  
  20804709.549     -115683.908        2062.872          47.000  
  23931501.058       12952.3102      -1220.849          42.000  
  24329842.518       -6365.8562       4177.721          39.000  
  21047919.934      -21326.935         703.981          48.000  
  24242732.549       -5505.0212       3327.728          39.000  
  24789712.661       -1957.2432        291.397          40.000  
  23726741.808      103095.2472      -1739.984          47.000  
  22428974.629     -304378.1472       4734.689          47.000  
  22654977.181     -247379.974        5175.763          49.000  
  25618131.960       73349.4972       -546.531          34.000  
  22907040.987      -47645.3112       3093.942          47.000  
 15  4  2  0  7 51.0000000  0 12G30G28G19G 1G 7G 4G 5G 9G13G17G10G11
  20406624.921     -142076.456        2160.218          50.000  
  20804316.762     -117747.357        2071.948          47.000  
  23931735.676       14176.1752      -1216.797          41.000  
  24329047.696      -10545.6122       4191.654          40.000  
  21047785.219      -22031.751         713.236          47.000  
  24242100.642       -8833.1322       3336.636          39.000  
  24789665.528       -2248.8993        303.314          31.000  
  23727071.635      104830.0732      -1722.583          46.000  
  22428073.675     -309112.6492       4741.208          46.000  
  22653992.064     -252560.722        5192.451          50.000  
  25618245.631       73889.1353       -530.208          25.000  
  22906448.796      -50741.5772       3105.641          46.000  
 15  4  2  0  7 52.0000000  0 12G30G28G19G 1G 7G 4G 5G 9G13G17G10G11
  20406213.550     -144236.203        2162.231          48.000  
  20803922.631     -119819.418        2075.037          48.000  
  23931967.974       15395.1223      -1216.504          46.000  
  24328243.363      -14736.9892       4195.559          38.000  
  21047648.758      -22746.141         717.820          48.000  
  24241466.309      -12170.3932       3338.712          43.000  
  24789603.213       -2551.9762        304.994          40.000  
  23727397.867      106549.6972      -1713.287          45.000  
  22427171.725     -313853.3432       4742.105          47.000  
  22653003.247     -257756.111        5201.146          49.000  
  25618337.053       74408.6373       -519.880          35.000  
  22905858.682      -53847.6572       3108.937          45.000  
 15  4  2  0  7 53.0000000  0 12G30G28G19G 1G 7G 4G 5G 9G13G17G10G11
  20405802.614     -146397.507        2163.054          49.000  
  20803527.907     -121893.669        2075.940          47.000  
  23932199.137       16613.5192      -1219.147          40.000  
  24327452.990      -18933.6822       4201.646          38.000  
  21047512.786      -23463.592         720.034          47.000  
  24240831.837      -15510.0152       3340.059          40.000  
  24789545.889       -2858.1212        310.378          38.000  
  23727724.430      108261.2412      -1706.921          47.000  
  22426269.322     -318594.0562       4741.870          45.000  
  22652013.296     -262959.176        5207.602          50.000  
  25618434.565       74926.3083       -514.126          32.000  
  22905266.073      -56957.0232       3113.025          39.000  
 15  4  2  0  7 54.0000000  0 11G30G28G19G 7G 4G 5G 9G13G17G10G11
  20405390.667     -148563.667        2171.687          48.000  
  20803131.246     -123973.419        2085.236          46.000  
  23932432.167       17829.0302      -1210.766          38.000  
  21047375.662      -24187.128         729.560          49.000  
  24240190.262      -18855.5282       3351.595          42.000  
  24789483.923       -3170.5522        318.689          38.000  
  23728048.795      109961.9842      -1692.584          46.000  
  22425366.413     -323338.2292       4749.369          45.000  
  22651021.129     -268172.523        5220.419          49.000  
  25618537.852       75433.3623       -497.317          32.000  
  22904674.440      -60072.6252       3122.434          45.000  
 15  4  2  0  7 55.0000000  0 12G30G28G19G 1G 7G 4G 5G 9G13G17G10G11
  20404976.155     -150741.067        2184.240          48.000  
  20802732.771     -126064.821        2098.737          47.000  
  23932662.073       19034.5742      -1199.029          39.000  
  24325844.254      -27355.7352       4225.201          39.000  
  21047234.455      -24922.853         742.918          47.000  
  24239550.851      -22212.6642       3364.613          38.000  
  24789422.324       -3495.5512        332.490          43.000  
  23728369.355      111647.186       -1677.435          46.000  
  22424461.549     -328092.661        4761.194          45.000  
  22650026.746     -273400.662        5236.109          50.000  
  25618630.583       75925.0882       -483.614          37.000  
  22904079.056      -63200.3892       3135.015          43.000  
 15  4  2  0  7 56.0000000  0 12G30G28G19G 1G 7G 4G 5G 9G13G17G10G11
  20404559.566     -152933.422        2199.958          49.000  
  20802332.341     -128171.336        2114.386          47.000  
  23932889.205       20225.8822      -1183.759          39.000  
  24325039.974      -31589.6862       4241.742          39.000  
  21047091.293      -25673.809         758.327          48.000  
  24238910.847      -25585.0472       3379.846          39.000  
  24789360.097       -3835.9582        347.806          44.000  
  23728686.478      113315.815       -1660.736          46.000  
  22423552.917     -332861.481        4776.062          45.000  
  22649027.512     -278645.592        5252.937          50.000  
  25618715.216       76399.6292       -466.405          35.000  
  22903479.903      -66343.5512       3150.542          43.000  
 15  4  2  0  7 57.0000000  0 12G30G28G19G 1G 7G 4G 5G 9G13G17G10G11
  20404138.544     -155145.792        2222.330          48.000  
  20801927.618     -130297.984        2136.786          48.000  
  23933111.870       21397.1852      -1161.279          39.000  
  24324233.181      -35843.7952       4263.830          39.000  
  21046944.258      -26444.960         781.110          48.000  
  24238271.296      -28977.3352       3402.646          40.000  
  24789291.168       -4196.5762        370.951          43.000  
  23728999.553      114963.937       -1637.805          46.000  
  22422641.352     -337650.238        4799.013          44.000  
  22648025.764     -283910.821        5275.574          50.000  
  25618797.547       76853.3382       -442.953          31.000  
  22902878.150      -69506.6122       3173.850          41.000  
 15  4  2  0  7 58.0000000  0 13G30G20G28G19G 1G 7G 4G 5G 9G13G17G10
                                G11
  20403713.946     -157378.313        2242.388          49.000  
  25123086.192         526.7453       -240.202          31.000  
  20801519.056     -132444.775        2156.976          48.000  
  23933329.597       22548.4552      -1140.460          39.000  
  24323420.803      -40118.2962       4284.907          38.000  
  21046793.924      -27236.166         801.698          49.000  
  24237623.928      -32389.6392       3422.609          39.000  
  24789217.371       -4577.3322        391.161          43.000  
  23729309.660      116591.744       -1617.328          45.000  
  22421726.682     -342458.984        4819.242          45.000  
  22647019.777     -289196.251        5295.691          50.000  
  25618879.842       77286.3503       -421.059          29.000  
  22902272.034      -72689.5052       3192.598          42.000  
 15  4  2  0  7 59.0000000  0 13G30G20G28G19G 1G 7G 4G 5G 9G13G17G10
                                G11
  20403284.426     -159630.669        2262.187          49.000  
  25123130.411         756.2803       -219.669          30.000  
  20801106.864     -134611.411        2176.062          48.000  
  23933543.187       23680.0972      -1123.022          35.000  
  24322603.243      -44412.6562       4303.639          39.000  
  21046640.380      -28047.177         820.338          48.000  
  24236971.569      -35821.6422       3441.413          39.000  
  24789140.817       -4977.8872        409.808          43.000  
  23729614.603      118199.569       -1598.389          46.000  
  22420808.085     -347287.387        4837.912          45.000  
  22646010.160     -294501.503        5314.436          49.000  
  25618961.509       77699.2983       -404.343          29.000  
  22901663.161      -75892.0042       3211.545          44.000  
 15  4  2  0  8  0.0000000  0 13G30G20G28G19G 1G 7G 4G 5G 9G13G17G10
                                G11
  20402852.481     -161902.661        2281.990          49.000  
  25123161.857         965.2853       -198.243          29.000  
  20800690.310     -136797.776        2196.277          47.000  
  23933754.160       24791.9512      -1101.959          35.000  
  24321783.187      -48726.8082       4323.998          37.000  
  21046481.199      -28877.830         840.494          47.000  
  24236310.817      -39273.1992       3461.387          40.000  
  24789061.244       -5398.1812        430.499          43.000  
  23729917.085      119787.479       -1577.814          45.000  
  22419886.469     -352135.377        4858.023          46.000  
  22644996.860     -299826.520        5335.193          50.000  
  25619041.902       78091.9413       -382.720          30.000  
  22901050.432      -79114.0562       3232.112          43.000  
 15  4  2  0  8  1.0000000  0 13G30G20G28G19G 1G 7G 4G 5G 9G13G17G10
                                G11
  20402416.644     -164194.361        2301.262          50.000  
  25123215.603        1154.2532       -178.673          30.000  
  20800271.505     -139003.839        2215.540          48.000  
  23933962.376       25884.2192      -1082.641          37.000  
  24320957.461      -53060.7672       4343.848          37.000  
  21046319.872      -29728.104         859.596          48.000  
  24235649.105      -42744.3102       3480.560          37.000  
  24788976.349       -5838.1672        449.227          43.000  
  23730214.890      121355.534       -1558.362          45.000  
  22418959.827     -357002.941        4877.205          45.000  
  22643979.827     -305171.243        5354.175          50.000  
  25619106.241       78464.0822       -360.414          30.000  
  22900433.008      -82355.511        3250.973          43.000  
 15  4  2  0  8  2.0000000  0 13G30G20G28G19G 1G 7G 4G 5G 9G13G17G10
                                G11
  20401976.672     -166505.774        2321.026          49.000  
  25123249.282        1323.1932       -159.276          31.000  
  20799848.703     -141229.653        2235.217          47.000  
  23934166.125       26956.8482      -1063.019          37.000  
  24320128.872      -57414.5502       4363.396          38.000  
  21046154.984      -30598.075         879.756          47.000  
  24234984.042      -46234.9902       3498.992          37.000  
  24788888.347       -6297.9172        469.106          42.000  
  23730508.525      122903.666       -1538.287          44.000  
  22418030.533     -361890.068        4896.907          46.000  
  22642959.111     -310535.747        5374.156          49.000  
  25619177.263       78816.0882       -342.335          35.000  
  22899812.792      -85616.474        3270.652          44.000  
 15  4  2  0  8  3.0000000  0 13G30G20G28G19G 1G 7G 4G 5G 9G13G17G10
                                G11
  20401533.244     -168836.267        2339.845          49.000  
  25123277.953        1472.5392       -139.863          31.000  
  20799421.156     -143474.601        2254.279          48.000  
  23934366.035       28010.2972      -1043.396          32.000  
  24319296.531      -61787.5272       4382.351          39.000  
  21045985.665      -31487.144         898.617          48.000  
  24234316.780      -49744.7302       3519.391          38.000  
  24788798.234       -6776.8042        488.516          43.000  
  23730799.176      124432.501       -1519.421          44.000  
  22417096.929     -366796.157        4915.603          46.000  
  22641935.254     -315919.381        5393.069          50.000  
  25619238.880       79148.5592       -322.884          35.000  
  22899187.097      -88896.298        3289.252          42.000  
 15  4  2  0  8  4.0000000  0 13G30G20G28G19G 1G 7G 4G 5G 9G13G17G10
                                G11
  20401087.164     -171185.336        2358.165          50.000  
  25123301.615        1602.9793       -121.654          29.000  
  20798990.362     -145738.133        2272.540          48.000  
  23934564.706       29045.3392      -1026.544          36.000  
  24318460.526      -66179.2192       4401.176          39.000  
  21045812.559      -32394.716         916.593          47.000  
  24233646.151      -53272.8272       3537.115          40.000  
  24788702.101       -7274.2242        506.308          42.000  
  23731087.820      125942.588       -1500.915          45.000  
  22416160.516     -371720.712        4933.647          46.000  
  22640906.808     -321321.606        5411.118          50.000  
  25619305.365       79461.8302       -303.271          35.000  
  22898558.104      -92194.475        3306.721          40.000  
 15  4  2  0  8  5.0000000  0 13G30G20G28G19G 1G 7G 4G 5G 9G13G17G10
                                G11
  20400636.704     -173552.565        2376.343          50.000  
  25123323.131        1714.8993       -103.505          28.000  
  20798556.393     -148019.856        2290.826          48.000  
  23934759.729       30062.1902      -1008.289          39.000  
  24317622.392      -70589.1822       4418.893          41.000  
  21045636.853      -33320.424         934.734          48.000  
  24232972.171      -56819.0362       3555.431          41.000  
  24788604.642       -7789.8902        524.776          43.000  
  23731372.922      127434.328       -1482.355          47.000  
  22415219.042     -376663.312        4952.127          45.000  
  22639875.326     -326742.059        5429.409          49.000  
  25619357.158       79756.4432       -285.531          35.000  
  22897926.947      -95510.707        3325.083          42.000  
 15  4  2  0  8  6.0000000  0 12G30G28G19G 1G 7G 4G 5G 9G13G17G10G11
  20400182.981     -175937.566        2393.502          50.000  
  20798118.497     -150319.393        2308.282          48.000  
  23934949.081       31061.4662       -990.808          36.000  
  24316780.227      -75016.9992       4436.542          41.000  
  21045458.459      -34263.860         951.666          48.000  
  24232293.201      -60382.8642       3572.643          39.000  
  24788503.047       -8323.3802        542.332          41.000  
  23731652.736      128908.099       -1465.210          46.000  
  22414275.578     -381623.495        4968.605          46.000  
  22638841.139     -332180.343        5446.891          50.000  
  25619408.479       80032.7312       -267.499          36.000  
  22897292.632      -98844.397        3342.259          42.000  
 15  4  2  0  8  7.0000000  0 13G30G20G28G19G 1G 7G 4G 5G 9G13G17G10
                                G11
  20399725.088     -178339.878        2409.812          50.000  
  25123340.023         541.6423        -67.448          30.000  
  20797677.111     -152636.284        2324.286          47.000  
  23935135.886       32043.279        -973.926          36.000  
  24315934.817      -79462.3282       4452.882          39.000  
  21045276.349      -35224.600         968.065          48.000  
  24231611.211      -63963.8782       3588.904          41.000  
  24788398.869       -8874.649         558.535          43.000  
  23731930.334      130364.328       -1448.499          45.000  
  22413330.038     -386600.931        4985.008          46.000  
  22637803.113     -337635.982        5463.225          50.000  
  25619457.060       80291.2222       -250.952          36.000  
  22896654.303     -102195.255        3358.296          40.000  
 15  4  2  0  8  8.0000000  0 12G30G28G19G 1G 7G 4G 5G 9G13G17G10G11
  20399265.711     -180759.695        2429.115          50.000  
  20797233.247     -154970.704        2343.420          47.000  
  23935319.933       33007.697        -955.322          36.000  
  24315085.340      -83925.2912       4472.409          39.000  
  21045089.614      -36202.828         987.516          48.000  
  24230926.674      -67562.3592       3608.010          41.000  
  24788291.951       -9442.963         577.783          43.000  
  23732205.070      131802.879       -1429.217          46.000  
  22412379.944     -391595.751        5004.022          46.000  
  22636762.120     -343109.164        5482.307          50.000  
  25619506.793       80531.6292       -230.715          36.000  
  22896013.985     -105563.373        3376.460          42.000  
 15  4  2  0  8  9.0000000  0 12G30G28G19G 1G 7G 4G 5G 9G13G17G10G11
  20398801.500     -183196.652        2445.877          50.000  
  20796786.731     -157322.304        2360.254          48.000  
  23935500.090       33955.161        -939.282          34.000  
  24314233.351      -88405.4012       4488.872          39.000  
  21044899.371      -37198.130        1004.026          47.000  
  24230239.014      -71177.7562       3624.169          40.000  
  24788181.456      -10028.470         594.224          44.000  
  23732475.793      133224.095       -1412.238          47.000  
  22411426.882     -396607.580        5020.835          45.000  
  22635716.485     -348599.543        5499.535          50.000  
  25619548.988       80754.4052       -212.927          36.000  
  22895369.897     -108948.390        3393.573          42.000  
 15  4  2  0  8 10.0000000  0 13G30G20G28G19G 1G 7G 4G 5G 9G13G17G10
                                G11
  20398334.148     -185650.651        2462.714          50.000  
  25123375.151         663.5883        -14.443          30.000  
  20796335.451     -159690.978        2377.307          47.000  
  23935675.394       34885.357        -921.295          33.000  
  24313377.819      -92902.7432       4505.518          39.000  
  21044707.105      -38210.418        1020.826          47.000  
  24229547.706      -74810.0762       3640.420          40.000  
  24788068.170      -10631.038         611.556          44.000  
  23732742.834      134628.067       -1395.111          47.000  
  22410468.290     -401636.316        5037.124          45.000  
  22634668.391     -354106.978        5516.153          49.000  
  25619587.343       80959.5122       -195.510          36.000  
  22894723.279     -112350.161        3409.890          44.000  
 15  4  2  0  8 11.0000000  0 13G30G20G28G19G 1G 7G 4G 5G 9G13G17G10
                                G11
  20397864.144     -188121.509        2479.210          50.000  
  25123364.733         670.1843         -4.846          28.000  
  20795881.414     -162076.519        2393.866          48.000  
  23935847.907       35798.9691       -905.090          30.000  
  24312518.431      -97417.0062       4521.603          40.000  
  21044510.930      -39239.601        1037.365          46.000  
  24228853.100      -78459.2312       3656.449          39.000  
  24787948.601      -11250.475         627.945          43.000  
  23733006.524      136014.971       -1378.668          47.000  
  22409507.114     -406681.796        5053.684          46.000  
  22633618.551     -359631.358        5532.601          50.000  
  25619623.605       81147.4342       -178.603          33.000  
  22894071.758     -115768.792        3426.671          43.000  
 15  4  2  0  8 12.0000000  0 12G30G28G19G 1G 7G 4G 5G 9G13G17G10G11
  20397390.737     -190608.909        2495.322          49.000  
  20795424.340     -164478.682        2410.327          47.000  
  23936006.442       36695.940        -887.329          31.000  
  24311654.854     -101948.1142       4542.239          37.000  
  21044311.212      -40285.328        1054.122          46.000  
  24228154.428      -82124.8302       3673.248          38.000  
  24787826.414      -11886.533         643.792          39.000  
  23733266.986      137385.111       -1361.682          45.000  
  22408545.119     -411743.722        5069.897          46.000  
  22632563.423     -365172.329        5548.891          50.000  
  25619656.656       81318.1442       -163.121          33.000  
  22893419.190     -119203.629        3443.386          41.000  
 15  4  2  0  8 13.0000000  0 13G30G20G28G19G 1G 7G 4G 5G 9G13G17G10
                                G11
  20396913.578     -193112.313        2511.034          49.000  
  25123362.726         635.0503         28.783          25.000  
  20794964.667     -166896.827        2425.452          48.000  
  23936185.796       37577.051        -874.359          38.000  
  24310790.056     -106495.098        4553.976          39.000  
  21044108.754      -41346.915        1068.620          46.000  
  24227454.186      -85806.752        3688.722          41.000  
  24787701.471      -12538.576         659.447          42.000  
  23733523.766      138739.136       -1346.454          45.000  
  22407577.958     -416821.494        5084.832          46.000  
  22631505.155     -370729.289        5564.617          49.000  
  25619686.792       81471.782        -146.918          37.000  
  22892763.376     -122654.211        3458.075          44.000  
 15  4  2  0  8 14.0000000  0 12G30G28G19G 1G 7G 4G 5G 9G13G17G10G11
  20396433.401     -195631.344        2526.939          49.000  
  20794502.131     -169330.662        2441.925          48.000  
  23936342.499       38442.626        -857.849          35.000  
  24309922.152     -111057.993        4572.157          41.000  
  21043904.552      -42424.156        1084.846          47.000  
  24226750.436      -89503.666        3705.194          39.000  
  24787576.161      -13206.316         675.729          44.000  
  23733778.609      140077.254       -1329.669          46.000  
  22406608.022     -421914.741        5101.119          45.000  
  22630445.263     -376301.963        5580.639          50.000  
  25619712.479       81609.884        -130.405          30.000  
  22892103.548     -126120.249        3474.250          44.000  
 15  4  2  0  8 15.0000000  0 12G30G28G19G 1G 7G 4G 5G 9G13G17G10G11
  20395951.286     -198165.737        2542.204          49.000  
  20794035.373     -171779.884        2456.958          48.000  
  23936503.652       39292.835        -843.799          34.000  
  24309050.688     -115636.238        4585.901          41.000  
  21043696.633      -43516.758        1099.588          47.000  
  24226041.713      -93215.839        3718.840          40.000  
  24787445.982      -13889.463         690.869          41.000  
  23734030.904      141399.839       -1314.691          45.000  
  22405635.574     -427023.307        5116.275          45.000  
  22629382.091     -381890.032        5595.558          50.000  
  25619734.588       81731.927        -113.898          35.000  
  22891441.783     -129601.412        3488.816          45.000  
 15  4  2  0  8 16.0000000  0 12G30G28G19G 1G 7G 4G 5G 9G13G17G10G11
  20395465.891     -200715.366        2557.155          49.000  
  20793566.660     -174244.376        2472.217          48.000  
  23936657.877       40127.652        -827.820          33.000  
  24308175.036     -120229.891        4601.542          39.000  
  21043486.602      -44624.561        1115.591          48.000  
  24225331.646      -96943.174        3735.230          38.000  
  24787311.842      -14587.857         706.206          43.000  
  23734279.238      142706.993       -1299.249          46.000  
  22404658.833     -432146.921        5130.930          44.000  
  22628316.668     -387493.408        5611.068          50.000  
  25619755.023       81838.246         -98.160          36.000  
  22890777.523     -133097.604        3504.035          45.000  
 15  4  2  0  8 17.0000000  0 12G30G28G19G 1G 7G 4G 5G 9G13G17G10G11
  20394977.546     -203279.944        2571.932          49.000  
  20793095.190     -176723.824        2486.908          48.000  
  23936822.293       40947.830        -813.306          36.000  
  24307297.709     -124838.635        4616.005          39.000  
  21043272.400      -45747.246        1130.152          47.000  
  24224620.148     -100685.301        3749.483          39.000  
  24787178.854      -15301.203         720.909          45.000  
  23734526.159      143999.022       -1284.729          46.000  
  22403680.539     -437285.351        5145.794          44.000  
  22627247.511     -393111.703        5625.626          51.000  
  25619773.066       81929.170         -83.383          36.000  
  22890109.197     -136608.539        3518.452          44.000  
 15  4  2  0  8 18.0000000  0 12G30G28G19G 1G 7G 4G 5G 9G13G17G10G11
  20394487.003     -205858.952        2586.682          49.000  
  20792620.282     -179217.735        2501.379          48.000  
  23936978.018       41753.433        -798.071          36.000  
  24306416.927     -129461.872        4629.638          38.000  
  21043056.454      -46884.339        1144.838          48.000  
  24223905.789     -104441.706        3763.868          39.000  
  24787042.097      -16028.981         735.268          44.000  
  23734769.467      145276.383       -1269.897          46.000  
  22402700.849     -442438.105        5160.488          45.000  
  22626175.823     -398744.542        5640.756          50.000  
  25619787.986       82005.156         -68.040          36.000  
  22889438.882     -140133.666        3531.966          44.000  
 15  4  2  0  8 19.0000000  0 12G30G28G19G 1G 7G 4G 5G 9G13G17G10G11
  20393993.249     -208452.423        2600.631          49.000  
  20792142.408     -181726.146        2514.972          48.000  
  23937129.102       42544.683        -784.625          36.000  
  24305533.004     -134099.739        4644.697          38.000  
  21042838.291      -48035.862        1158.518          48.000  
  24223188.305     -108212.493        3777.859          38.000  
  24786899.965      -16771.319         749.226          44.000  
  23735009.041      146539.080       -1255.804          45.000  
  22401718.750     -447605.201        5174.053          45.000  
  22625101.012     -404391.855        5654.250          51.000  
  25619798.910       82066.037         -53.322          36.000  
  22888765.147     -143673.049        3546.162          44.000  
 15  4  2  0  8 20.0000000  0 12G30G28G19G 1G 7G 4G 5G 9G13G17G10G11
  20393496.948     -211060.271        2615.474          49.000  
  20791662.911     -184248.999        2530.359          48.000  
  23937276.836       43321.607        -769.946          36.000  
  24304648.592     -138752.106        4660.166          40.000  
  21042616.377      -49201.757        1173.607          48.000  
  24222468.955     -111997.532        3792.071          42.000  
  24786756.053      -17528.028         764.503          44.000  
  23735246.242      147787.265       -1240.485          45.000  
  22400731.679     -452786.587        5188.831          45.000  
  22624024.508     -410053.589        5669.326          51.000  
  25619807.356       82112.068         -37.997          36.000  
  22888089.457     -147226.621        3561.095          44.000  
 15  4  2  0  8 21.0000000  0 12G30G28G19G 1G 7G 4G 5G 9G13G17G10G11
  20392997.592     -213683.255        2630.684          48.000  
  20791180.343     -186787.013        2545.648          48.000  
  23937421.934       44083.416        -754.413          38.000  
  24303759.835     -143419.776        4675.654          37.000  
  21042390.571      -50382.760        1188.608          47.000  
  24221744.527     -115797.600        3807.886          36.000  
  24786608.843      -18299.911         779.430          44.000  
  23735482.064      149020.020       -1224.805          47.000  
  22399744.468     -457982.969        5204.341          46.000  
  22622943.746     -415730.534        5684.599          51.000  
  25619814.092       82142.434         -22.058          37.000  
  22887410.033     -150795.124        3575.917          44.000  
 15  4  2  0  8 22.0000000  0 12G30G28G19G 1G 7G 4G 5G 9G13G17G10G11
  20392496.265     -216321.475        2645.449          49.000  
  20790693.935     -189340.288        2560.370          48.000  
  23937566.457       44829.999        -739.612          39.000  
  24302868.111     -148102.780        4690.784          39.000  
  21042161.938      -51578.968        1203.732          47.000  
  24221017.359     -119612.783        3821.998          38.000  
  24786460.115      -19087.084         794.555          44.000  
  23735713.367      150237.400       -1209.967          47.000  
  22398753.924     -463194.445        5218.817          46.000  
  22621860.576     -421422.767        5699.557          51.000  
  25619815.889       82157.007          -7.399          36.000  
  22886728.113     -154378.640        3590.344          44.000  
 15  4  2  0  8 23.0000000  0 12G30G28G19G 1G 7G 4G 5G 9G13G17G10G11
  20391992.233     -218974.712        2660.893          49.000  
  20790205.504     -191908.623        2575.836          48.000  
  23937706.652       45561.672        -724.322          40.000  
  24301975.236     -152800.856        4706.772          40.000  
  21041930.950      -52790.116        1218.707          46.000  
  24220288.969     -123442.914        3838.524          39.000  
  24786305.820      -19889.290         810.078          42.000  
  23735942.191      151439.557       -1194.733          47.000  
  22397760.046     -468420.815        5233.745          46.000  
  22620774.265     -427130.051        5714.837          51.000  
  25619816.517       82156.067           8.440          38.000  
  22886043.035     -157976.919        3605.790          44.000  
 15  4  2  0  8 24.0000000  0 12G30G28G19G 1G 7G 4G 5G 9G13G17G10G11
  20391484.292     -221643.192        2676.022          49.000  
  20789714.524     -194492.219        2591.144          48.000  
  23937843.497       46278.109        -709.131          39.000  
  24301076.497     -157514.311        4721.709          38.000  
  21041698.112      -54016.509        1234.242          47.000  
  24219557.508     -127288.051        3852.804          37.000  
  24786149.954      -20706.775         825.676          42.000  
  23736168.294      152626.263       -1178.906          47.000  
  22396760.690     -473662.301        5249.150          46.000  
  22619685.773     -432852.611        5730.312          50.000  
  25619812.242       82139.345          24.156          35.000  
  22885353.908     -161590.261        3621.285          42.000  
 15  4  2  0  8 24.9990000  0 12G30G28G19G 1G 7G 4G 5G 9G13G17G10G11
  20390975.112     -224323.979        2690.619          50.000  
  20789220.648     -197088.249        2605.764          48.000  
  23937977.898       46978.893        -693.941          39.000  
  24300178.649     -162238.130        4736.248          40.000  
  21041462.237      -55256.569        1248.324          47.000  
  24218824.058     -131144.260        3867.283          38.000  
  24785990.983      -21538.408         839.225          42.000  
  23736391.360      153796.616       -1164.394          46.000  
  22395761.403     -478913.415        5263.229          46.000  
  22618594.838     -438584.473        5744.975          51.000  
  25619805.611       82107.126          39.686          38.000  
  22884662.566     -165214.768        3635.409          42.000  
 15  4  2  0  8 25.9990000  0 13G30G20G28G19G 1G 7G 4G 5G 9G13G17G10
                                G11
  20390460.941     -227022.103        2705.597          49.000  
  25123045.847         255.4023        235.568          30.000  
  20788723.160     -199701.554        2620.615          48.000  
  23938109.159       47665.741        -679.276          40.000  
  24299277.031     -166981.464        4750.725          39.000  
  21041222.471      -56512.545        1263.433          46.000  
  24218087.851     -135018.849        3882.073          38.000  
  24785829.150      -22385.601         854.485          40.000  
  23736610.762      154953.283       -1148.951          46.000  
  22394759.290     -484184.340        5278.307          46.000  
  22617499.575     -444336.755        5759.882          51.000  
  25619796.938       82059.673          55.026          37.000  
  22883969.809     -168857.317        3650.105          42.000  
 15  4  2  0  8 26.9990000  0 13G30G20G28G19G 1G 7G 4G 5G 9G13G17G10
                                G11
  20389943.717     -229735.172        2720.538          49.000  
  25123014.978          12.8043        250.173          29.000  
  20788223.386     -202329.855        2635.717          48.000  
  23938237.069       48337.709        -664.188          37.000  
  24298371.714     -171739.862        4767.046          37.000  
  21040980.594      -57783.405        1278.361          47.000  
  24217349.777     -138908.257        3896.156          38.000  
  24785665.135      -23247.802         869.708          42.000  
  23736828.139      156094.804       -1133.892          46.000  
  22393751.487     -489470.052        5293.262          45.000  
  22616401.171     -450104.045        5774.848          50.000  
  25619785.875       81996.795          70.707          37.000  
  22883274.209     -172514.553        3664.395          44.000  
 15  4  2  0  8 27.9990000  0 12G30G28G19G 1G 7G 4G 5G 9G13G17G10G11
  20389424.817     -232463.101        2735.431          48.000  
  20787720.244     -204973.017        2650.515          47.000  
  23938361.472       48994.945        -649.811          39.000  
  24297463.691     -176513.238        4781.139          37.000  
  21040737.303      -59069.103        1293.193          47.000  
  24216606.101     -142812.426        3911.852          36.000  
  24785497.421      -24124.832         885.082          41.000  
  23737042.323      157221.326       -1118.932          46.000  
  22392741.626     -494770.500        5308.202          45.000  
  22615301.493     -455886.224        5789.689          50.000  
  25619770.449       81918.430          86.440          36.000  
  22882575.310     -176186.481        3679.630          44.000  
 15  4  2  0  8 28.9990000  0 13G30G20G28G19G 1G 7G 4G 5G 9G13G17G10
                                G11
  20388903.091     -235206.134        2750.421          49.000  
  25122886.178        -518.4893        281.539          28.000  
  20787213.175     -207631.365        2665.712          48.000  
  23938482.628       49637.049        -634.493          39.000  
  24296552.738     -181301.857        4795.934          38.000  
  21040490.208      -60369.926        1308.281          47.000  
  24215860.017     -146731.555        3926.590          37.000  
  24785328.241      -25017.006         899.179          42.000  
  23737253.558      158332.458       -1103.397          46.000  
  22391730.996     -500085.968        5322.968          46.000  
  22614198.971     -461683.600        5804.766          50.000  
  25619751.864       81824.485         101.132          36.000  
  22881873.480     -179873.284        3693.771          42.000  
 15  4  2  0  8 29.9990000  0 13G30G20G28G19G 1G 7G 4G 5G 9G13G17G10
                                G11
  20388378.537     -237964.480        2765.851          49.000  
  25122821.560        -805.9683        287.629          18.000  
  20786704.205     -210305.027        2681.288          48.000  
  23938600.819       50263.929        -619.249          39.000  
  24295638.154     -186105.891        4811.910          38.000  
  21040238.907      -61685.999        1323.729          46.000  
  24215110.774     -150665.861        3941.602          34.000  
  24785154.472      -25924.566         915.362          41.000  
  23737462.594      159428.106       -1087.998          46.000  
  22390716.510     -505416.615        5338.383          46.000  
  22613091.807     -467496.322        5820.452          49.000  
  25619731.430       81714.616         118.238          33.000  
  22881170.096     -183575.211        3709.555          45.000  
 15  4  2  0  8 30.9990000  0 12G30G28G19G 1G 7G 4G 5G 9G13G17G10G11
  20387850.336     -240738.182        2781.103          49.000  
  20786191.814     -212994.095        2696.481          47.000  
  23938714.873       50875.410        -604.589          35.000  
  24294722.123     -190925.410        4826.245          41.000  
  21039985.512      -63017.378        1338.496          47.000  
  24214359.455     -154615.352        3956.598          37.000  
  24784978.172      -26847.520         929.723          41.000  
  23737666.988      160508.213       -1072.746          45.000  
  22389699.721     -510762.469        5353.417          46.000  
  22611982.706     -473324.405        5835.451          50.000  
  25619705.412       81588.971         133.194          34.000  
  22880463.415     -187292.270        3724.162          45.000  
 15  4  2  0  8 31.9990000  0 12G30G28G19G 1G 7G 4G 5G 9G13G17G10G11
  20387320.077     -243526.787        2796.112          49.000  
  20785678.080     -215698.107        2711.414          47.000  
  23938830.446       51471.937        -589.773          39.000  
  24293803.945     -195759.906        4841.644          40.000  
  21039730.006      -64363.675        1353.379          48.000  
  24213604.000     -158579.818        3972.022          33.000  
  24784801.035      -27785.408         945.126          42.000  
  23737869.638      161573.279       -1058.540          45.000  
  22388680.541     -516123.152        5368.053          47.000  
  22610870.551     -479167.398        5849.638          50.000  
  25619676.758       81447.940         148.555          36.000  
  22879752.964     -191024.019        3739.048          42.000  
 15  4  2  0  8 32.9990000  0 12G30G28G19G 1G 7G 4G 5G 9G13G17G10G11
  20386785.995     -246330.536        2811.218          49.000  
  20785159.808     -218417.076        2726.347          47.000  
  23938942.459       52052.916        -573.106          39.000  
  24292879.676     -200608.726        4856.658          39.000  
  21039471.115      -65724.542        1368.235          46.000  
  24212846.329     -162558.886        3986.505          40.000  
  24784620.059      -28737.792         959.730          43.000  
  23738070.001      162624.919       -1044.893          45.000  
  22387656.859     -521499.212        5383.693          47.000  
  22609755.640     -485023.755        5863.480          50.000  
  25619648.349       81292.975         163.228          36.000  
  22879040.402     -194770.176        3753.412          39.000  
 15  4  2  0  8 33.9990000  0 12G30G28G19G 1G 7G 4G 5G 9G13G17G10G11
  20386249.872     -249148.713        2824.835          49.000  
  20784639.914     -221150.345        2740.120          47.000  
  23939050.476       52618.755        -559.640          42.000  
  24291953.681     -205470.909        4866.840          38.000  
  21039209.362      -67099.306        1381.423          43.000  
  24212086.564     -166551.829        3998.772          37.000  
  24784437.547      -29704.183         972.896          45.000  
  23738268.114      163663.963       -1032.735          47.000  
  22386631.100     -526890.076        5397.294          47.000  
  22608638.459     -490892.659        5875.156          49.000  
  25619617.812       81125.156         174.012          35.000  
  22878326.479     -198529.755        3765.469          39.000  
 15  4  2  0  8 34.9990000  0 12G30G28G19G 1G 7G 4G 5G 9G13G17G10G11
  20385711.934     -251979.685        2837.298          49.000  
  20784116.983     -223896.317        2752.761          47.000  
  23939155.003       53171.429        -545.695          36.000  
  24291024.805     -210345.157        4879.854          36.000  
  21038945.846      -68486.573        1393.810          44.000  
  24211324.897     -170557.121        4011.659          37.000  
  24784251.057      -30682.901         983.561          39.000  
  23738463.294      164691.541       -1021.404          49.000  
  22385602.846     -532293.963        5410.068          47.000  
  22607519.621     -496772.950        5886.116          49.000  
  25619595.632       80943.1043        193.792          27.000  
  22877608.908     -202301.664        3779.216          46.000  
 15  4  2  0  8 35.9990000  0 13G30G20G28G19G 1G 7G 4G 5G 9G13G17G10
                                G11
  20385169.582     -254824.409        2851.425          48.000  
  25122428.668        -165.1743        380.012          33.000  
  20783592.168     -226655.934        2766.252          47.000  
  23939258.168       53709.706        -532.412          38.000  
  24290095.529     -215232.866        4893.960          39.000  
  21038679.852      -69887.229        1405.979          39.000  
  24210559.496     -174576.227        4024.556          39.000  
  24784062.176      -31675.191        1000.985          36.000  
  23738656.608      165706.256       -1008.239          46.000  
  22384572.114     -537711.714        5424.276          46.000  
  22606398.444     -502665.990        5898.729          49.000  
  25619557.085       80748.6483        198.870          24.000  
  22876888.546     -206086.773        3792.224          45.000  
 15  4  2  0  8 36.9990000  0 13G30G20G28G19G 1G 7G 4G 5G 9G13G17G10
                                G11
  20384625.763     -257683.561        2865.500          49.000  
  25122353.353        -552.8253        398.772          28.000  
  20783064.194     -229429.955        2781.274          47.000  
  23939360.235       54234.8793       -516.998          39.000  
  24289162.571     -220134.531        4907.074          39.000  
  21038410.002      -71302.147        1420.201          41.000  
  24209793.414     -178609.445        4039.192          43.000  
  24783871.619      -32681.748        1017.857          32.000  
  23738846.623      166707.233        -994.229          45.000  
  22383537.997     -543143.963        5438.901          46.000  
  22605274.249     -508572.749        5913.965          49.000  
  25619514.628       80540.3353        211.556          31.000  
  22876165.898     -209885.966        3807.299          38.000  
 15  4  2  0  8 37.9990000  0 12G30G28G19G 1G 7G 4G 5G 9G13G17G10G11
  20384079.100     -260558.014        2883.013          49.000  
  20782533.934     -232219.191        2797.151          48.000  
  23939452.442       54744.2093       -501.994          40.000  
  24288226.855     -225051.287        4923.679          38.000  
  21038137.918      -72732.162        1437.357          46.000  
  24209022.533     -182657.589        4055.193          37.000  
  24783673.105      -33702.4743       1032.234          34.000  
  23739034.108      167693.603        -978.753          44.000  
  22382502.117     -548591.557        5456.439          46.000  
  22604147.680     -514493.984        5928.656          50.000  
  25619471.579       80317.2053        234.133          29.000  
  22875440.108     -213701.1163       3820.405          41.000  
 15  4  2  0  8 38.9990000  0 12G30G28G19G 1G 7G 4G 5G 9G13G17G10G11
  20383528.406     -263448.391        2898.251          49.000  
  20782000.045     -235024.025        2811.115          47.000  
  23939548.540       55235.2552       -482.758          42.000  
  24287288.644     -229982.6903       4935.867          45.000  
  21037863.758      -74177.228        1451.602          46.000  
  24208249.924     -186720.831        4069.353          39.000  
  24783479.321      -34738.9253       1040.955          33.000  
  23739219.290      168667.503        -970.430          47.000  
  22381462.573     -554055.706        5471.628          49.000  
  22603018.302     -520427.629        5936.958          50.000  
  25619427.447       80081.7543        235.984          32.000  
  22874712.434     -217529.8442       3835.025          44.000  
 15  4  2  0  8 39.9990000  0 12G30G28G19G 1G 7G 4G 5G 9G13G17G10G11
  20382976.595     -266347.204        2898.078          50.000  
  20781464.864     -237836.714        2812.452          48.000  
  23939640.311       55715.0362       -478.205          42.000  
  24286349.665     -234917.4573       4915.864          34.000  
  21037586.666      -75628.764        1450.852          47.000  
  24207476.601     -190790.4343       4069.637          39.000  
  24783287.246      -35786.6423       1044.167          31.000  
  23739404.995      169640.847        -977.656          43.000  
  22380420.638     -559530.080        5475.558          47.000  
  22601889.361     -526362.291        5930.123          50.000  
  25619382.618       79845.4023        234.770          29.000  
  22873982.439     -221364.1322       3831.254          45.000  
 15  4  2  0  8 40.9990000  0 12G30G28G19G 1G 7G 4G 5G 9G13G17G10G11
  20382424.715     -269251.401        2907.692          50.000  
  20780928.043     -240653.746        2819.836          48.000  
  23939730.703       56186.7273       -466.802          40.000  
  24285410.076     -239850.0833       4934.509          39.000  
  21037309.399      -77083.129        1457.638          44.000  
  24206703.172     -194861.3123       4049.518          32.000  
  24783083.480      -36830.3853       1038.009          31.000  
  23739591.276      170618.970        -979.926          45.000  
  22379377.743     -565011.845        5486.463          46.000  
  22600760.384     -532292.449        5929.437          50.000  
  25619338.434       79614.2843        229.514          33.000  
  22873253.735     -225200.8173       3840.231          35.000  
 15  4  2  0  8 41.9990000  0 12G30G28G19G 1G 7G 4G 5G 9G13G17G10G11
  20381870.426     -272161.618        2911.809          49.000  
  20780391.606     -243475.914        2823.557          47.000  
  23939819.786       56650.5133       -470.074          37.000  
  24284473.261     -244785.6913       4935.861          40.000  
  21037031.766      -78540.916        1455.887          47.000  
  24205926.969     -198936.7093       4078.313          32.000  
  24782886.921      -37876.8853       1042.844          34.000  
  23739778.116      171601.241        -985.840          46.000  
  22378332.649     -570501.902        5492.609          47.000  
  22599632.646     -538218.877        5923.945          51.000  
  25619291.196       79382.7543        232.971          28.000  
  22872521.105     -229041.3353       3839.751          47.000  
 15  4  2  0  8 42.9990000  0 11G30G28G19G 7G 4G 5G 9G13G17G10G11
  20381316.329     -275074.671        2914.866          48.000  
  20779854.209     -246299.900        2825.225          47.000  
  23939921.416       57125.7713       -469.252          30.000  
  21036754.692      -79999.488        1459.139          47.000  
  24205146.595     -203016.3913       4083.439          37.000  
  24782683.015      -38915.3903       1044.604          29.000  
  23739966.282      172590.588        -991.504          46.000  
  22377286.840     -575996.757        5498.190          47.000  
  22598506.723     -544138.570        5917.241          49.000  
  25619245.441       79160.4643        220.514          35.000  
  22871790.116     -232880.5762       3838.860          45.000  
 15  4  2  0  8 43.9990000  0 12G30G28G19G 1G 7G 4G 5G 9G13G17G10G11
  20380759.755     -277997.299        2928.052          48.000  
  20779314.805     -249132.493        2837.384          47.000  
  23939987.186       57573.7063       -433.644          41.000  
  24282591.848     -254660.0733       4937.442          39.000  
  21036475.541      -81464.926        1469.607          48.000  
  24204367.652     -207103.7922       4094.180          38.000  
  24782491.673      -39967.6393       1040.656          22.000  
  23740154.761      173580.992        -988.500          42.000  
  22376239.059     -581503.313        5512.864          45.000  
  22597379.910     -550057.693        5919.467          50.000  
  25619208.813       78938.6593        218.866          29.000  
  22871058.969     -236725.9852       3845.703          41.000  
 15  4  2  0  8 44.9990000  0 12G30G20G28G19G 1G 7G 4G 9G13G17G10G11
  20380201.121     -280931.865        2940.909          48.000  
  25121748.075        -672.8413        406.052          22.000  
  20778773.953     -251976.099        2849.750          47.000  
  23940068.836       58000.8613       -417.637          38.000  
  24281651.177     -259604.9592       4949.106          41.000  
  21036195.028      -82939.858        1480.518          48.000  
  24203591.659     -211200.3233       4094.845          32.000  
  23740342.683      174569.845        -987.151          37.000  
  22375188.713     -587023.977        5528.016          46.000  
  22596252.678     -555978.920        5924.039          48.000  
  25619163.338       78714.8523        227.050          30.000  
  22870324.542     -240580.4302       3858.881          43.000  
 15  4  2  0  8 45.9990000  0 12G30G20G28G19G 1G 7G 4G 5G 9G13G17G10
  20379640.812     -283877.869        2950.812          49.000  
  25121668.345       -1076.3833        407.219          21.000  
  20778230.868     -254830.392        2858.996          47.000  
  23940146.001       58413.4163       -406.082          38.000  
  24280707.382     -264559.4133       4942.749          31.000  
  21035912.405      -84424.457        1488.365          48.000  
  24202813.641     -215305.7103       4110.892          31.000  
  24782076.637       -1051.3253       1075.137          35.000  
  23740530.255      175554.2713       -980.644          35.000  
  22374136.011     -592557.546        5538.944          47.000  
  22595125.831     -561904.597        5927.796          50.000  
  25619116.816       78485.9943        232.767          28.000  
 15  4  2  0  8 46.9990000  0 11G30G28G19G 7G 4G 5G 9G13G17G10G11
  20379078.095     -286834.808        2965.565          49.000  
  20777685.426     -257695.178        2873.629          47.000  
  23940221.420       58812.5613       -391.204          39.000  
  21035628.123      -85918.433        1502.058          48.000  
  24202024.018     -219420.9483       4127.330          39.000  
  24781872.819       -2131.9283       1089.323          43.000  
  23740715.332      176532.9253       -968.824          33.000  
  22373080.343     -598103.543        5555.229          47.000  
  22593996.767     -567835.110        5936.738          49.000  
  25619070.555       78249.8253        237.605          26.000  
  22868852.808     -248315.9233       3879.751          45.000  
 15  4  2  0  8 47.9990000  0 13G30G20G28G19G 1G 7G 4G 5G 9G13G17G10
                                G11
  20378512.655     -289808.888        2981.511          49.000  
  25121484.577         115.6703        445.649          31.000  
  20777137.175     -260577.001        2889.666          47.000  
  23940293.507       59193.9843       -376.904          39.000  
  24278816.860       -1828.8513       4983.363          39.000  
  21035340.701      -87428.318        1517.291          48.000  
  24201244.657     -223550.8443       4119.448          27.000  
  24781664.463       -3229.2392       1104.758          41.000  
  23740900.828      177498.8993       -958.766          44.000  
  22372021.359     -603667.594        5571.231          47.000  
  22592865.748     -573779.315        5951.466          49.000  
  25619024.766       77998.5393        258.535          31.000  
  22868113.791     -252203.7662       3894.415          46.000  
 15  4  2  0  8 48.9990000  0 13G30G20G28G19G 1G 7G 4G 5G 9G13G17G10
                                G11
  20377943.813     -292797.698        2993.737          50.000  
  25121413.798        -340.4433        472.718          25.000  
  20776586.097     -263473.950        2901.137          48.000  
  23940368.718       59563.8153       -360.966          38.000  
  24277872.245       -6817.8713       4984.801          29.000  
  21035050.364      -88952.851        1528.762          49.000  
  24200462.433     -227691.4833       4139.644          25.000  
  24781450.244       -4342.3833       1116.031          40.000  
  23741083.148      178449.5392       -946.149          47.000  
  22370960.089     -609246.096        5582.522          48.000  
  22591731.694     -579739.468        5965.814          50.000  
  25618973.899       77734.3183        262.114          32.000  
  22867372.785     -256105.7833       3907.271          35.000  
 15  4  2  0  8 49.9990000  0  9G30G28G 7G 5G 9G13G17G10G11
  20377371.777     -295801.390        3013.189          49.000  
  20776031.599     -266386.387        2921.768          48.000  
  21034757.654      -90492.603        1548.997          49.000  
  24781252.219       -5460.9453       1130.813          27.000  
  23741258.313      179382.9722       -924.273          46.000  
  22369895.539     -614839.578        5602.490          48.000  
  22590593.992     -585716.655        5987.162          50.000  
  25618917.604       77455.8833        293.253          35.000  
  22866625.026     -260024.2433       3926.374          46.000  
 15  4  2  0  8 50.9990000  0 10G30G28G19G 7G 5G 9G13G17G10G11
  20376797.578     -298822.083        3031.295          49.000  
  20775474.047     -269316.188        2939.886          47.000  
  23940500.764         712.4253       -326.568          40.000  
  21034461.611      -92049.577        1567.327          49.000  
  24781039.763       -6606.6813       1156.544          29.000  
  23741433.653      180297.4782       -902.413          43.000  
  22368827.969     -620449.690        5619.757          47.000  
  22589453.062     -591712.667        6006.629          50.000  
  25618862.374       77152.7133        316.748          34.000  
  22865874.387     -263958.3542       3943.295          41.000  
 15  4  2  0  8 51.9990000  0 10G30G20G28G19G 7G 9G13G17G10G11
  20376220.115     -301855.105        3034.050          49.000  
  25121145.187        -864.9573        501.436          22.000  
  20774914.558     -272258.469        2943.167          48.000  
  23940555.767        1039.1903       -326.333          40.000  
  21034162.985      -93619.298        1570.941          49.000  
  23741604.438      181197.7252       -898.163          46.000  
  22367758.079     -626071.613        5622.147          48.000  
  22588309.008     -597722.678        6011.562          49.000  
  25618809.221       76834.3973        320.399          31.000  
  22865123.731     -267905.6463       3950.728          39.000  
 15  4  2  0  8 52.9990000  0 11G30G28G19G 7G 4G 5G 9G13G17G10G11
  20375641.309     -304896.617        3047.802          50.000  
  20774353.063     -275209.413        2956.770          48.000  
  23940619.739        1356.8852       -312.789          37.000  
  21033862.144      -95197.884        1584.772          49.000  
  24197281.416      -13914.4343       4205.517          21.000  
  24780608.987        -982.2443       1169.537          29.000  
  23741773.444      182087.5212       -882.235          46.000  
  22366687.072     -631701.437        5635.097          47.000  
  22587163.558     -603742.803        6026.820          50.000  
  25618745.283       76510.8173        330.633          29.000  
  22864373.232     -271851.4643       3958.136          45.000  
 15  4  2  0  8 53.9990000  0 10G30G28G19G 7G 5G 9G13G17G10G11
  20375060.007     -307951.531        3065.242          49.000  
  20773788.461     -278173.966        2975.109          47.000  
  23940677.674        1668.5023       -293.198          43.000  
  21033559.260      -96790.325        1603.299          48.000  
  24780357.756       -2165.8053       1192.987          37.000  
  23741941.175      182962.0772       -862.782          46.000  
  22365613.308     -637344.097        5652.893          47.000  
  22586015.438     -609777.935        6046.068          49.000  
  25618691.868       76165.6883        364.524          27.000  
  22863616.905     -275820.6702       3977.491          36.000  
 15  4  2  0  8 54.9990000  0 11G30G28G19G 7G 4G 5G 9G13G17G10G11
  20374476.821     -311016.327        3071.873          49.000  
  20773222.620     -281148.515        2981.484          47.000  
  23940737.929        1968.7713       -294.894          29.000  
  21033254.265      -98392.919        1609.595          48.000  
  24195667.707      -22335.2293       4240.718          21.000  
  24780126.750       -3354.4973       1199.648          42.000  
  23742104.841      183824.594        -855.320          45.000  
  22364537.955     -642996.049        5658.927          47.000  
  22584864.265     -615824.385        6053.920          49.000  
  25618623.219       75805.3703        365.842          26.000  
  22862859.426     -279800.4782       3986.337          46.000  
 15  4  2  0  8 55.9990000  0 10G30G28G19G 7G 5G 9G13G17G10G11
  20373891.977     -314092.021        3083.709          49.000  
  20772654.616     -284134.313        2994.019          47.000  
  23940786.336        2255.0383       -277.316          40.000  
  21032947.386     -100006.713        1621.964          48.000  
  24779893.964       -4559.0813       1212.400          41.000  
  23742266.953      184674.899        -841.355          46.000  
  22363459.706     -648658.774        5670.585          47.000  
  22583711.556     -621883.384        6067.747          49.000  
  25618556.088       75441.4193        368.681          26.000  
  22862100.097     -283790.8403       3997.213          45.000  
 15  4  2  0  8 56.9990000  0 12G30G20G28G19G 7G 4G 5G 9G13G17G10G11
  20373303.032     -317183.827        3100.849          49.000  
  25120616.760       -1010.3403        589.101          30.000  
  20772083.261     -287136.703        3011.923          47.000  
  23940841.741        2524.8082       -263.004          37.000  
  21032637.138     -101636.666        1639.099          48.000  
  24194062.583       -4727.6093       4260.745          34.000  
  24779675.889       -5772.8833       1230.861          28.000  
  23742424.529      185507.490        -823.022          45.000  
  22362379.311     -654337.426        5687.451          47.000  
  22582555.357     -627960.106        6086.736          49.000  
  25618484.943       75061.8343        396.273          25.000  
  22861338.168     -287797.1093       4017.809          42.000  
 15  4  2  0  8 57.9990000  0 11G30G20G28G19G 7G 4G 9G13G17G10G11
  20372713.355     -320284.082        3101.608          49.000  
  25120506.335       -1593.4123        577.546          30.000  
  20771509.986     -290147.695        3012.373          47.000  
  23940890.165        2787.2463       -259.684          43.000  
  21032324.762     -103275.461        1640.170          48.000  
  24193248.932       -8989.7053       4257.364          34.000  
  23742581.179      186329.746        -819.269          47.000  
  22361297.241     -660024.026        5687.014          47.000  
  22581396.854     -634046.872        6089.258          49.000  
  25618418.249       74664.5603        399.544          25.000  
  22860582.173     -291812.8862       4019.091          47.000  
 15  4  2  0  8 58.9990000  0 11G30G20G28G19G 7G 4G 9G13G17G10G11
  20372123.398     -323381.954        3096.052          49.000  
  25120398.231       -2177.0643        574.745          23.000  
  20770937.619     -293156.116        3006.629          47.000  
  23940937.734        3051.4152       -266.214          41.000  
  21032013.886     -104912.608        1636.010          48.000  
  24192422.891      -13247.7203       4252.917          32.000  
  23742737.865      187152.431        -822.820          45.000  
  22360215.694     -665707.296        5680.994          47.000  
  22580238.928     -640132.610        6084.604          49.000  
  25618338.152       74268.2023        396.642          26.000  
  22859809.721     -295827.8343       4015.822          42.000  
 15  4  2  0  8 59.9990000  0 10G30G28G19G 7G 4G 9G13G17G10G11
  20371533.772     -326481.987        3107.525          49.000  
  20770364.187     -296166.539        3017.729          47.000  
  23940989.108        3313.5302       -251.788          37.000  
  21031701.231     -106552.487        1647.266          47.000  
  24191610.549      -17509.5573       4267.732          41.000  
  23742893.800      187971.226        -810.790          45.000  
  22359133.972     -671391.758        5691.243          46.000  
  22579080.024     -646221.734        6096.163          49.000  
  25618259.417       73870.0703        400.064          27.000  
  22859045.088     -299844.6882       4023.705          45.000  
 15  4  2  0  9  0.9990000  0 10G30G28G19G 7G 4G 9G13G17G10G11
  20370941.215     -329596.412        3129.399          49.000  
  20769788.976     -299191.595        3040.915          48.000  
  23941034.164        3562.1032       -235.477          41.000  
  21031386.795     -108207.113        1670.333          48.000  
  24190810.491      -21785.5523       4270.234          27.000  
  23743046.786      188773.883        -785.331          48.000  
  22358050.017     -677090.218        5714.213          47.000  
  22577918.415     -652326.793        6121.422          50.000  
  25618176.127       73457.4613        423.341          25.000  
  22858277.505     -303876.2552       4047.986          45.000  
 15  4  2  0  9  1.9990000  0 10G30G28G19G 7G 4G 9G13G17G10G11
  20370346.669     -332722.756        3128.117          50.000  
  20769211.269     -302228.841        3039.167          47.000  
  23941082.798        3799.4862       -236.867          44.000  
  21031069.550     -109874.157        1669.027          47.000  
  24190004.867      -26072.9433       4292.637          26.000  
  23743196.648      189561.898        -783.144          48.000  
  22356963.095     -682799.843        5711.091          47.000  
  22576753.980     -658446.333        6124.569          50.000  
  25618104.441       73031.0903        430.991          25.000  
  22857509.451     -307918.6703       4046.684          44.000  
 15  4  2  0  9  2.9990000  0 10G30G28G19G 7G 4G 9G13G17G10G11
  20369750.569     -335852.101        3124.963          49.000  
  20768632.707     -305269.555        3036.537          48.000  
  23941126.563        4035.2072       -240.295          44.000  
  21030751.730     -111545.129        1666.754          49.000  
  24189197.410      -30361.4773       4258.021          29.000  
  23743344.731      190342.702        -782.543          46.000  
  22355876.505     -688511.560        5707.354          47.000  
  22575588.392     -664572.593        6123.921          49.000  
  25618014.904       72594.9863        433.273          24.000  
  22856737.541     -311966.4512       4043.694          45.000  
 15  4  2  0  9  3.9990000  0 10G30G28G19G 7G 4G 9G13G17G10G11
  20369156.197     -338976.994        3125.829          49.000  
  20768054.965     -308306.142        3037.789          48.000  
  23941173.016        4278.2933       -245.844          41.000  
  21030433.630     -113212.702        1668.563          47.000  
  24188369.380      -34644.1653       4285.951          36.000  
  23743494.192      191123.554        -775.339          45.000  
  22354790.665     -694217.706        5706.326          47.000  
  22574422.055     -670698.348        6129.742          50.000  
  25617929.433       72159.4373        438.193          26.000  
  22855969.016     -316011.0432       4046.846          45.000  
 15  4  2  0  9  4.9990000  0 10G30G28G19G 7G 4G 9G13G17G10G11
  20368562.558     -342095.411        3114.490          49.000  
  20767478.410     -311336.812        3026.550          48.000  
  23941221.789        4528.6642       -255.908          46.000  
  21030117.676     -114875.620        1660.304          47.000  
  24187532.590      -38920.9733       4280.051          37.000  
  23743642.606      191903.511        -780.570          46.000  
  22353706.640     -699915.340        5692.916          47.000  
  22573256.851     -676824.421        6125.477          50.000  
  25617840.437       71720.9293        442.495          23.000  
  22855199.915     -320050.9712       4035.189          43.000  
 15  4  2  0  9  5.9990000  0 10G30G28G19G 7G 4G 9G13G17G10G11
  20367969.111     -345213.701        3126.514          49.000  
  20766901.227     -314368.135        3039.824          47.000  
  23941271.260        4782.0372       -246.958          32.000  
  21029801.408     -116540.244        1673.948          48.000  
  24186721.120      -43204.4993       4292.135          44.000  
  23743788.804      192675.171        -758.857          46.000  
  22352622.336     -705611.038        5702.274          46.000  
  22572090.200     -682958.032        6146.049          49.000  
  25617755.524       71274.0053        450.095          21.000  
  22854430.639     -324093.1932       4051.217          45.000  
 15  4  2  0  9  6.9990000  0 10G30G28G 1G 7G 4G 9G13G17G10G11
  20367374.286     -348341.149        3132.870          48.000  
  20766322.281     -317409.404        3047.998          47.000  
  24260405.345      -10876.1663       5165.125          37.000  
  21029482.837     -118216.148        1682.624          48.000  
  24185894.503      -47498.4892       4300.159          36.000  
  23743932.419      193428.877        -743.109          47.000  
  22351537.962     -711313.724        5708.000          47.000  
  22570919.813     -689108.910        6160.279          49.000  
  25617673.718       70791.7893        492.106          20.000  
  22853658.991     -328146.7952       4060.537          45.000  
 15  4  2  0  9  7.9990000  0  9G30G28G 7G 4G 9G13G17G10G11
  20366778.448     -351472.628        3131.616          49.000  
  20765742.497     -320455.113        3046.740          47.000  
  21029162.573     -119897.305        1682.039          48.000  
  24185097.935      -51794.0633       4281.001          29.000  
  23744074.167      194173.257        -742.125          46.000  
  22350452.244     -717019.118        5705.352          46.000  
  22569747.368     -695268.705        6161.473          50.000  
  25617590.690       70297.5273        476.554          20.000  
  22852887.237     -332205.7332       4059.917          44.000  
 15  4  2  0  9  8.9990000  0 11G30G28G 1G 7G 4G 5G 9G13G17G10G11
  20366180.551     -354615.398        3145.451          49.000  
  20765161.126     -323512.453        3060.501          48.000  
  24258433.051      -21235.0513       5183.999          37.000  
  21028840.878     -121590.324        1695.863          47.000  
  24184279.869      -56101.0643       4309.723          28.000  
  24776808.085       -4667.9573       1287.258          32.000  
  23744213.630      194903.265        -726.407          46.000  
  22349363.822     -722735.139        5718.836          47.000  
  22568572.689     -701442.557        6177.168          50.000  
  25617497.924       69800.1493        499.793          22.000  
  22852112.936     -336276.1902       4071.574          37.000  
 15  4  2  0  9  9.9990000  0 10G30G28G 7G 4G 5G 9G13G17G10G11
  20365579.810     -357772.322        3158.906          48.000  
  20764576.858     -326584.048        3073.272          47.000  
  21028515.484     -123297.673        1708.942          47.000  
  24183448.802      -60420.3153       4327.771          27.000  
  24776552.108       -5966.9923       1301.929          42.000  
  23744349.514      195618.097        -713.256          46.000  
  22348273.253     -728464.947        5731.963          46.000  
  22567394.765     -707631.375        6190.448          50.000  
  25617409.417       69276.8193        530.718          23.000  
  22851339.455     -340359.4063       4089.351          32.000  
 15  4  2  0  9 10.9990000  0 10G30G28G19G 7G 4G 5G 9G13G17G10
  20364977.062     -360938.898        3167.858          49.000  
  20763990.914     -329665.308        3082.268          48.000  
  23941487.887        1069.9403       -208.515          38.000  
  21028188.362     -125014.588        1717.327          49.000  
  24182624.000      -64751.1193       4334.643          27.000  
  24776301.174       -7276.1772       1308.524          44.000  
  23744483.253      196323.492        -704.818          47.000  
  22347181.585     -734204.393        5740.321          46.000  
  22566215.113     -713829.428        6197.939          49.000  
  25617318.850       68726.8833        553.831          31.000  
 15  4  2  0  9 11.9990000  0 10G30G28G19G 7G 5G 9G13G17G10G11
  20364371.854     -364119.486        3185.828          49.000  
  20763401.742     -332760.481        3099.933          48.000  
  23941526.557        1266.2102       -190.307          38.000  
  21027859.496     -126745.035        1736.322          46.000  
  24776053.852       -8598.8662       1327.067          41.000  
  23744614.845      197016.678        -688.283          45.000  
  22346086.828     -739958.168        5759.154          47.000  
  22565032.983     -720039.745        6214.967          49.000  
  25617209.873       68167.7993        541.180          23.000  
  22849776.439     -348557.6243       4109.524          34.000  
 15  4  2  0  9 12.9990000  0 10G30G28G19G 7G 5G 9G13G17G10G11
  20363762.597     -367317.940        3207.870          48.000  
  20762808.749     -335873.227        3121.940          48.000  
  23941563.080        1442.8473       -164.629          37.000  
  21027526.964     -128492.235        1755.693          48.000  
  24775799.166       -9938.4612       1346.347          38.000  
  23744744.221      197696.038        -673.229          48.000  
  22344987.691     -745730.744        5782.825          47.000  
  22563848.706     -726263.946        6230.615          50.000  
  25617100.077       67620.7383        553.234          23.000  
  22848989.661     -352685.4183       4132.859          43.000  
 15  4  2  0  9 13.9990000  0 10G30G28G19G 7G 5G 9G13G17G10G11
  20363150.600     -370534.065        3226.878          49.000  
  20762213.226     -339003.101        3139.713          48.000  
  23941593.147        1599.9933       -145.155          37.000  
  21027191.693     -130255.573        1773.009          49.000  
  24775538.303      -11293.5152       1363.194          41.000  
  23744871.084      198363.746        -660.030          47.000  
  22343885.675     -751522.146        5802.966          47.000  
  22562662.475     -732499.967        6243.767          50.000  
  25616980.455       67059.1063        593.474          22.000  
  22848201.924     -356824.9992       4148.959          44.000  
 15  4  2  0  9 14.9990000  0 10G30G28G19G 7G 5G 9G13G17G10G11
  20362534.869     -373768.860        3243.401          49.000  
  20761614.613     -342151.114        3156.177          47.000  
  23941614.454        1736.7293       -125.566          41.000  
  21026852.548     -132035.938        1786.910          47.000  
  24775279.935      -12665.5162       1379.223          41.000  
  23744995.818      199019.456        -651.338          43.000  
  22342780.483     -757333.540        5820.718          47.000  
  22561473.452     -738748.382        6253.125          49.000  
  25616860.189       66490.0123        578.854          23.000  
  22847409.614     -360981.2352       4162.882          43.000  
 15  4  2  0  9 15.9990000  0 11G30G28G19G 7G 4G 5G 9G13G17G10G11
  20361916.434     -377021.587        3260.649          49.000  
  20761012.075     -345316.397        3173.007          47.000  
  23941636.179        1852.1662       -105.478          42.000  
  21026511.414     -133832.335        1803.778          48.000  
  24178466.312        -956.0433       4427.374          34.000  
  24775018.914      -14052.2803       1391.888          31.000  
  23745119.174      199665.044        -641.320          48.000  
  22341670.684     -763164.602        5839.681          46.000  
  22560282.545     -745007.043        6262.556          50.000  
  25616746.937       65913.1643        575.754          23.000  
  22846619.346     -365152.8872       4178.048          47.000  
 15  4  2  0  9 16.9990000  0 12G30G20G28G19G 7G 4G 5G 9G13G17G10G11
  20361293.949     -380291.662        3275.841          49.000  
  25118077.299        -393.5203        776.000          35.000  
  20760406.482     -348498.245        3187.202          47.000  
  23941652.687        1947.3722        -88.334          42.000  
  21026166.598     -135644.154        1816.993          48.000  
  24177607.290       -5387.5423       4437.115          44.000  
  24774754.666      -15450.6293       1420.378          30.000  
  23745240.872      200301.131        -633.956          45.000  
  22340557.098     -769014.605        5856.551          46.000  
  22559089.683     -751275.462        6270.552          50.000  
  25616642.375       65326.2033        589.434          34.000  
  22845819.951     -369339.4792       4191.505          45.000  
 15  4  2  0  9 17.9990000  0 12G30G28G19G 1G 7G 4G 5G 9G13G17G10G11
  20360669.232     -383575.250        3292.974          49.000  
  20759798.552     -351693.080        3203.744          47.000  
  23941670.539        2026.8792        -69.422          43.000  
  24249456.432       -2613.8003       5308.055          32.000  
  21025819.181     -137468.064        1833.279          48.000  
  24176754.881       -9831.5882       4453.149          43.000  
  24774484.571      -16860.7913       1404.023          29.000  
  23745360.039      200929.792        -619.855          46.000  
  22339440.982     -774879.301        5874.219          46.000  
  22557895.023     -757551.593        6284.199          50.000  
  25616518.391       64730.1653        603.041          31.000  
  22845020.854     -373537.7592       4207.426          45.000  
 15  4  2  0  9 18.9990000  0 13G30G20G28G19G 1G 7G 4G 5G 9G13G17G10
                                G11
  20360041.495     -386874.519        3307.014          48.000  
  25117806.699        -740.5873        801.518          27.000  
  20759187.637     -354903.180        3217.418          47.000  
  23941682.457        2089.5982        -53.939          43.000  
  24248444.128       -7928.7383       5321.620          41.000  
  21025468.746     -139307.026        1846.893          48.000  
  24175907.080      -14290.9992       4466.703          40.000  
  24774205.001      -18287.4433       1435.566          36.000  
  23745476.973      201545.701        -608.617          41.000  
  22338322.109     -780759.845        5888.322          46.000  
  22556698.759     -763840.332        6295.088          50.000  
  25616409.240       64122.8543        616.183          29.000  
  22844219.575     -377750.8372       4220.035          45.000  
 15  4  2  0  9 19.9990000  0 12G30G28G19G 1G 7G 4G 5G 9G13G17G10G11
  20359411.019     -390190.014        3320.978          48.000  
  20758573.948     -358129.153        3231.293          47.000  
  23941693.015        2134.8762        -39.886          42.000  
  24247431.596      -13258.5682       5334.255          42.000  
  21025116.304     -141161.556        1859.723          47.000  
  24175059.977      -18766.1072       4478.156          40.000  
  24773932.900      -19730.5732       1449.961          34.000  
  23745591.569      202148.268        -599.636          45.000  
  22337199.886     -786656.963        5902.421          45.000  
  22555499.492     -770142.280        6305.620          49.000  
  25616288.607       63504.6723        626.523          29.000  
  22843414.474     -381979.3012       4233.544          45.000  
 15  4  2  0  9 20.9990000  0 11G30G28G19G 1G 7G 4G 9G13G17G10G11
  20358777.314     -393519.129        3335.833          48.000  
  20757957.187     -361368.697        3246.163          47.000  
  23941697.168        2165.6302        -24.604          40.000  
  24246406.623      -18600.2732       5347.340          41.000  
  21024760.651     -143028.770        1873.574          47.000  
  24174205.230      -23255.3033       4493.792          41.000  
  23745704.559      202740.153        -586.620          46.000  
  22336075.219     -792568.532        5918.384          46.000  
  22554298.446     -776455.077        6318.228          49.000  
  25616169.771       62872.1773        637.814          28.000  
  22842607.942     -386220.0112       4246.685          46.000  
 15  4  2  0  9 21.9990000  0 13G30G20G28G19G 1G 7G 4G 5G 9G13G17G10
                                G11
  20358141.411     -396860.055        3344.796          49.000  
  25117321.618       -1483.3193        837.476          35.000  
  20757338.472     -364620.395        3256.390          47.000  
  23941700.780        2184.5682        -14.935          44.000  
  24245389.450      -23953.2332       5356.502          40.000  
  21024403.044     -144907.392        1883.091          47.000  
  24173346.121      -27753.2133       4499.354          35.000  
  24773377.599       -1127.1963       1474.425          27.000  
  23745815.176      203320.663        -575.238          44.000  
  22334948.145     -798492.413        5928.116          47.000  
  22553094.416     -782779.412        6328.982          49.000  
  25616059.991       62225.8993        649.289          30.000  
  22841799.160     -390471.8382       4254.896          45.000  
 15  4  2  0  9 22.9990000  0 12G30G28G19G 1G 7G 4G 5G 9G13G17G10G11
  20357503.518     -400212.769        3355.650          48.000  
  20756717.122     -367884.641        3267.995          47.000  
  23941704.148        2197.3893        -35.882          22.000  
  24244369.031      -29315.0923       5368.977          41.000  
  21024043.831     -146797.831        1893.877          48.000  
  24172488.722      -32263.5303       4512.449          38.000  
  24773108.185       -2604.1763       1472.389          32.000  
  23745922.791      203886.913        -560.198          45.000  
  22333818.767     -804428.106        5938.068          46.000  
  22551888.013     -789118.119        6344.504          48.000  
  25615931.226       61565.0613        666.630          28.000  
  22840987.550     -394735.1872       4266.368          45.000  
 15  4  2  0  9 23.9990000  0 10G30G28G19G 7G 5G 9G13G17G10G11
  20356864.683     -403571.460        3363.008          49.000  
  20756094.952     -371155.967        3275.981          47.000  
  23941704.410        2204.4943          0.354          33.000  
  21023682.489     -148695.043        1901.240          48.000  
  24772807.378       -4092.5513       1495.502          43.000  
  23746027.876      204441.483        -547.535          45.000  
  22332688.062     -810369.101        5945.145          47.000  
  22550679.812     -795468.530        6357.039          49.000  
  25615804.433       60893.8273        676.856          33.000  
  22840174.928     -399004.6733       4270.224          36.000  
 15  4  2  0  9 24.9990000  0  9G30G28G19G 7G 5G 9G13G17G10
  20356224.050     -406938.472        3377.572          49.000  
  20755470.636     -374436.175        3290.843          48.000  
  23941702.054        2202.2913          6.472          32.000  
  21023319.577     -150601.524        1917.859          48.000  
  24772536.115       -5587.0763       1482.381          31.000  
  23746131.705      204983.768        -531.947          46.000  
  22331555.787     -816317.664        5958.777          47.000  
  22549468.924     -801830.918        6373.642          50.000  
  25615666.384       60209.6623        692.259          30.000  
 15  4  2  0  9 25.9990000  0 12G30G20G28G19G 7G 4G 5G 9G13G17G10G11
  20355580.766     -410317.637        3382.278          49.000  
  25116660.848       -1411.2183        877.016          23.000  
  20754843.824     -377728.013        3294.240          48.000  
  23941701.827        2189.1493         18.681          30.000  
  21022954.362     -152520.762        1922.280          48.000  
  24169900.523       -3443.9733       4539.290          40.000  
  24772265.950        -637.3473       1482.156          29.000  
  23746232.149      205512.360        -525.615          43.000  
  22330421.942     -822277.107        5961.871          47.000  
  22548255.244     -808206.315        6377.818          49.000  
  25615533.134       59511.4493        705.543          29.000  
  22838543.891     -407576.3962       4295.225          46.000  
 15  4  2  0  9 26.9990000  0 12G30G28G19G 1G 7G 4G 5G 9G13G17G10G11
  20354935.142     -413708.324        3395.242          49.000  
  20754215.616     -381031.185        3307.860          47.000  
  23941696.557        2165.6433         31.237          43.000  
  24240264.111       -5271.6053       5415.151          32.000  
  21022588.727     -154451.524        1935.310          49.000  
  24169042.409       -7990.2613       4541.508          27.000  
  24771957.919       -2150.0793       1509.142          29.000  
  23746330.655      206030.085        -514.512          46.000  
  22329285.340     -828247.878        5975.682          47.000  
  22547040.499     -814592.212        6389.453          49.000  
  25615396.586       58805.4503        706.372          24.000  
  22837729.280     -411879.7473       4306.042          35.000  
 15  4  2  0  9 27.9990000  0 11G30G28G19G 1G 7G 4G 9G13G17G10G11
  20354288.071     -417107.450        3402.375          49.000  
  20753585.437     -384342.625        3314.608          47.000  
  23941686.628        2130.1693         39.461          42.000  
  24239237.306      -10684.1473       5404.223          32.000  
  21022216.689     -156389.671        1936.710          40.000  
  24168177.698      -12534.0873       4564.548          35.000  
  23746427.085      206541.888        -509.378          46.000  
  22328147.690     -834227.515        5982.811          47.000  
  22545823.591     -820984.057        6393.910          49.000  
  25615266.059       58095.9313        720.456          24.000  
  22836910.097     -416190.5533       4314.895          37.000  
 15  4  2  0  9 28.9990000  0 11G30G28G19G 7G 4G 5G 9G13G17G10G11
  20353639.603     -420516.625        3414.758          49.000  
  20752953.791     -387663.799        3326.576          47.000  
  23941683.225        2083.8212         51.645          40.000  
  21021847.041     -158338.027        1953.507          48.000  
  24167307.770      -17101.8593       4572.624          34.000  
  24771370.685       -1872.5623       1538.429          28.000  
  23746523.131      207046.067        -498.823          47.000  
  22327007.633     -840217.514        5995.309          46.000  
  22544606.194     -827383.506        6403.627          49.000  
  25615123.142       57376.0833        724.948          23.000  
  22836081.159     -420511.0662       4325.549          46.000  
 15  4  2  0  9 29.9990000  0 10G30G28G19G 7G 4G 9G13G17G10G11
  20352989.845     -423930.849        3413.257          49.000  
  20752320.767     -390989.758        3324.895          48.000  
  23941668.043        2038.6723         51.941          33.000  
  21021475.491     -160290.445        1951.014          48.000  
  24166448.434      -21653.8903       4566.821          25.000  
  23746618.793      207547.665        -502.041          47.000  
  22325866.755     -846212.851        5994.169          47.000  
  22543388.657     -833785.427        6400.349          50.000  
  25614989.229       56649.5163        726.476          24.000  
  22835258.068     -424835.3033       4322.782          37.000  
 15  4  2  0  9 30.9990000  0 10G30G28G19G 7G 5G 9G13G17G10G11
  20352340.662     -427341.499        3407.596          49.000  
  20751688.703     -394311.872        3318.932          47.000  
  23941662.180        1989.2313         52.130          34.000  
  21021104.813     -162238.761        1945.546          48.000  
  24770778.232        -780.2013       1531.485          31.000  
  23746714.874      208055.236        -511.871          45.000  
  22324726.243     -852204.927        5989.228          47.000  
  22542171.208     -840181.286        6391.376          49.000  
  25614851.668       55914.2633        727.761          21.000  
  22834437.576     -429156.0833       4317.445          42.000  
 15  4  2  0  9 31.9990000  0 11G30G28G19G 7G 4G 5G 9G13G17G10G11
  20351691.688     -430753.167        3416.125          49.000  
  20751055.993     -397634.706        3327.176          48.000  
  23941651.187        1939.6943         56.993          43.000  
  21020733.804     -164187.399        1952.671          45.000  
  24164700.882       -5112.2643       4576.147          31.000  
  24770475.401       -2319.0713       1541.025          29.000  
  23746812.176      208564.343        -503.954          42.000  
  22323585.680     -858198.373        5998.209          46.000  
  22540954.108     -846575.627        6397.529          49.000  
  25614711.770       55196.9913        723.432          22.000  
  22833613.070     -433476.8043       4322.567          42.000  
 15  4  2  0  9 32.9990000  0 11G30G28G 1G 7G 4G 5G 9G13G17G10G11
  20351040.236     -434175.136        3427.251          49.000  
  20750421.538     -400967.832        3338.384          47.000  
  24234075.496       -4966.9183       5433.876          32.000  
  21020361.556     -166145.719        1963.365          48.000  
  24163827.882       -9683.2173       4582.334          34.000  
  24770187.089       -3866.2893       1553.317          42.000  
  23746908.065      209065.742        -497.582          47.000  
  22322443.493     -864202.697        6010.052          46.000  
  22539735.646     -852977.769        6406.128          49.000  
  25614573.826       54466.9893        731.264          22.000  
  22832789.228     -437806.0622       4332.164          40.000  
 15  4  2  0  9 33.9990000  0 11G30G28G 1G 7G 4G 5G 9G13G17G10G11
  20350386.673     -437609.001        3440.323          50.000  
  20749785.093     -404312.723        3351.420          48.000  
  24233030.787       -2698.1223       5449.212          43.000  
  21019986.673     -168115.147        1975.701          48.000  
  24162950.084      -14272.8503       4596.148          39.000  
  24769892.285       -5424.6803       1563.301          36.000  
  23747001.738      209557.563        -486.953          44.000  
  22321297.974     -870219.619        6023.849          48.000  
  22538515.771     -859389.440        6416.859          51.000  
  25614429.600       53728.8993        750.243          24.000  
  22831967.794     -442146.5202       4344.710          45.000  
 15  4  2  0  9 34.9990000  0 11G30G28G19G 7G 4G 5G 9G13G17G10G11
  20349730.510     -441057.879        3455.754          49.000  
  20749145.805     -407672.553        3366.719          47.000  
  23941606.549        1718.0443        102.352          31.000  
  21019609.277     -170098.841        1990.016          48.000  
  24162103.138      -18874.8813       4614.109          30.000  
  24769609.643       -6988.7183       1572.650          28.000  
  23747092.968      210036.826        -473.413          46.000  
  22320149.976     -876252.036        6040.466          47.000  
  22537293.488     -865813.752        6429.995          50.000  
  25614276.387       52975.5783        755.640          35.000  
  22831139.921     -446496.4823       4360.321          48.000  
 15  4  2  0  9 35.9990000  0 10G30G28G19G 7G 5G 9G13G17G10G11
  20349071.433     -444522.390        3473.865          50.000  
  20748503.305     -411047.900        3384.385          47.000  
  23941582.956        1609.6823        118.258          43.000  
  21019228.915     -172097.589        2007.510          48.000  
  24769284.267       -8575.9673       1597.928          39.000  
  23747181.249      210502.625        -458.190          46.000  
  22318999.780     -882300.586        6057.067          48.000  
  22536068.361     -872251.521        6445.145          50.000  
  25614135.721       52209.6853        769.220          31.000  
  22830305.172     -450865.6243       4376.729          47.000  
 15  4  2  0  9 36.9990000  0 12G30G20G28G19G 7G 4G 5G 9G13G17G10G11
  20348409.145     -448003.584        3493.353          50.000  
  25114726.421        -982.3953        977.100          33.000  
  20747858.031     -414439.547        3404.220          48.000  
  23941569.712        1487.4723        122.358          26.000  
  21018845.708     -174112.810        2027.784          49.000  
  24160313.915      -28089.1913       4648.865          38.000  
  24768983.983      -10175.0553       1617.916          31.000  
  23747266.912      210953.132        -436.330          45.000  
  22317845.204     -888365.535        6077.138          47.000  
  22534840.511     -878704.324        6465.820          50.000  
  25613989.540       51433.9193        809.743          26.000  
  22829471.034     -455251.1672       4397.522          47.000  
 15  4  2  0  9 37.9990000  0 12G30G28G19G 1G 7G 4G 5G 9G13G17G10G11
  20347744.327     -451496.792        3502.483          50.000  
  20747210.924     -417843.293        3412.647          48.000  
  23941540.727        1350.9193        154.803          27.000  
  24228861.999       -2510.0433       5514.644          32.000  
  21018459.534     -176140.409        2037.220          49.000  
  24159433.010      -32726.5483       4674.084          26.000  
  24768669.932      -11794.2463       1627.045          38.000  
  23747350.254      211390.136        -426.269          46.000  
  22316689.266     -894442.086        6085.841          48.000  
  22533609.887     -885170.370        6476.271          50.000  
  25613838.369       50633.6123        803.768          26.000  
  22828633.721     -459648.4393       4402.300          35.000  
 15  4  2  0  9 38.9990000  0 11G30G28G19G 7G 4G 5G 9G13G17G10G11
  20347077.344     -455001.445        3506.589          49.000  
  20746560.677     -421258.593        3416.880          48.000  
  23941507.257        1204.4983        131.800          33.000  
  21018071.389     -178179.950        2041.921          48.000  
  24158549.471      -37390.4273       4654.195          26.000  
  24768367.746      -13420.1703       1628.802          35.000  
  23747431.362      211813.722        -418.999          47.000  
  22315530.904     -900529.368        6088.376          46.000  
  22532376.715     -891649.458        6483.648          49.000  
  25613690.845       49824.1193        807.269          25.000  
  22827795.342     -464059.4613       4415.838          45.000  
 15  4  2  0  9 39.9990000  0 11G30G28G19G 7G 4G 5G 9G13G17G10G11
  20346408.652     -458514.867        3514.498          49.000  
  20745909.103     -424682.927        3425.334          47.000  
  23941473.613        1056.1203        150.439          36.000  
  21017681.377     -180229.261        2050.946          48.000  
  24157651.430      -42034.8623       4657.740          35.000  
  24768053.189      -15057.0873       1636.344          37.000  
  23747509.330      212224.364        -407.171          41.000  
  22314370.551     -906624.324        6095.360          46.000  
  22531141.693     -898140.948        6495.677          50.000  
  25613526.045       49006.0073        811.770          27.000  
  22826954.835     -468479.0373       4421.625          46.000  
 15  4  2  0  9 40.9990000  0 12G30G20G28G19G 7G 4G 5G 9G13G17G10G11
  20345738.250     -462038.758        3523.074          48.000  
  25113964.929        -518.3643       1022.039          27.000  
  20745255.296     -428118.198        3434.454          47.000  
  23941444.716         892.7403        160.010          36.000  
  21017289.131     -182290.817        2061.703          48.000  
  24156758.415      -46707.1623       4682.785          40.000  
  24767739.713      -16707.4213       1651.768          39.000  
  23747583.947      212617.481        -390.489          46.000  
  22313209.100     -912727.891        6101.503          46.000  
  22529903.269     -904649.237        6510.824          49.000  
  25613366.899       48170.5883        848.290          28.000  
  22826110.210     -472911.1332       4432.505          46.000  
 15  4  2  0  9 41.9990000  0 13G30G20G28G19G 1G 7G 4G 5G 9G13G17G10
                                G11
  20345066.399     -465570.030        3530.933          50.000  
  25113767.881       -1549.5913       1043.106          32.000  
  20744600.372     -431561.448        3442.155          47.000  
  23941415.068         725.0183        168.264          42.000  
  24224654.490       -1317.5373       5558.029          33.000  
  21016895.820     -184360.942        2067.465          46.000  
  24155871.124      -51399.6243       4685.456          28.000  
  24767425.941      -18367.4523       1661.897          37.000  
  23747656.784      212997.134        -379.348          44.000  
  22312046.968     -918837.437        6108.481          46.000  
  22528661.965     -911170.559        6521.222          49.000  
  25613216.042       47319.5603        853.826          26.000  
  22825266.910     -477352.2403       4435.055          41.000  
 15  4  2  0  9 42.9990000  0 11G30G28G19G 7G 4G 5G 9G13G17G10G11
  20344392.628     -469109.375        3541.106          49.000  
  20743943.371     -435012.853        3453.267          47.000  
  23941379.783         548.0613        177.591          45.000  
  21016500.137     -186439.9573       2080.972          48.000  
  24154980.535      -56092.5173       4727.252          25.000  
  24767109.254      -20034.8473       1672.598          34.000  
  23747726.882      213366.648        -367.677          42.000  
  22310882.846     -924954.240        6118.844          46.000  
  22527419.213     -917701.774        6533.817          49.000  
  25613044.192       46452.9723        864.509          26.000  
  22824417.870     -481800.9533       4452.127          46.000  
 15  4  2  0  9 43.9990000  0 13G30G20G28G19G 1G 7G 4G 5G 9G13G17G10
                                G11
  20343718.579     -472652.162        3546.947          49.000  
  25113368.184         120.4683       1047.823          30.000  
  20743285.777     -438467.984        3458.903          48.000  
  23941344.412         368.1372        181.855          40.000  
  24222541.566       -6878.6113       5571.461          29.000  
  21016103.738     -188522.3942       2085.847          48.000  
  24154084.152      -60792.8823       4702.417          35.000  
  24766786.477      -21704.2313       1674.673          33.000  
  23747793.210      213731.125        -359.998          43.000  
  22309717.678     -931074.313        6123.958          46.000  
  22526175.571     -924237.590        6540.347          49.000  
  25612875.274       45584.0463        875.837          31.000  
  22823571.901     -486253.8162       4456.630          45.000  
 15  4  2  0  9 44.9990000  0 12G30G28G19G 1G 7G 4G 5G 9G13G17G10G11
  20343042.924     -476200.588        3553.005          49.000  
  20742627.049     -441929.536        3466.327          48.000  
  23941313.368         183.8402        187.931          43.000  
  24221468.080       -2547.6673       5574.483          41.000  
  21015705.541     -190610.7742       2093.636          49.000  
  24153191.852      -65487.8603       4703.157          32.000  
  24766461.781      -23384.8593       1687.431          38.000  
  23747864.547      214087.033        -350.172          44.000  
  22308552.352     -937199.925        6129.866          47.000  
  22524929.642     -930782.177        6551.507          49.000  
  25612707.909       44707.1133        882.655          31.000  
  22822723.105     -490712.3502       4463.461          47.000  
 15  4  2  0  9 45.9990000  0 11G30G28G19G 7G 4G 5G 9G13G17G10G11
  20342365.978     -479758.876        3568.361          49.000  
  20741966.977     -445401.553        3482.511          48.000  
  23941272.918          -8.7192        201.981          43.000  
  21015306.751     -192709.8552       2109.674          48.000  
  24152290.968      -70203.3873       4725.379          39.000  
  24766148.567      -25076.9553       1703.580          39.000  
  23747928.432      214428.597        -329.087          46.000  
  22307384.985     -943334.560        6143.106          42.000  
  22523681.882     -937340.731        6570.414          50.000  
  25612539.916       43811.2903        903.707          26.000  
  22821872.546     -495181.5792       4480.122          44.000  
 15  4  2  0  9 46.9990000  0 11G30G28G19G 1G 7G 4G 9G13G17G10G11
  20341687.496     -483325.885        3570.535          49.000  
  20741305.055     -448882.754        3485.503          48.000  
  23941235.086        -208.3442        202.457          42.000  
  24219344.476       -1328.8363       5592.808          38.000  
  21014905.065     -194818.4582       2113.018          48.000  
  24151384.115      -74929.1652       4729.465          39.000  
  23747989.735      214757.344        -323.116          45.000  
  22306216.483     -949475.7603       6139.134          34.000  
  22522431.783     -943911.814        6575.924          50.000  
  25612364.960       42903.7943        912.449          25.000  
  22821019.789     -499660.2122       4482.624          45.000  
 15  4  2  0  9 47.9990000  0 11G30G28G19G 1G 7G 4G 5G 9G17G10G11
  20341006.588     -486902.180        3579.228          49.000  
  20740640.725     -452373.362        3493.527          48.000  
  23941196.102        -416.9242        212.901          41.000  
  24218287.063       -2170.5383       5605.345          38.000  
  21014502.157     -196936.6922       2121.184          49.000  
  24150485.777      -79664.4492       4737.788          39.000  
  24765496.313      -28486.3063       1713.085          34.000  
  23748051.264      215075.094        -313.896          46.000  
  22521179.434     -950493.660        6585.519          50.000  
  25612187.980       41987.1733        916.870          31.000  
  22820165.287     -504148.5232       4492.292          44.000  
 15  4  2  0  9 48.9990000  0 12G30G28G19G 1G 7G 4G 5G 9G13G17G10G11
  20340326.448     -490478.002        3574.039          49.000  
  20739976.273     -455863.624        3487.887          48.000  
  23941156.281        -624.6132        206.293          42.000  
  24217218.080       -7773.8503       5602.217          41.000  
  21014099.074     -199054.6592       2115.778          49.000  
  24149584.631      -84399.2722       4732.142          39.000  
  24765175.037         -23.2363       1710.092          39.000  
  23748113.160      215392.286        -318.890          47.000  
  22303876.304       -1364.1253       6155.225          32.000  
  22519926.840     -957075.866        6580.594          50.000  
  25612019.027       41067.6773        918.850          30.000  
  22819312.163     -508636.2402       4485.076          47.000  
 15  4  2  0  9 49.9990000  0 12G30G28G19G 1G 7G 4G 5G 9G13G17G10G11
  20339647.059     -494047.984        3566.197          49.000  
  20739313.043     -459348.327        3481.447          48.000  
  23941118.065        -826.0982        198.642          43.000  
  24216154.786      -13371.5262       5593.704          40.000  
  21013696.899     -201167.0042       2109.139          49.000  
  24148680.936      -89128.1982       4725.125          38.000  
  24764849.067       -1728.6383       1704.659          37.000  
  23748173.974      215714.075        -325.647          45.000  
  22302706.529       -7507.7093       6140.662          44.000  
  22518675.118     -963653.259        6574.289          50.000  
  25611843.146       40149.1523        912.435          30.000  
  22818459.144     -513118.2502       4478.842          46.000  
 15  4  2  0  9 50.9990000  0 11G30G28G19G 1G 7G 5G 9G13G17G10G11
  20338969.345     -497608.5063       3562.434          50.000  
  20738650.668     -462825.125        3477.021          48.000  
  23941084.212       -1016.0493        189.002          36.000  
  24215082.697      -18961.5643       5589.615          32.000  
  21013296.835     -203271.4522       2104.985          49.000  
  24764524.720       -3425.9003       1697.963          33.000  
  23748236.254      216042.696        -327.118          45.000  
  22301536.981      -13643.9922       6136.630          47.000  
  22517424.792     -970223.584        6571.101          50.000  
  25611673.408       39241.8083        904.809          29.000  
  22817607.748     -517592.2892       4474.839          45.000  
 15  4  2  0  9 51.9990000  0 12G30G28G19G 1G 7G 4G 5G 9G13G17G10G11
  20338292.346     -501164.3952       3554.303          49.000  
  20737989.950     -466295.861        3469.219          48.000  
  23941049.451       -1203.0403        186.065          43.000  
  24214023.050      -24546.6743       5583.144          41.000  
  21012897.365     -205370.0382       2096.545          48.000  
  24146889.637      -98557.4313       4712.680          32.000  
  24764204.526       -5118.4143       1690.541          38.000  
  23748299.703      216376.394        -334.658          42.000  
  22300371.079      -19773.5362       6127.660          47.000  
  22516175.845     -976788.550        6562.839          51.000  
  25611503.199       38333.8143        898.501          23.000  
  22816757.608     -522060.2952       4468.324          42.000  
 15  4  2  0  9 52.9990000  0 12G30G28G19G 1G 7G 4G 5G 9G13G17G10G11
  20337615.592     -504721.2232       3560.838          49.000  
  20737329.494     -469767.645        3475.380          48.000  
  23941003.975       -1390.3172        190.547          39.000  
  24212962.234      -30133.1953       5590.290          36.000  
  21012498.296     -207469.8452       2102.219          49.000  
  24145991.893     -103273.5633       4719.723          35.000  
  24763877.090       -6812.3902       1698.248          41.000  
  23748362.401      216707.761        -326.705          46.000  
  22299204.637      -25903.6393       6138.021          34.000  
  22514925.974     -983355.730        6571.930          50.000  
  25611342.273       37430.5433        905.810          25.000  
  22815907.242     -526529.4462       4472.775          46.000  
 15  4  2  0  9 53.9990000  0 12G30G28G19G 1G 7G 4G 5G 9G13G17G10G11
  20336936.621     -508290.5952       3577.973          49.000  
  20736666.770     -473252.393        3493.612          47.000  
  23940964.887       -1589.4472        208.769          37.000  
  24211896.811      -35732.8143       5609.681          36.000  
  21012095.807     -209582.5852       2121.577          48.000  
  24145091.235     -108002.0832       4736.920          37.000  
  24763553.615       -8519.7132       1717.830          40.000  
  23748422.762      217024.471        -307.361          47.000  
  22298035.682      -32045.7383       6151.198          46.000  
  22513673.310     -989937.285        6590.582          49.000  
  25611164.926       36513.4853        913.499          25.000  
  22815054.048     -531011.3122       4490.941          45.000  
 15  4  2  0  9 54.9990000  0 11G30G28G19G 1G 7G 4G 9G13G17G10G11
  20336253.934     -511875.0992       3591.007          49.000  
  20736000.573     -476752.413        3506.996          47.000  
  23940931.889       -1803.2372        221.431          41.000  
  24210825.524      -41348.6292       5623.725          36.000  
  21011690.630     -211710.577        2134.427          47.000  
  24144192.007     -112746.0993       4749.455          30.000  
  23748480.033      217324.842        -292.620          46.000  
  22296863.952      -38202.7682       6162.931          46.000  
  22512417.924     -996534.975        6604.298          49.000  
  25610984.596       35581.0333        942.191          26.000  
  22814198.237     -535508.850        4503.007          44.000  
 15  4  2  0  9 55.9990000  0 11G30G28G19G 1G 7G 4G 9G13G17G10G11
  20335569.955     -515471.8902       3595.233          49.000  
  20735332.613     -480264.867        3511.085          48.000  
  23940892.503       -2028.4722        221.955          41.000  
  24209757.588      -46980.0193       5629.662          37.000  
  21011283.726     -213851.444        2140.032          48.000  
  24143292.361     -117494.3533       4755.719          37.000  
  23748534.635      217610.462        -284.888          46.000  
  22295692.013      -44371.4332       6166.717          47.000  
  22511160.042    -1003147.093        6612.221          49.000  
  25610808.819       34633.4653        959.699          26.000  
  22813340.769     -540018.591        4507.761          45.000  
 15  4  2  0  9 56.9990000  0 12G30G20G28G19G 1G 7G 4G 9G13G17G10G11
  20334885.767     -519065.3752       3587.903          50.000  
  25110667.169        -220.3823       1123.112          31.000  
  20734664.497     -483774.489        3503.741          48.000  
  23940846.679       -2248.8382        213.981          39.000  
  24208685.534      -52603.9923       5629.132          41.000  
  21010876.874     -215989.905        2133.080          49.000  
  24142380.797     -122248.1133       4747.969          39.000  
  23748588.870      217894.811        -287.360          46.000  
  22294518.486      -50535.6762       6158.010          45.000  
  22509901.044    -1009760.071        6609.501          49.000  
  25610618.856       33679.9273        949.606          34.000  
  22812482.270     -544526.059        4502.154          47.000  
 15  4  2  0  9 57.9990000  0 12G30G28G19G 1G 7G 4G 5G 9G13G17G10G11
  20334202.364     -522655.3502       3590.159          50.000  
  20733996.101     -487281.159        3506.997          47.000  
  23940806.369       -2464.0382        213.993          42.000  
  24207616.377      -58232.4723       5636.844          32.000  
  21010470.336     -218126.157        2137.389          48.000  
  24141473.665     -126997.7383       4751.400          37.000  
  24762289.347         111.3553       1726.444          32.000  
  23748642.320      218177.206        -278.952          46.000  
  22293345.360      -56695.2592       6159.282          46.000  
  22508642.307    -1016374.615        6617.809          50.000  
  25610435.402       32725.7342        956.849          34.000  
  22811624.958     -549031.246        4506.623          45.000  
 15  4  2  0  9 58.9990000  0 10G30G28G19G 7G 4G 9G13G17G10G11
  20333520.026     -526243.0562       3594.237          50.000  
  20733329.712     -490786.268        3512.187          47.000  
  23940765.588       -2674.2602        215.268          41.000  
  21010063.781     -220261.696        2143.115          48.000  
  24140575.642     -131746.8112       4756.756          38.000  
  23748695.317      218454.419        -266.278          45.000  
  22292176.125      -62850.7952       6160.136          44.000  
  22507382.890    -1022993.686        6629.256          49.000  
  25610246.975       31767.6093        972.330          26.000  
  22810767.420     -553535.796        4513.039          45.000  
 15  4  2  0  9 59.9990000  0 12G30G28G19G 1G 7G 4G 5G 9G13G17G10G11
  20332836.204     -529839.2512       3601.041          50.000  
  20732661.212     -494300.494        3519.463          48.000  
  23940724.475       -2890.0532        220.259          34.000  
  24205467.313       -4672.9763       5650.758          32.000  
  21009655.673     -222407.690        2152.411          49.000  
  24139677.968     -136505.8192       4768.904          34.000  
  24761568.618       -3363.3913       1749.626          44.000  
  23748745.032      218714.900        -251.317          45.000  
  22291001.918      -69013.0692       6166.880          44.000  
  22506120.297    -1029628.858        6644.211          50.000  
  25610057.657       30790.6573        993.474          25.000  
  22809908.293     -558050.894        4520.664          45.000  
 15  4  2  0 10  0.9990000  0 12G30G28G19G 1G 7G 4G 5G 9G13G17G10G11
  20332150.114     -533446.017        3610.683          50.000  
  20731990.600     -497825.443        3529.242          48.000  
  23940682.787       -3113.4693        225.770          37.000  
  24204408.242      -10328.2493       5662.069          38.000  
  21009244.162     -224565.594        2162.571          49.000  
  24138782.789     -141273.9513       4780.970          36.000  
  24761241.252       -5118.2552       1761.929          36.000  
  23748790.420      218957.293        -234.218          45.000  
  22289827.518      -75183.3222       6173.346          45.000  
  22504854.214    -1036281.372        6659.870          49.000  
  25609875.564       29791.6003       1007.672          24.000  
  22809047.038     -562578.072        4532.089          44.000  
 15  4  2  0 10  1.9990000  0 12G30G28G19G 1G 7G 4G 5G 9G13G17G10G11
  20331461.389     -537066.089        3626.406          50.000  
  20731316.865     -501364.622        3545.293          48.000  
  23940638.324       -3348.5692        241.385          41.000  
  24203322.053      -16001.2042       5680.802          35.000  
  21008830.784     -226738.735        2179.794          48.000  
  24137861.103     -146053.9023       4791.223          35.000  
  24760919.993       -6888.6483       1778.132          30.000  
  23748833.296      219180.003        -213.992          47.000  
  22288651.722      -81365.8492       6188.453          46.000  
  22503584.030    -1042953.023        6680.076          49.000  
  25609697.886       28775.7913       1018.139          24.000  
  22808184.002     -567120.513        4549.409          46.000  
 15  4  2  0 10  2.9990000  0 11G30G28G19G 7G 4G 5G 9G13G17G10G11
  20330770.011     -540699.405        3639.524          50.000  
  20730641.471     -504917.364        3558.926          49.000  
  23940592.499       -3595.5462        252.023          38.000  
  21008415.207     -228926.064        2193.701          47.000  
  24136949.155     -150852.1233       4804.277          34.000  
  24760587.532       -8673.5182       1790.814          31.000  
  23748872.122      219385.210        -197.750          47.000  
  22287473.693      -87560.5662       6200.535          46.000  
  22502311.159    -1049641.726        6696.309          49.000  
  25609500.001       27746.3473       1036.113          25.000  
  22807316.622     -571677.152        4563.326          46.000  
 15  4  2  0 10  3.9990000  0 11G30G28G19G 1G 7G 4G 9G13G17G10G11
  20330075.353     -544347.470        3654.455          50.000  
  20729961.436     -508485.050        3574.206          48.000  
  23940541.580       -3856.6982        267.588          39.000  
  24201147.511       -7177.7243       5711.986          32.000  
  21007996.140     -231128.579        2209.166          48.000  
  24136053.697       -1948.1363       4819.155          33.000  
  23748907.825      219573.633        -181.041          48.000  
  22286291.371      -93769.5332       6214.977          44.000  
  22501035.775    -1056346.908        6712.470          49.000  
  25609285.922       26699.6403       1056.068          24.000  
  22806445.943     -576248.821        4578.513          46.000  
 15  4  2  0 10  4.9990000  0 10G30G28G19G 7G 5G 9G13G17G10G11
  20329379.700     -548009.807        3668.732          50.000  
  20729280.005     -512067.113        3588.463          47.000  
  23940488.758       -4131.6702        281.223          43.000  
  21007575.136     -233345.611        2223.413          47.000  
  24759910.673        -776.1953       1820.125          31.000  
  23748940.946      219746.508        -165.988          46.000  
  22285105.908      -99992.4542       6229.352          44.000  
  22499757.546    -1063067.409        6727.609          48.000  
  25609085.488       25637.8733       1064.603          22.000  
  22805574.043     -580834.920        4592.530          46.000  
 15  4  2  0 10  5.9990000  0 10G30G28G19G 7G 5G 9G13G17G10G11
  20328680.191     -551686.298        3682.031          49.000  
  20728596.236     -515663.441        3601.824          47.000  
  23940435.221       -4420.4622        294.398          44.000  
  21007149.822     -235576.962        2236.547          47.000  
  24759545.457       -2605.5883       1837.063          30.000  
  23748971.379      219904.143        -151.972          46.000  
  22283920.619     -106229.0702       6241.935          45.000  
  22498475.828    -1069802.834        6741.238          49.000  
  25608921.823       24562.2863       1086.500          22.000  
  22804699.805     -585435.130        4605.607          46.000  
 15  4  2  0 10  6.9990000  0 10G30G28G19G 7G 5G 9G13G17G10G11
  20327977.715     -555377.175        3698.800          50.000  
  20727908.872     -519274.181        3618.465          48.000  
  23940377.199       -4723.5812        311.039          45.000  
  21006722.640     -237822.731        2253.367          48.000  
  24759190.886       -4449.2512       1851.332          34.000  
  23748998.916      220047.035        -134.924          47.000  
  22282732.102     -112479.9592       6258.563          46.000  
  22497191.056    -1076552.869        6757.820          50.000  
  25608716.730       23468.3883       1102.531          26.000  
  22803820.924     -590049.595        4622.131          45.000  
 15  4  2  0 10  7.9990000  0 10G30G28G19G 7G 5G 9G13G17G10G11
  20327272.010     -559082.439        3711.976          50.000  
  20727218.978     -522899.383        3632.096          48.000  
  23940317.083       -5041.0572        324.266          45.000  
  21006292.911     -240082.892        2267.067          49.000  
  24758844.377       -6307.5332       1865.750          33.000  
  23749023.712      220175.311        -121.059          47.000  
  22281540.445     -118745.1002       6272.284          46.000  
  22495903.631    -1083317.347        6771.189          49.000  
  25608507.310       22358.7153       1115.814          27.000  
  22802939.811     -594678.222        4635.537          46.000  
 15  4  2  0 10  8.9990000  0 10G30G28G19G 7G 5G 9G13G17G10G11
  20326564.683     -562801.431        3726.042          50.000  
  20726527.356     -526538.357        3645.968          48.000  
  23940253.651       -5372.2692        338.053          45.000  
  21005859.273     -242356.710        2280.709          47.000  
  24758487.049       -8179.6332       1878.899          32.000  
  23749044.827      220289.668        -107.189          48.000  
  22280344.843     -125023.8252       6285.902          44.000  
  22494614.391    -1090095.596        6785.184          50.000  
  25608303.562       21234.7573       1130.749          25.000  
  22802056.585     -599320.363        4649.162          46.000  
 15  4  2  0 10  9.9990000  0 10G30G28G19G 1G 7G 9G13G17G10G11
  20325854.337     -566533.833        3738.911          50.000  
  20725831.982     -530190.750        3658.974          47.000  
  23940188.509       -5716.7952        350.930          45.000  
  24194573.299        -812.9973       5795.201          32.000  
  21005423.890     -244643.927        2293.599          48.000  
  23749063.970      220390.390         -94.070          48.000  
  22279148.090     -131315.8372       6298.156          46.000  
  22493322.115    -1096887.272        6798.126          50.000  
  25608086.394       20096.9303       1145.031          27.000  
  22801170.376     -603975.657        4661.582          45.000  
 15  4  2  0 10 10.9990000  0 11G30G28G19G 7G 4G 5G 9G13G17G10G11
  20325141.792     -570279.470        3752.066          50.000  
  20725134.200     -533856.442        3672.148          47.000  
  23940120.366       -6074.5582        364.177          44.000  
  21004987.705     -246944.331        2306.990          48.000  
  24129534.331      -13113.9922       4916.947          33.000  
  24757790.768      -11963.8762       1904.928          30.000  
  23749081.158      220477.663         -80.639          47.000  
  22277946.921     -137620.9392       6311.213          45.000  
  22492026.576    -1103692.235        6811.330          50.000  
  25607854.061       18945.3253       1158.303          28.000  
  22800282.038     -608643.976        4674.848          45.000  
 15  4  2  0 10 11.9990000  0 11G30G28G19G 7G 4G 5G 9G13G17G10G11
  20324426.194     -574038.125        3765.050          50.000  
  20724434.516     -537535.203        3685.034          48.000  
  23940049.082       -6445.3532        377.238          44.000  
  21004547.523     -249257.746        2319.667          48.000  
  24128596.364      -18037.1472       4930.462          32.000  
  24757416.862      -13875.7762       1918.104          34.000  
  23749094.264      220551.676         -67.495          47.000  
  22276745.142     -143938.9872       6324.299          45.000  
  22490729.711    -1110510.250        6824.305          50.000  
  25607621.398       17780.0413       1171.808          28.000  
  22799390.873     -613325.135        4687.463          45.000  
 15  4  2  0 10 12.9990000  0 11G30G28G19G 7G 4G 5G 9G13G17G10G11
  20323708.309     -577809.896        3778.548          50.000  
  20723732.285     -541227.119        3698.678          47.000  
  23939975.215       -6829.724         390.806          44.000  
  21004104.514     -251584.257        2333.245          48.000  
  24127658.607      -22973.1072       4942.002          33.000  
  24757043.637      -15800.7702       1931.876          32.000  
  23749105.920      220612.373         -53.906          47.000  
  22275539.786     -150270.465        6337.802          44.000  
  22489429.844    -1117341.444        6837.957          50.000  
  25607395.068       16601.2243       1185.963          28.000  
  22798497.038     -618019.181        4700.760          45.000  
 15  4  2  0 10 13.9990000  0 11G30G28G19G 7G 4G 5G 9G13G17G10G11
  20322987.947     -581594.812        3791.055          49.000  
  20723027.348     -544932.220        3711.415          47.000  
  23939899.150       -7226.679         403.078          44.000  
  21003659.743     -253923.868        2345.718          47.000  
  24126714.148      -27922.2652       4953.670          32.000  
  24756668.824      -17738.9702       1944.919          31.000  
  23749115.204      220659.731         -41.003          46.000  
  22274331.480     -156614.450        6350.040          44.000  
  22488126.889    -1124185.806        6850.598          49.000  
  25607160.520       15408.6623       1198.991          27.000  
  22797601.440     -622726.145        4713.081          44.000  
 15  4  2  0 10 14.9990000  0 11G30G28G19G 7G 4G 5G 9G13G17G10G11
  20322265.159     -585392.627        3804.242          49.000  
  20722320.161     -548650.263        3724.563          47.000  
  23939820.851       -7636.533         416.409          44.000  
  21003212.651     -256276.356        2358.849          48.000  
  24125768.347      -32884.1432       4968.309          32.000  
  24756294.639      -19690.1863       1959.257          30.000  
  23749121.224      220693.975         -27.449          47.000  
  22273121.762     -162971.229        6363.403          45.000  
  22486821.909    -1131043.102        6863.957          49.000  
  25606934.278       14202.6763       1211.792          26.000  
  22796703.190     -627445.793        4726.165          44.000  
 15  4  2  0 10 15.9990000  0 11G30G28G19G 7G 4G 5G 9G13G17G10G11
  20321540.172     -589203.001        3816.367          49.000  
  20721610.443     -552380.894        3736.521          47.000  
  23939740.440       -8058.897         428.226          43.000  
  21002762.575     -258641.358        2370.762          48.000  
  24124822.248      -37858.4292       4979.452          32.000  
  24755928.289      -21653.8533       1968.930          31.000  
  23749125.691      220715.470         -15.707          47.000  
  22271909.547     -169340.429        6375.096          45.000  
  22485514.905    -1137912.991        6875.888          49.000  
  25606698.578       12983.5513       1225.145          27.000  
  22795802.689     -632177.767        4737.874          44.000  
 15  4  2  0 10 16.9990000  0 11G30G28G19G 7G 4G 5G 9G13G17G10G11
  20320812.341     -593025.363        3828.104          49.000  
  20720898.456     -556123.584        3748.329          47.000  
  23939657.360       -8493.270         440.064          43.000  
  21002309.864     -261018.354        2382.498          48.000  
  24123874.038      -42844.6092       4991.586          32.000  
  24755552.027      -23629.7432       1981.632          31.000  
  23749127.035      220724.710          -3.564          47.000  
  22270694.995     -175721.488        6386.682          44.000  
  22484205.336    -1144794.919        6887.444          49.000  
  25606464.152       11751.8373       1238.248          28.000  
  22794900.234     -636921.546        4749.277          44.000  
 15  4  2  0 10 17.9990000  0 11G30G28G19G 7G 4G 5G 9G13G17G10G11
  20320083.323     -596859.453        3840.181          50.000  
  20720184.271     -559878.018        3760.381          48.000  
  23939572.133       -8939.290         452.032          44.000  
  21001855.600     -263407.045        2394.726          48.000  
  24122922.809      -47842.4572       5003.615          33.000  
  24755171.019      -25617.2482       1993.342          31.000  
  23749126.721      220722.007           9.019          48.000  
  22269478.470     -182114.147        6398.622          46.000  
  22482893.883    -1151688.609        6899.730          50.000  
  25606226.113       10507.9673       1250.531          29.000  
  22793995.108     -641676.822        4761.498          45.000  
 15  4  2  0 10 18.9990000  0 11G30G28G19G 7G 4G 5G 9G13G17G10G11
  20319351.269     -600705.400        3851.939          50.000  
  20719467.416     -563644.377        3772.416          48.000  
  23939485.196       -9397.181         463.936          44.000  
  21001398.683     -265807.561        2406.655          48.000  
  24121970.464      -52851.9062       5014.267          33.000  
  24754783.171      -27616.7162       2004.964          32.000  
  23749123.894      220707.261          20.870          48.000  
  22268260.078     -188518.551        6410.351          45.000  
  22481579.532    -1158594.204        6911.685          50.000  
  25605987.028        9251.6381       1262.571          29.000  
  22793088.657     -646443.721        4772.749          45.000  
 15  4  2  0 10 19.9990000  0 11G30G28G19G 7G 4G 5G 9G13G17G10G11
  20318616.702     -604563.630        3864.495          50.000  
  20718747.927     -567423.035        3784.959          47.000  
  23939394.839       -9867.326         476.580          44.000  
  21000940.511     -268220.328        2419.001          48.000  
  24121015.344      -57873.6352       5028.095          34.000  
  24754405.845      -29628.5143       2017.169          30.000  
  23749118.886      220680.021          33.757          47.000  
  22267038.668     -194935.086        6422.897          45.000  
  22480262.704    -1165512.107        6924.292          50.000  
  25605744.347        7982.474        1275.528          30.000  
  22792179.186     -651222.710        4785.342          45.000  
 15  4  2  0 10 20.9990000  0 10G30G28G19G 7G 4G 9G13G17G10G11
  20317879.780     -608434.609        3877.485          49.000  
  20718026.587     -571214.523        3798.063          47.000  
  23939303.138      -10350.229         489.486          44.000  
  21000478.533     -270645.837        2432.172          48.000  
  24120058.147      -62907.9552       5040.818          32.000  
  23749110.998      220639.801          46.732          48.000  
  22265814.954     -201364.210        6435.369          45.000  
  22478943.537    -1172442.809        6937.259          49.000  
  25605497.689        6699.976        1289.644          31.000  
  22791267.360     -656014.205        4797.796          45.000  
 15  4  2  0 10 21.9990000  0 11G30G28G19G 7G 4G 5G 9G13G17G10G11
  20317140.571     -612318.283        3889.681          49.000  
  20717302.787     -575018.722        3810.299          48.000  
  23939209.133      -10845.760         501.641          44.000  
  21000014.183     -273083.999        2444.254          48.000  
  24119101.683      -67954.8282       5052.240          34.000  
  24753654.840       -2106.5503       2043.013          29.000  
  23749101.104      220586.681          59.236          48.000  
  22264588.919     -207805.930        6447.735          45.000  
  22477622.643    -1179386.243        6949.457          50.000  
  25605253.560        5404.360        1302.238          31.000  
  22790353.492     -660818.196        4809.923          45.000  
 15  4  2  0 10 22.9990000  0 10G30G28G19G 7G 4G 9G13G17G10G11
  20316399.355     -616214.775        3902.629          50.000  
  20716576.631     -578835.792        3823.268          48.000  
  23939112.913      -11354.121         514.680          44.000  
  20999547.390     -275534.958        2457.188          48.000  
  24118141.589      -73014.4602       5067.611          34.000  
  23749088.086      220520.519          72.425          47.000  
  22263359.900     -214260.329        6460.369          45.000  
  22476299.044    -1186342.538        6962.493          50.000  
  25605004.022        4095.301        1315.680          31.000  
  22789438.333     -665634.771        4822.582          46.000  
 15  4  2  0 10 23.9990000  0 11G30G28G19G 7G 4G 5G 9G13G17G10G11
  20315655.802     -620123.934        3915.731          50.000  
  20715847.421     -582665.568        3836.265          48.000  
  23939013.185      -11875.085         527.520          44.000  
  20999079.096     -277998.550        2470.030          48.000  
  24117179.454      -78086.4982       5077.765          34.000  
  24752868.271       -6219.7142       2069.351          31.000  
  23749073.585      220441.473          85.736          48.000  
  22262128.595     -220727.253        6473.513          44.000  
  22474972.461    -1193311.524        6975.473          50.000  
  25604748.027        2773.043        1329.215          30.000  
  22788519.195     -670463.807        4835.579          45.000  
 15  4  2  0 10 24.9990000  0 11G30G28G19G 7G 4G 5G 9G13G17G10G11
  20314909.648     -624046.027        3928.780          50.000  
  20715116.170     -586508.343        3849.406          48.000  
  23938912.113      -12409.010         540.558          44.000  
  20998607.678     -280475.060        2483.192          48.000  
  24116213.428      -83171.4512       5091.323          33.000  
  24752462.257       -8295.6122       2082.589          30.000  
  23749055.891      220349.284          98.774          48.000  
  22260896.383     -227206.992        6486.173          45.000  
  22473644.534    -1200293.502        6988.627          50.000  
  25604498.402        1437.286        1343.413          30.000  
  22787597.754     -675305.555        4848.218          45.000  
 15  4  2  0 10 25.9990000  0 11G30G28G19G 7G 4G 5G 9G13G17G10G11
  20314160.667     -627981.451        3941.494          49.000  
  20714382.493     -590364.475        3862.337          48.000  
  23938807.551      -12956.215         553.369          44.000  
  20998133.870     -282964.869        2496.089          48.000  
  24115241.224      -88269.5542       5104.168          34.000  
  24752069.714      -10384.9503       2095.767          30.000  
  23749035.823      220243.530         112.066          48.000  
  22259661.501     -233699.946        6499.111          45.000  
  22472313.083    -1207288.845        7001.458          50.000  
  25604237.696          87.710        1355.621          29.000  
  22786673.695     -680160.431        4860.963          45.000  
 15  4  2  0 10 26.9990000  0 11G30G28G19G 7G 4G 5G 9G13G17G10G11
  20313408.859     -631929.677        3954.302          49.000  
  20713646.268     -594233.462        3875.126          47.000  
  23938701.786      -13516.199         566.429          44.000  
  20997657.758     -285467.439        2508.712          47.000  
  24114273.487      -93380.3333       5116.067          32.000  
  24751660.698      -12487.0812       2108.431          30.000  
  23749013.556      220124.789         124.908          47.000  
  22258423.269     -240205.565        6511.473          44.000  
  22470980.113    -1214297.009        7014.468          48.000  
  25603980.096       -1275.3931       1369.451          27.000  
  22785746.530     -685027.868        4873.622          45.000  
 15  4  2  0 10 27.9990000  0 11G30G28G19G 7G 4G 5G 9G13G17G10G11
  20312655.743     -635890.478        3966.725          49.000  
  20712907.548     -598115.057        3887.390          47.000  
  23938592.198      -14088.730         578.657          44.000  
  20997178.819     -287982.561        2520.693          47.000  
  24113304.546      -98503.6692       5129.124          33.000  
  24751256.202      -14601.8452       2120.488          31.000  
  23748987.503      219993.267         136.996          47.000  
  22257182.820     -246723.647        6523.938          45.000  
  22469643.618    -1221317.774        7026.064          49.000  
  25603713.317       -2651.4121       1382.664          26.000  
  22784818.353     -689907.651        4885.387          44.000  
 15  4  2  0 10 28.9990000  0 10G30G28G19G 7G 5G 9G13G17G10G11
  20311898.752     -639863.345        3978.947          49.000  
  20712165.652     -602008.699        3899.568          47.000  
  23938481.320      -14673.888         591.222          45.000  
  20996696.495     -290509.333        2532.313          48.000  
  24750852.876      -16728.2502       2130.453          30.000  
  23748960.560      219851.095         146.573          45.000  
  22255942.022     -253254.069        6537.304          44.000  
  22468305.483    -1228349.167        7036.525          49.000  
  25603449.836       -4038.8843       1390.990          26.000  
  22783885.918     -694798.865        4897.045          45.000  
 15  4  2  0 10 29.9990000  0 11G30G28G19G 7G 4G 5G 9G13G17G10G11
  20311140.401     -643850.651        3994.432          49.000  
  20711421.871     -605916.555        3914.736          48.000  
  23938367.178      -15274.730         607.713          43.000  
  20996212.426     -293049.541        2546.067          49.000  
  24111343.822     -108787.3062       5157.645          40.000  
  24750442.795      -18867.3293       2146.014          33.000  
  23748932.360      219698.055         156.921          47.000  
  22254696.094     -259799.725        6553.504          45.000  
  22466965.219    -1235391.469        7046.401          51.000  
  25603178.712       -5436.5163       1405.083          25.000  
  22782953.012     -699703.174        4909.928          45.000  
 15  4  2  0 10 30.9990000  0 10G30G28G19G 7G 4G 9G13G17G10G11
  20310379.746     -647848.803        4000.580          49.000  
  20710675.718     -609835.004        3920.801          47.000  
  23938251.675      -15887.861         616.769          38.000  
  20995727.677     -295599.680        2552.366          48.000  
  24110346.699     -113946.603        5160.281          42.000  
  23748901.753      219537.742         162.248          45.000  
  22253448.264     -266356.962        6559.436          46.000  
  22465623.769    -1242441.190        7051.482          51.000  
  25602915.161       -6843.2403       1409.437          23.000  
  22782017.488     -704617.048        4916.195          45.000  
 15  4  2  0 10 31.9990000  0 11G30G28G19G 1G 7G 4G 9G13G17G10G11
  20309617.014     -651856.685        4015.135          50.000  
  20709927.993     -613762.978        3935.222          47.000  
  23938132.717      -16511.870         632.114          41.000  
  24169728.516      -14313.8243       6067.158          40.000  
  20995239.123     -298158.489        2565.125          48.000  
  24109356.033     -119114.332        5172.875          34.000  
  23748870.116      219371.609         168.630          46.000  
  22252199.090     -272924.639        6575.309          49.000  
  22464281.236    -1249496.819        7058.783          50.000  
  25602645.573       -8257.7613       1417.404          23.000  
  22781081.633     -709539.207        4925.118          44.000  
 15  4  2  0 10 32.9990000  0 10G30G28G19G 7G 4G 9G13G17G10G11
  20308851.264     -655878.604        4026.968          49.000  
  20709178.070     -617704.293        3946.350          47.000  
  23938011.106      -17153.422         648.619          42.000  
  20994750.988     -300729.065        2574.674          49.000  
  24108371.143     -124292.2293       5185.192          41.000  
  23748837.728      219200.446         171.071          47.000  
  22250946.147     -279508.355        6589.343          48.000  
  22462936.697    -1256557.867        7061.416          50.000  
  25602374.309       -9679.0063       1420.318          24.000  
  22780142.200     -714472.835        4935.978          41.000  
 15  4  2  0 10 33.9990000  0 10G30G28G19G 7G 4G 9G13G17G10G11
  20308083.681     -659911.935        4038.574          50.000  
  20708426.123     -621656.393        3957.291          48.000  
  23937886.407      -17809.707         662.890          42.000  
  20994260.672     -303308.584        2583.895          48.000  
  24107386.026     -129482.6223       5198.157          37.000  
  23748804.572      219027.683         174.094          47.000  
  22249690.778     -286105.675        6603.486          47.000  
  22461592.821    -1263621.056        7064.604          50.000  
  25602103.586      -11103.3383       1426.472          24.000  
  22779202.122     -719413.9353       4945.556          46.000  
 15  4  2  0 10 34.9990000  0 11G30G28G19G 1G 7G 4G 9G13G17G10G11
  20307314.336     -663955.907        4048.670          50.000  
  20707672.099     -625618.615        3967.421          47.000  
  23937758.881      -18479.392         674.171          40.000  
  24166251.037      -11459.8502       6085.822          36.000  
  20993768.017     -305896.792        2592.521          49.000  
  24106398.518     -134682.3713       5204.906          44.000  
  23748770.579      218852.118         177.580          46.000  
  22248433.403     -292715.303        6615.737          47.000  
  22460247.810    -1270687.476        7067.905          50.000  
  25601836.022      -12529.6683       1424.852          25.000  
  22778259.619     -724364.1952       4954.011          47.000  
 15  4  2  0 10 35.9990000  0 11G30G28G19G 1G 7G 4G 9G13G17G10G11
  20306543.822     -668003.447        4047.827          49.000  
  20706917.464     -629583.866        3964.868          48.000  
  23937630.447      -19155.123         679.075          40.000  
  24165093.721      -17544.3892       6083.374          43.000  
  20993275.258     -308486.978        2589.828          48.000  
  24105407.904     -139884.3992       5203.211          42.000  
  23748737.546      218679.168         170.765          47.000  
  22247175.033     -299329.686        6615.075          47.000  
  22458903.864    -1277751.449        7061.410          50.000  
  25601568.528      -13952.4023       1418.802          25.000  
  22777317.185     -729316.0722       4950.918          44.000  
 15  4  2  0 10 36.9990000  0 12G30G28G19G 1G 7G 4G 5G 9G13G17G10G11
  20305774.441     -672052.436        4051.472          49.000  
  20706162.899     -633550.195        3968.512          48.000  
  23937500.740      -19834.723         682.935          39.000  
  24163936.527      -23626.5282       6083.943          39.000  
  20992782.202     -311076.752        2591.826          48.000  
  24104419.122     -145086.7582       5204.370          38.000  
  24747524.404       -5532.4253       2190.347          41.000  
  23748706.031      218512.037         166.336          46.000  
  22245915.598     -305947.215        6620.864          47.000  
  22457560.878    -1284810.002        7058.429          49.000  
  25601301.121      -15372.4503       1420.270          25.000  
  22776375.396     -734267.2232       4952.924          46.000  
 15  4  2  0 10 37.9990000  0 12G30G28G19G 1G 7G 4G 5G 9G13G17G10G11
  20305002.252     -676108.989        4059.889          49.000  
  20705406.781     -637523.745        3977.232          47.000  
  23937369.706      -20522.0733        691.701          39.000  
  24162777.711      -29714.3792       6090.461          40.000  
  20992287.960     -313673.163        2599.933          48.000  
  24103427.880     -150296.4503       5213.097          41.000  
  24747108.024       -7725.9053       2168.335          32.000  
  23748673.521      218341.055         175.701          45.000  
  22244654.017     -312572.966        6628.817          46.000  
  22456216.444    -1291872.324        7065.941          49.000  
  25601034.638      -16794.8403       1423.651          26.000  
  22775432.038     -739224.7372       4961.028          45.000  
 15  4  2  0 10 38.9990000  0 11G30G28G19G 1G 7G 4G 9G13G17G10G11
  20304228.544     -680171.571        4065.019          49.000  
  20704649.477     -641503.216        3981.711          47.000  
  23937237.590      -21216.5643        697.589          40.000  
  24161618.440      -35808.9282       6096.365          42.000  
  20991793.263     -316275.876        2604.894          47.000  
  24102431.281     -155511.0423       5215.743          38.000  
  23748638.970      218163.295         180.388          45.000  
  22243392.087     -319204.155        6634.221          46.000  
  22454871.119    -1298941.289        7072.219          49.000  
  25600764.736      -18223.8273       1431.418          27.000  
  22774487.876     -744188.3742       4966.015          45.000  
 15  4  2  0 10 39.9990000  0 12G30G28G19G 1G 7G 4G 5G 9G13G17G10G11
  20303454.103     -684241.014        4074.864          49.000  
  20703890.933     -645489.842        3991.939          47.000  
  23937104.340      -21917.8222        706.711          42.000  
  24160456.971      -41910.6383       6106.205          41.000  
  20991296.194     -318885.441        2614.856          48.000  
  24101440.562     -160733.1793       5213.839          31.000  
  24746269.925      -12124.0502       2212.229          38.000  
  23748604.366      217977.856         190.736          46.000  
  22242128.971     -325842.154        6643.127          47.000  
  22453524.870    -1306017.648        7081.342          49.000  
  25600487.661      -19658.5333       1436.177          25.000  
  22773542.162     -749158.7782       4975.583          46.000  
 15  4  2  0 10 40.9990000  0 12G30G28G19G 1G 7G 4G 5G 9G13G17G10G11
  20302677.499     -688322.729        4089.347          49.000  
  20703129.301     -649488.844        4006.761          47.000  
  23936969.014      -22631.1322        719.859          43.000  
  24159294.857      -48020.7913       6107.680          37.000  
  20990797.554     -321506.908        2628.450          48.000  
  24100446.248     -165962.4123       5239.302          42.000  
  24745843.040      -14341.9153       2221.609          36.000  
  23748567.058      217780.956         201.891          45.000  
  22240863.568     -332492.470        6658.265          47.000  
  22452175.915    -1313105.620        7093.638          49.000  
  25600214.932      -21101.6853       1452.283          23.000  
  22772593.882     -754140.6142       4987.800          45.000  
 15  4  2  0 10 41.9990000  0 13G30G20G28G19G 1G 7G 4G 5G 9G13G17G10
                                G11
  20301898.626     -692415.745        4100.438          48.000  
  25098540.245       -1334.3733       1634.099          31.000  
  20702366.552     -653499.116        4017.667          46.000  
  23936831.332      -23356.7302        732.891          40.000  
  24158129.252      -54143.4923       6129.736          40.000  
  20990296.733     -324138.777        2638.219          47.000  
  24099446.648     -171206.8922       5249.322          39.000  
  24745422.839      -16572.0793       2235.760          42.000  
  23748528.301      217575.490         210.038          48.000  
  22239595.775     -339154.790        6670.135          46.000  
  22450825.914    -1320202.262        7100.940          49.000  
  25599917.667      -22559.2223       1464.066          29.000  
  22771643.805     -759132.6242       4997.854          45.000  
 15  4  2  0 10 42.9990000  0 12G30G28G19G 1G 7G 4G 5G 9G13G17G10G11
  20301117.624     -696520.243        4111.449          48.000  
  20701601.430     -657520.538        4028.597          46.000  
  23936691.887      -24093.7463        739.752          28.000  
  24156961.832      -60276.3752       6138.749          40.000  
  20989793.783     -326781.279        2649.445          47.000  
  24098452.003     -176459.3343       5253.939          35.000  
  24744996.164      -18812.3922       2244.467          41.000  
  23748487.659      217362.481         218.315          45.000  
  22238325.504     -345829.664        6682.279          47.000  
  22449474.308    -1327306.380        7109.530          50.000  
  25599633.334      -24026.5393       1472.780          30.000  
  22770691.459     -764135.166        5009.254          46.000  
 15  4  2  0 10 43.9990000  0 12G30G28G19G 1G 7G 4G 5G 9G13G17G10G11
  20300333.708     -700638.699        4126.589          49.000  
  20700833.481     -661555.752        4043.930          47.000  
  23936549.720      -24841.5423        763.947          29.000  
  24155793.488      -66422.7842       6151.005          36.000  
  20989288.703     -329437.455        2663.767          48.000  
  24097447.045     -181724.1883       5267.358          30.000  
  24744569.017      -21067.0493       2264.951          39.000  
  23748444.889      217136.154         234.186          46.000  
  22237053.261     -352518.467        6696.240          47.000  
  22448119.804    -1334423.570        7125.147          49.000  
  25599351.338      -25505.2323       1486.833          30.000  
  22769737.403     -769151.340        5023.818          38.000  
 15  4  2  0 10 44.9990000  0 10G30G28G19G 7G 5G 9G13G17G10G11
  20299547.767     -704767.885        4137.215          49.000  
  20700063.472     -665601.905        4054.983          47.000  
  23936399.474      -25607.2703        772.959          44.000  
  20988781.181     -332104.362        2674.530          43.000  
  24744148.676      -23323.6603       2232.833          27.000  
  23748399.535      216898.642         247.178          46.000  
  22235777.632     -359217.873        6708.286          46.000  
  22446763.364    -1341551.868        7137.043          49.000  
  25599065.102      -26996.6122       1500.552          39.000  
  22768781.184     -774178.1273       5029.645          37.000  
 15  4  2  0 10 45.9990000  0 12G30G28G19G 1G 7G 4G 5G 9G13G17G10G11
  20298760.902     -708905.942        4138.195          49.000  
  20699292.068     -669656.902        4055.296          47.000  
  23936253.799      -26380.3562        773.021          42.000  
  24153449.505      -78769.0973       6168.950          33.000  
  20988272.124     -334779.8853       2675.367          48.000  
  24095431.283       -4833.8003       5288.321          43.000  
  24743703.277      -25596.0723       2272.113          42.000  
  23748352.559      216653.5353        250.145          39.000  
  22234501.725     -365926.066        6708.925          46.000  
  22445405.022    -1348688.049        7135.139          48.000  
  25598775.795      -28496.2943       1495.949          28.000  
  22767826.989     -779214.7253       5045.651          34.000  
 15  4  2  0 10 46.9990000  0 12G30G28G19G 1G 7G 4G 5G 9G13G17G10G11
  20297973.007     -713046.901        4141.821          49.000  
  20698520.088     -673714.955        4059.669          47.000  
  23936110.044      -27156.6303        773.605          36.000  
  24152273.517      -84940.5893       6166.086          38.000  
  20987762.001     -337457.6152       2679.089          48.000  
  24094426.412      -10124.7402       5291.604          43.000  
  24743268.156      -27872.3642       2278.365          41.000  
  23748306.404      216406.8113        248.958          41.000  
  22233224.299     -372637.809        6713.002          47.000  
  22444046.836    -1355825.415        7137.251          50.000  
  25598495.248      -29996.7113       1509.156          27.000  
  22766863.684     -784252.2833       5037.434          45.000  
 15  4  2  0 10 47.9990000  0 11G30G28G19G 7G 4G 5G 9G13G17G10G11
  20297183.368     -717196.590        4157.105          49.000  
  20697745.508     -677782.245        4076.698          47.000  
  23935955.767      -27934.2333        792.633          36.000  
  20987250.885     -340144.2852       2695.385          48.000  
  24093434.350      -15412.2893       5302.868          29.000  
  24742835.827      -30154.7573       2293.978          44.000  
  23748256.740      216149.0662        271.202          46.000  
  22231944.989     -379358.063        6727.232          45.000  
  22442686.731    -1362973.827        7160.093          50.000  
  25598206.778      -31505.2743       1524.621          27.000  
  22765903.329     -789297.8462       5054.003          44.000  
 15  4  2  0 10 48.9990000  0 10G30G28G19G 7G 5G 9G13G17G10G11
  20296392.541     -721353.427        4165.518          49.000  
  20696969.601     -681857.903        4086.140          47.000  
  23935807.231      -28720.5233        790.924          42.000  
  20986737.586     -342841.4222       2709.542          48.000  
  24742399.310      -32452.3292       2305.360          34.000  
  23748201.842      215869.9582        300.862          42.000  
  22230665.835     -386082.358        6731.192          47.000  
  22441322.578    -1370142.746        7188.828          49.000  
  25597920.507      -33039.8493       1551.913          25.000  
  22764941.403     -794354.0132       5067.948          45.000  
 15  4  2  0 10 49.9990000  0 13G30G20G28G19G 1G 7G 4G 5G 9G13G17G10
                                G11
  20295602.169     -725506.384        4153.804          49.000  
  25095990.524       -8220.8393       1727.101          37.000  
  20696194.811     -685931.217        4074.303          46.000  
  23935661.452      -29494.4432        771.931          43.000  
  24148742.047       -9949.7233       6207.603          42.000  
  20986223.852     -345540.8392       2703.807          46.000  
  24091398.066      -26020.7013       5308.759          39.000  
  24741969.371      -34754.5463       2305.630          29.000  
  23748146.525      215569.7162        312.431          43.000  
  22229388.200     -392796.701        6712.438          47.000  
  22439955.004    -1377330.707        7199.268          50.000  
  25597628.443      -34596.2873       1565.370          26.000  
  22763978.762     -799413.1772       5063.866          41.000  
 15  4  2  0 10 50.9990000  0 12G30G28G19G 1G 7G 4G 5G 9G13G17G10G11
  20294812.878     -729656.166        4153.977          50.000  
  20695420.406     -690002.584        4075.743          47.000  
  23935512.741      -30258.4592        766.127          43.000  
  24147560.091      -16157.3062       6214.354          39.000  
  20985709.751     -348242.0292       2707.050          48.000  
  24090390.037      -31328.1303       5312.771          39.000  
  24741531.563      -37058.1793       2305.328          29.000  
  23748088.189      215252.8292        325.790          45.000  
  22228111.822     -399502.971        6709.080          48.000  
  22438583.400    -1384533.507        7210.505          49.000  
  25597339.974      -36168.0693       1575.877          26.000  
  22763014.114     -804474.4252       5066.134          46.000  
 15  4  2  0 10 51.9990000  0 11G30G28G19G 7G 4G 5G 9G13G17G10G11
  20294023.779     -733802.677        4139.326          50.000  
  20694646.872     -694070.812        4060.364          46.000  
  23935366.403      -31018.3743        752.837          42.000  
  20985196.052     -350940.6502       2690.373          46.000  
  24089379.059      -36633.0582       5298.213          39.000  
  24741090.177      -39359.5673       2292.236          29.000  
  23748023.780      214936.3162        304.963          44.000  
  22226836.490     -406205.104        6695.863          47.000  
  22437213.401    -1391735.620        7191.116          49.000  
  25597038.556      -37739.5063       1562.305          26.000  
  22762051.926     -809533.1612       5048.770          45.000  
 15  4  2  0 10 52.9990000  0 11G30G28G19G 1G 7G 5G 9G13G17G10G11
  20293236.408     -737938.317        4134.361          49.000  
  20693874.788     -698127.862        4055.561          47.000  
  23935225.807      -31770.0912        751.440          43.000  
  24145201.782       -5728.2723       6190.265          36.000  
  20984685.109     -353626.2802       2683.319          47.000  
  24740650.553      -41650.2013       2284.191          37.000  
  23747970.714      214638.4012        293.656          47.000  
  22225562.711     -412898.271        6692.257          47.000  
  22435846.595    -1398919.538        7179.127          48.000  
  25596728.692      -39291.7033       1547.202          26.000  
  22761093.787     -814578.4662       5043.318          45.000  
 15  4  2  0 10 53.9990000  0 12G30G20G28G19G 1G 7G 5G 9G13G17G10G11
  20292448.321     -742078.272        4146.540          49.000  
  25094674.149       -1046.6583       1710.726          35.000  
  20693101.656     -702188.593        4066.636          47.000  
  23935082.471      -32529.6552        767.927          41.000  
  24144022.339      -11918.0032       6192.801          42.000  
  20984173.539     -356313.5892       2691.756          48.000  
  24740217.230      -43939.0953       2292.375          43.000  
  23747913.407      214346.5752        291.139          48.000  
  22224287.624     -419598.131        6708.188          48.000  
  22434480.470    -1406098.039        7177.998          49.000  
  25596435.634      -40840.5063       1547.981          26.000  
  22760132.926     -819624.8072       5050.560          45.000  
 15  4  2  0 10 54.9990000  0 12G30G20G28G19G 1G 7G 5G 9G13G17G10G11
  20291658.280     -746231.515        4160.772          50.000  
  25094355.404        -330.7973       1714.373          35.000  
  20692326.430     -706261.661        4080.184          47.000  
  23934935.191      -33307.6472        788.237          43.000  
  24142841.605      -18114.0292       6201.548          40.000  
  20983660.938     -359010.630        2703.218          48.000  
  24739774.326      -46237.0732       2305.351          40.000  
  23747857.828      214055.745         292.541          47.000  
  22223009.465     -426314.376        6725.153          48.000  
  22433113.716    -1413276.442        7180.634          49.000  
  25596134.146      -42393.6033       1549.684          33.000  
  22759170.930     -824680.831        5061.722          46.000  
 15  4  2  0 10 55.9990000  0 12G30G28G19G 1G 7G 4G 5G 9G13G17G10G11
  20290864.888     -750398.957        4168.550          49.000  
  20691548.482     -710347.926        4086.809          47.000  
  23934783.688      -34104.1542        800.799          43.000  
  24141663.349      -24325.8593       6234.630          29.000  
  20983144.866     -361719.106        2708.231          49.000  
  24085341.532      -10908.1412       5320.178          43.000  
  24739338.663      -48544.9113       2311.049          41.000  
  23747802.564      213762.259         291.190          45.000  
  22221728.689     -433047.062        6734.374          47.000  
  22431748.132    -1420457.941        7178.561          49.000  
  25595841.680      -43943.6583       1547.368          30.000  
  22758207.032     -829747.424        5067.119          45.000  
 15  4  2  0 10 56.9990000  0 11G30G28G19G 1G 7G 5G 9G13G17G10G11
  20290070.572     -754573.866        4179.333          49.000  
  20690769.766     -714440.770        4097.659          47.000  
  23934629.132      -34912.0622        814.669          44.000  
  24140473.000       -3571.2413       6206.925          32.000  
  20982628.880     -364432.984        2717.171          49.000  
  24738898.813      -50857.2203       2315.074          39.000  
  23747747.491      213470.547         292.328          46.000  
  22220445.644     -439788.995        6747.563          47.000  
  22430382.321    -1427637.774        7180.669          49.000  
  25595549.337      -45490.1703       1550.836          34.000  
  22757241.634     -834819.133        5075.347          45.000  
 15  4  2  0 10 57.9990000  0 10G30G28G19G 7G 5G 9G13G17G10G11
  20289272.992     -758762.161        4201.471          48.000  
  20689988.397     -718546.507        4119.180          47.000  
  23934473.144      -35735.6492        838.272          36.000  
  20982109.998     -367158.776        2739.171          49.000  
  24738455.752      -53176.4733       2332.788          38.000  
  23747689.957      213171.668         310.315          46.000  
  22219159.930     -446545.473        6770.126          46.000  
  22429013.648    -1434824.995        7197.535          48.000  
  25595255.842      -47040.0013       1567.781          30.000  
  22756273.775     -839902.395        5095.114          45.000  
 15  4  2  0 10 58.9990000  0 11G30G28G19G 7G 4G 5G 9G13G17G10G11
  20288473.755     -762965.064        4204.254          48.000  
  20689204.307     -722666.664        4122.508          46.000  
  23934312.847      -36570.3003        842.179          39.000  
  20981589.074     -369897.586        2740.552          42.000  
  24082294.148       -5862.4963       5361.626          28.000  
  24738014.681      -55510.8613       2339.491          37.000  
  23747631.359      212863.530         308.225          46.000  
  22217871.231     -453317.739        6775.977          47.000  
  22427644.312    -1442021.990        7197.973          49.000  
  25594957.670      -48606.4033       1564.427          26.000  
  22755304.241     -844998.486        5098.515          38.000  
 15  4  2  0 10 59.9990000  0 10G30G28G19G 7G 5G 9G13G17G10G11
  20287672.318     -767176.997        4216.282          49.000  
  20688418.296     -726795.663        4133.768          46.000  
  23934147.890      -37418.2293        855.078          42.000  
  20981066.440     -372644.2973       2751.130          45.000  
  24737565.966      -57857.1473       2361.330          30.000  
  23747573.407      212550.590         314.208          42.000  
  22216580.386     -460099.879        6787.005          47.000  
  22426273.318    -1449223.881        7204.099          49.000  
  25594650.389      -50180.4743       1573.085          39.000  
  22754333.974     -850102.031        5107.333          46.000  
 15  4  2  0 11  0.9990000  0 11G30G28G19G 1G 7G 4G 9G13G17G10G11
  20286869.783     -771392.542        4212.658          49.000  
  20687632.182     -730928.282        4129.794          46.000  
  23933984.329      -38273.2133        851.635          39.000  
  24135746.748       -1157.3813       6245.229          32.000  
  20980542.672     -375393.6002       2745.513          47.000  
  24080252.542      -16583.9603       5363.978          29.000  
  23747513.431      212236.9103        309.371          42.000  
  22215289.035     -466886.635        6784.499          46.000  
  22424903.040    -1456426.310        7199.329          49.000  
  25594356.213      -51754.8093       1569.564          29.000  
  22753361.194     -855207.3853       5103.084          44.000  
 15  4  2  0 11  1.9990000  0 11G30G28G19G 1G 7G 4G 9G13G17G10G11
  20286069.062     -775602.379        4211.604          50.000  
  20686846.608     -735055.142        4128.841          47.000  
  23933828.097      -39121.9273        851.723          42.000  
  24134581.597       -7388.3713       6222.208          35.000  
  20980021.224     -378137.0543       2744.607          49.000  
  24079239.505      -21935.1753       5333.330          32.000  
  23747454.519      211929.7512        308.364          44.000  
  22213998.225     -473667.672        6782.876          48.000  
  22423534.262    -1463622.350        7198.830          50.000  
  25594066.400      -53321.6833       1577.974          30.000  
  22752391.224     -860307.2492       5102.596          45.000  
 15  4  2  0 11  2.9990000  0 10G30G28G19G 7G 4G 9G13G17G10G11
  20285268.272     -779811.465        4208.642          50.000  
  20686061.261     -739181.341        4125.753          47.000  
  23933665.112      -39970.1183        844.873          36.000  
  20979499.620     -380879.5442       2742.150          49.000  
  24078211.949      -27289.4943       5355.748          41.000  
  23747396.200      211623.7542        307.250          41.000  
  22212708.096     -480447.785        6779.635          46.000  
  22422164.699    -1470817.192        7194.604          50.000  
  25593768.664      -54888.8103       1572.015          29.000  
  22751421.288     -865405.7562       5098.439          46.000  
 15  4  2  0 11  3.9990000  0 12G30G28G19G 1G 7G 4G 5G 9G13G17G10G11
  20284465.527     -784029.757        4230.625          50.000  
  20685274.901     -743316.740        4147.772          49.000  
  23933505.320      -40829.5003        866.562          30.000  
  24132175.072       -6342.1723       6254.576          43.000  
  20978975.032     -383631.5122       2765.270          49.000  
  24077195.386      -32652.3843       5376.801          33.000  
  24735785.415        -295.9263       2368.513          30.000  
  23747335.718      211307.7002        330.400          46.000  
  22211416.779     -487236.986        6800.803          47.000  
  22420793.426    -1478021.740        7218.456          49.000  
  25593468.678      -56459.1723       1591.399          27.000  
  22750449.329     -870513.8262       5118.365          44.000  
